[
    {
        "id": "1",
        "type": "独立行政法人国立病院機構",
        "name": "旭川医療センター",
        "url": "https://asahikawa.hosp.go.jp/",
        "beds": "310",
        "address": "旭川市花咲町7-4048",
        "tel": "0166-51-3161",
        "lat": "43.798897",
        "lon": "142.381932"
    },
    {
        "id": "2",
        "type": "独立行政法人国立病院機構",
        "name": "函館病院",
        "url": "http://hnh-hosp.jp/",
        "beds": "310",
        "address": "函館市川原町18-16",
        "tel": "0138-51-6281",
        "lat": "41.788905",
        "lon": "140.774105"
    },
    {
        "id": "3",
        "type": "独立行政法人国立病院機構",
        "name": "北海道医療センター",
        "url": "http://www.hosp.go.jp/~hokkaidomc/",
        "beds": "500",
        "address": "札幌市西区山の手5条7-1-1",
        "tel": "011-611-8111",
        "lat": "43.069017",
        "lon": "141.290226"
    },
    {
        "id": "4",
        "type": "国立大学法人",
        "name": "北海道大学病院",
        "url": "http://www.huhp.hokudai.ac.jp",
        "beds": "944",
        "address": "札幌市北区北14条西5",
        "tel": "011-716-1161",
        "lat": "43.077247",
        "lon": "141.345618"
    },
    {
        "id": "5",
        "type": "独立行政法人労働者健康安全機構",
        "name": "釧路労災病院",
        "url": "http://www.kushiroh.johas.go.jp",
        "beds": "450",
        "address": "釧路市中園町13-23",
        "tel": "0154-22-7191",
        "lat": "43.00739",
        "lon": "144.384587"
    },
    {
        "id": "6",
        "type": "独立行政法人労働者健康安全機構",
        "name": "北海道中央労災病院",
        "url": "http://hokkaidoh.johas.go.jp/",
        "beds": "199",
        "address": "岩見沢市4条東16-5",
        "tel": "0126-22-1300",
        "lat": "43.215844",
        "lon": "141.789906"
    },
    {
        "id": "7",
        "type": "独立行政法人地域医療機能推進機構",
        "name": "独立行政法人地域医療機能推進機構　札幌北辰病院",
        "url": "http://hokushin.jcho.go.jp/",
        "beds": "276",
        "address": "札幌市厚別区厚別中央2条6-2-1",
        "tel": "011-893-3000",
        "lat": "43.041785",
        "lon": "141.473877"
    },
    {
        "id": "8",
        "type": "独立行政法人地域医療機能推進機構",
        "name": "登別病院",
        "url": "https://noboribetsu.jcho.go.jp/",
        "beds": "199",
        "address": "登別市登別温泉町133",
        "tel": "0143-84-2165",
        "lat": "42.488052",
        "lon": "141.1481"
    },
    {
        "id": "9",
        "type": "独立行政法人地域医療機能推進機構",
        "name": "北海道病院",
        "url": "http://hokkaido.jcho.go.jp",
        "beds": "358",
        "address": "札幌市豊平区中の島1条8-3-18",
        "tel": "011-831-5151",
        "lat": "43.025541",
        "lon": "141.355744"
    },
    {
        "id": "10",
        "type": "都道府県",
        "name": "北海道立江差病院",
        "url": "http://www.pref.hokkaido.lg.jp/db/esb/",
        "beds": "198",
        "address": "桧山郡江差町字伏木戸町484",
        "tel": "0139-52-0036",
        "lat": "41.913409",
        "lon": "140.144633"
    },
    {
        "id": "11",
        "type": "都道府県",
        "name": "北海道立羽幌病院",
        "url": "http://www.pref.hokkaido.lg.jp/hf/hbb/",
        "beds": "120",
        "address": "苫前郡羽幌町栄町110",
        "tel": "0164-62-6060",
        "lat": "44.354358",
        "lon": "141.694608"
    },
    {
        "id": "12",
        "type": "市町村",
        "name": "小樽市立病院",
        "url": "http://www.otaru-general-hospital.jp/",
        "beds": "388",
        "address": "小樽市若松1-1-1",
        "tel": "0134-25-1211",
        "lat": "43.185408",
        "lon": "141.007699"
    },
    {
        "id": "13",
        "type": "市町村",
        "name": "広域紋別病院",
        "url": "http://www.mombetsu-hospital.jp/",
        "beds": "150",
        "address": "紋別市落石町1-3-37",
        "tel": "0158-24-3111",
        "lat": "44.361778",
        "lon": "143.346719"
    },
    {
        "id": "14",
        "type": "市町村",
        "name": "士別市立病院",
        "url": "http://www.shibetsu-hp.jp/",
        "beds": "148",
        "address": "士別市東11条5-3029-1",
        "tel": "0165-23-2166",
        "lat": "44.178685",
        "lon": "142.407505"
    },
    {
        "id": "15",
        "type": "市町村",
        "name": "市立旭川病院",
        "url": "http://www.city.asahikawa.hokkaido.jp/hospital/",
        "beds": "478",
        "address": "旭川市金星町1-1-65",
        "tel": "0166-24-3181",
        "lat": "43.778162",
        "lon": "142.364934"
    },
    {
        "id": "16",
        "type": "市町村",
        "name": "市立釧路総合病院",
        "url": "http://www.kushiro-cghp.jp",
        "beds": "643",
        "address": "釧路市春湖台1-12",
        "tel": "0154-41-6121",
        "lat": "42.97672",
        "lon": "144.403459"
    },
    {
        "id": "17",
        "type": "市町村",
        "name": "市立札幌病院",
        "url": "http://www.city.sapporo.jp/hospital/",
        "beds": "672",
        "address": "札幌市中央区北11条西13-1-1",
        "tel": "011-726-2211",
        "lat": "43.071051",
        "lon": "141.334181"
    },
    {
        "id": "18",
        "type": "市町村",
        "name": "市立千歳市民病院",
        "url": "https://chitose-shimin-hospital.jp",
        "beds": "190",
        "address": "千歳市北光2-1-1",
        "tel": "0123-24-3000",
        "lat": "42.843903",
        "lon": "141.639862"
    },
    {
        "id": "19",
        "type": "市町村",
        "name": "市立函館病院",
        "url": "http://www.hospital.hakodate.hokkaido.jp/",
        "beds": "648",
        "address": "函館市港町1-10-1",
        "tel": "0138-43-2000",
        "lat": "41.80532",
        "lon": "140.729451"
    },
    {
        "id": "20",
        "type": "市町村",
        "name": "市立室蘭総合病院",
        "url": "http://www.city.muroran.hokkaido.jp/main/org8400/",
        "beds": "549",
        "address": "室蘭市山手町3-8-1",
        "tel": "0143-25-3111",
        "lat": "42.313849",
        "lon": "140.976276"
    },
    {
        "id": "21",
        "type": "市町村",
        "name": "市立稚内病院",
        "url": "http://www.city.wakkanai.hokkaido.jp/hospital/",
        "beds": "332",
        "address": "稚内市中央4-11-6",
        "tel": "0162-23-2771",
        "lat": "45.41316",
        "lon": "141.673382"
    },
    {
        "id": "22",
        "type": "市町村",
        "name": "砂川市立病院",
        "url": "http://www.med.sunagawa.hokkaido.jp",
        "beds": "498",
        "address": "砂川市西4条北3-1-1",
        "tel": "0125-54-2131",
        "lat": "43.512446",
        "lon": "141.910493"
    },
    {
        "id": "23",
        "type": "市町村",
        "name": "町立中標津病院",
        "url": "http://www.nakashibetsu.jp/nakashibetsu_byouin/",
        "beds": "199",
        "address": "標津郡中標津町西10条南9-1-1",
        "tel": "0153-72-8200",
        "lat": "43.536384",
        "lon": "144.972201"
    },
    {
        "id": "24",
        "type": "市町村",
        "name": "苫小牧市立病院",
        "url": "http://www.city.tomakomai.hokkaido.jp/hospital/",
        "beds": "382",
        "address": "苫小牧市清水町1-5-20",
        "tel": "0144-33-3131",
        "lat": "42.652069",
        "lon": "141.603412"
    },
    {
        "id": "25",
        "type": "市町村",
        "name": "名寄市立総合病院",
        "url": "http://www.nayoroch.jp/",
        "beds": "359",
        "address": "名寄市西7条南8-1",
        "tel": "01654-3-3101",
        "lat": "44.34849",
        "lon": "142.451276"
    },
    {
        "id": "26",
        "type": "地方独立行政法人",
        "name": "札幌医科大学附属病院",
        "url": "http://web.sapmed.ac.jp/hospital/",
        "beds": "938",
        "address": "札幌市中央区南1条西16-291",
        "tel": "011-611-2111",
        "lat": "43.056149",
        "lon": "141.332908"
    },
    {
        "id": "27",
        "type": "日赤",
        "name": "旭川赤十字病院",
        "url": "http://www.asahikawa.jrc.or.jp",
        "beds": "520",
        "address": "旭川市曙1条1-1-1",
        "tel": "0166-22-8111",
        "lat": "43.769645",
        "lon": "142.34834"
    },
    {
        "id": "28",
        "type": "日赤",
        "name": "浦河赤十字病院",
        "url": "http://www.urakawa.jrc.or.jp",
        "beds": "196",
        "address": "浦河郡浦河町東町ちのみ1-2-1",
        "tel": "0146-22-5111",
        "lat": "42.159749",
        "lon": "142.787957"
    },
    {
        "id": "29",
        "type": "日赤",
        "name": "置戸赤十字病院",
        "url": "http://oketored.server-shared.com/",
        "beds": "95",
        "address": "常呂郡置戸町字置戸77",
        "tel": "0157-52-3321",
        "lat": "43.67788",
        "lon": "143.587813"
    },
    {
        "id": "30",
        "type": "日赤",
        "name": "北見赤十字病院",
        "url": "http://www.kitami.jrc.or.jp",
        "beds": "532",
        "address": "北見市北6条東2丁目1番地",
        "tel": "0157-24-3115",
        "lat": "43.808184",
        "lon": "143.893426"
    },
    {
        "id": "31",
        "type": "日赤",
        "name": "釧路赤十字病院",
        "url": "http://www.kushiro.jrc.or.jp",
        "beds": "489",
        "address": "釧路市新栄町21-14",
        "tel": "0154-22-7171",
        "lat": "43.001762",
        "lon": "144.380874"
    },
    {
        "id": "32",
        "type": "日赤",
        "name": "栗山赤十字病院",
        "url": "http://www.kuriyama.jrc.or.jp/",
        "beds": "136",
        "address": "夕張郡栗山町朝日3-2",
        "tel": "0123-72-1015",
        "lat": "43.059327",
        "lon": "141.78923"
    },
    {
        "id": "33",
        "type": "日赤",
        "name": "小清水赤十字病院",
        "url": "http://www.phoenix-c.or.jp/~krchp/",
        "beds": "99",
        "address": "斜里郡小清水町南町2丁目3番3号",
        "tel": "0152-62-2121",
        "lat": "43.855841",
        "lon": "144.460103"
    },
    {
        "id": "34",
        "type": "日赤",
        "name": "清水赤十字病院",
        "url": "http://shimizu.jrc.or.jp/",
        "beds": "92",
        "address": "上川郡清水町南2条2-1",
        "tel": "0156-62-2513",
        "lat": "43.012088",
        "lon": "142.882974"
    },
    {
        "id": "35",
        "type": "日赤",
        "name": "伊達赤十字病院",
        "url": "http://date.jrc.or.jp/",
        "beds": "374",
        "address": "伊達市末永町81",
        "tel": "0142-23-2211",
        "lat": "42.476267",
        "lon": "140.870603"
    },
    {
        "id": "36",
        "type": "日赤",
        "name": "函館赤十字病院",
        "url": "http://www.hakodate.jrc.or.jp",
        "beds": "150",
        "address": "函館市堀川町6-21",
        "tel": "0138-51-5315",
        "lat": "41.778543",
        "lon": "140.740635"
    },
    {
        "id": "37",
        "type": "済生会",
        "name": "済生会小樽病院",
        "url": "http://www.saiseikai-otaru.jp",
        "beds": "258",
        "address": "小樽市築港10-1",
        "tel": "0134-25-4321",
        "lat": "43.183991",
        "lon": "141.019003"
    },
    {
        "id": "38",
        "type": "済生会",
        "name": "北海道済生会西小樽病院",
        "url": "http://www.saisei-nishiotaru.jp",
        "beds": "220",
        "address": "小樽市長橋3-24-1",
        "tel": "0134-32-5131",
        "lat": "43.21513",
        "lon": "140.982143"
    },
    {
        "id": "39",
        "type": "北海道社会事業協会",
        "name": "小樽病院",
        "url": "http://www.otarukyokai.or.jp",
        "beds": "240",
        "address": "小樽市住ノ江1-6-15",
        "tel": "0134-23-6234",
        "lat": "43.185691",
        "lon": "141.00495"
    },
    {
        "id": "40",
        "type": "北海道社会事業協会",
        "name": "帯広病院",
        "url": "http://www.obihiro-kyokai-hsp.jp/",
        "beds": "300",
        "address": "帯広市東5条南9-2",
        "tel": "0155-22-6600",
        "lat": "42.922662",
        "lon": "143.213993"
    },
    {
        "id": "41",
        "type": "北海道社会事業協会",
        "name": "函館病院",
        "url": "http://www.hakodatekyokaihp.com/",
        "beds": "286",
        "address": "函館市駒場町4-6",
        "tel": "0138-53-5511",
        "lat": "41.784461",
        "lon": "140.770817"
    },
    {
        "id": "42",
        "type": "北海道社会事業協会",
        "name": "富良野病院",
        "url": "http://msknet.ne.jp/~furano-hospital/",
        "beds": "255",
        "address": "富良野市住吉町1-30",
        "tel": "0167-23-2181",
        "lat": "43.347543",
        "lon": "142.392704"
    },
    {
        "id": "43",
        "type": "北海道社会事業協会",
        "name": "余市病院",
        "url": "http://www.yoichi-hospital.com",
        "beds": "172",
        "address": "余市郡余市町黒川町19-1-1",
        "tel": "0135-23-3126",
        "lat": "43.188531",
        "lon": "140.813669"
    },
    {
        "id": "44",
        "type": "厚生連",
        "name": "旭川厚生病院",
        "url": "http://www.dou-kouseiren.com/byouin/asahikawa/",
        "beds": "539",
        "address": "旭川市1条通24-111-3",
        "tel": "0166-33-7171",
        "lat": "43.758715",
        "lon": "142.38472"
    },
    {
        "id": "45",
        "type": "厚生連",
        "name": "網走厚生病院",
        "url": "http://www.dou-kouseiren.com/byouin/abasiri/",
        "beds": "355",
        "address": "網走市北6条西1-9",
        "tel": "0152-43-3157",
        "lat": "44.026172",
        "lon": "144.262386"
    },
    {
        "id": "46",
        "type": "厚生連",
        "name": "遠軽厚生病院",
        "url": "http://www.dou-kouseiren.com/byouin/engaru/",
        "beds": "337",
        "address": "紋別郡遠軽町大通北3-1-5",
        "tel": "0158-42-4101",
        "lat": "44.06276",
        "lon": "143.524051"
    },
    {
        "id": "47",
        "type": "厚生連",
        "name": "帯広厚生病院",
        "url": "http://www.dou-kouseiren.com/byouin/obihiro/",
        "beds": "748",
        "address": "帯広市西14条南10-1",
        "tel": "0155-24-4161",
        "lat": "42.919401",
        "lon": "143.181039"
    },
    {
        "id": "48",
        "type": "厚生連",
        "name": "札幌厚生病院",
        "url": "http://www.dou-kouseiren.com/byouin/sapporo/",
        "beds": "519",
        "address": "札幌市中央区北3条東8-5",
        "tel": "011-261-5331",
        "lat": "43.067515",
        "lon": "141.369277"
    },
    {
        "id": "49",
        "type": "共済組合及び連合会",
        "name": "ＫＫＲ札幌医療センター",
        "url": "http://www.kkr-smc.com/",
        "beds": "410",
        "address": "札幌市豊平区平岸1条6-3-40",
        "tel": "011-822-1811",
        "lat": "43.036422",
        "lon": "141.367233"
    },
    {
        "id": "50",
        "type": "共済組合及び連合会",
        "name": "斗南病院",
        "url": "http://www.tonan.gr.jp/",
        "beds": "283",
        "address": "札幌市中央区北4条西7丁目3-8",
        "tel": "011-231-2121",
        "lat": "43.065235",
        "lon": "141.345575"
    },
    {
        "id": "51",
        "type": "公益法人",
        "name": "帯広第一病院",
        "url": "http://www.zhi.or.jp",
        "beds": "230",
        "address": "帯広市西4条南15-17-3",
        "tel": "0155-25-3121",
        "lat": "42.914787",
        "lon": "143.199729"
    },
    {
        "id": "52",
        "type": "公益法人",
        "name": "勤医協札幌病院",
        "url": "http://www.satsubyo.com",
        "beds": "105",
        "address": "札幌市白石区菊水4条1-9-22",
        "tel": "011-811-2246",
        "lat": "43.059288",
        "lon": "141.373139"
    },
    {
        "id": "53",
        "type": "公益法人",
        "name": "勤医協中央病院",
        "url": "http://www.kin-ikyo-chuo.jp",
        "beds": "450",
        "address": "札幌市東区東苗穂5条1-9-1",
        "tel": "011-782-9111",
        "lat": "43.091478",
        "lon": "141.403064"
    },
    {
        "id": "54",
        "type": "公益法人",
        "name": "函館市医師会病院",
        "url": "http://www.hmahospital.com",
        "beds": "240",
        "address": "函館市富岡町2-10-10",
        "tel": "0138-43-6000",
        "lat": "41.806965",
        "lon": "140.752778"
    },
    {
        "id": "55",
        "type": "医療法人",
        "name": "網走中央病院",
        "url": "http://abashiri-chuo.or.jp/",
        "beds": "86",
        "address": "網走市南6条東1-7",
        "tel": "0152-44-8611",
        "lat": "44.020293",
        "lon": "144.273177"
    },
    {
        "id": "56",
        "type": "医療法人",
        "name": "岩見沢北翔会病院",
        "url": "http://www.hokushokai.or.jp/i_hokushokai_hp/index.html",
        "beds": "99",
        "address": "岩見沢市10条西21-1-1",
        "tel": "0126-32-2188",
        "lat": "43.187975",
        "lon": "141.75215"
    },
    {
        "id": "57",
        "type": "医療法人",
        "name": "江別病院",
        "url": "http://www.keiwakai-ebetsu.or.jp",
        "beds": "200",
        "address": "江別市野幌代々木町81-6",
        "tel": "011-382-1111",
        "lat": "43.093034",
        "lon": "141.519523"
    },
    {
        "id": "58",
        "type": "医療法人",
        "name": "王子総合病院",
        "url": "http://www.ojihosp.or.jp",
        "beds": "440",
        "address": "苫小牧市若草町3-4-8",
        "tel": "0144-32-8111",
        "lat": "42.638353",
        "lon": "141.603459"
    },
    {
        "id": "59",
        "type": "医療法人",
        "name": "小笠原記念札幌病院",
        "url": "http://www.ogasawara-hp.or.jp",
        "beds": "80",
        "address": "札幌市南区真駒内緑町1-2-1",
        "tel": "011-583-2000",
        "lat": "42.994335",
        "lon": "141.349021"
    },
    {
        "id": "60",
        "type": "医療法人",
        "name": "亀田病院",
        "url": "http://www.hakodate-kameda-hp.com/",
        "beds": "179",
        "address": "函館市昭和1-23-11",
        "tel": "0138-40-1500",
        "lat": "41.818035",
        "lon": "140.744604"
    },
    {
        "id": "61",
        "type": "医療法人",
        "name": "唐沢病院",
        "url": "http://www.karasawa.or.jp/",
        "beds": "60",
        "address": "旭川市4条通9丁目左8号",
        "tel": "0166-23-3165",
        "lat": "43.768384",
        "lon": "142.363698"
    },
    {
        "id": "62",
        "type": "医療法人",
        "name": "くにもと病院",
        "url": "http://www.kunimoto-hp.com/",
        "beds": "61",
        "address": "旭川市曙1条7-2-1",
        "tel": "0166-25-2241",
        "lat": "43.770666",
        "lon": "142.34012"
    },
    {
        "id": "63",
        "type": "医療法人",
        "name": "札幌太田病院",
        "url": "http://www.sapporo-ohta.or.jp/",
        "beds": "234",
        "address": "札幌市西区山の手5条5-1-1",
        "tel": "011-644-5111",
        "lat": "43.070876",
        "lon": "141.291872"
    },
    {
        "id": "64",
        "type": "医療法人",
        "name": "札幌ススキノ病院",
        "url": "http://www.zion-g.jp/susukino/",
        "beds": "50",
        "address": "札幌市中央区南6条西8-5",
        "tel": "011-512-2000",
        "lat": "43.052648",
        "lon": "141.346741"
    },
    {
        "id": "65",
        "type": "医療法人",
        "name": "札幌徳洲会病院",
        "url": "http://www2.satutoku.jp",
        "beds": "301",
        "address": "札幌市厚別区大谷地東1-1-1",
        "tel": "011-890-1110",
        "lat": "43.029235",
        "lon": "141.447932"
    },
    {
        "id": "66",
        "type": "医療法人",
        "name": "札幌東徳洲会病院",
        "url": "https://www.higashi-tokushukai.or.jp/",
        "beds": "325",
        "address": "札幌市東区北33条東14丁目3-1",
        "tel": "011-722-1110",
        "lat": "43.103562",
        "lon": "141.365926"
    },
    {
        "id": "67",
        "type": "医療法人",
        "name": "札幌南病院",
        "url": "http://www.zion-g.jp/sapporominami/",
        "beds": "100",
        "address": "札幌市南区石山東7-1-28",
        "tel": "011-591-1200",
        "lat": "42.954402",
        "lon": "141.343616"
    },
    {
        "id": "68",
        "type": "医療法人",
        "name": "白石中央病院",
        "url": "http://www.sc-hp.org/",
        "beds": "96",
        "address": "札幌市白石区平和通3丁目北2-3",
        "tel": "011-861-8171",
        "lat": "43.053459",
        "lon": "141.411833"
    },
    {
        "id": "69",
        "type": "医療法人",
        "name": "新さっぽろ脳神経外科病院",
        "url": "http://www.snh.or.jp/",
        "beds": "135",
        "address": "札幌市厚別区上野幌1条2-1-10",
        "tel": "011-891-2500",
        "lat": "43.022738",
        "lon": "141.469"
    },
    {
        "id": "70",
        "type": "医療法人",
        "name": "新札幌豊和会病院",
        "url": "http://houwa.or.jp/shinsapporo/",
        "beds": "140",
        "address": "札幌市厚別区大谷地東2-5-12",
        "tel": "011-893-7000",
        "lat": "43.029049",
        "lon": "141.453433"
    },
    {
        "id": "71",
        "type": "医療法人",
        "name": "静和記念病院",
        "url": "http://seiwa-mh.jp/",
        "beds": "95",
        "address": "札幌市西区琴似1条5-1-1",
        "tel": "011-611-1111",
        "lat": "43.074839",
        "lon": "141.304751"
    },
    {
        "id": "72",
        "type": "医療法人",
        "name": "手稲渓仁会病院",
        "url": "http://www.keijinkai.com/teine/",
        "beds": "670",
        "address": "札幌市手稲区前田1条12-1-40",
        "tel": "011-681-8111",
        "lat": "43.122205",
        "lon": "141.243255"
    },
    {
        "id": "73",
        "type": "医療法人",
        "name": "洞爺温泉病院",
        "url": "http://www.toya-onsen-hospital.or.jp",
        "beds": "216",
        "address": "虻田郡洞爺湖町洞爺町54-41",
        "tel": "0142-87-2311",
        "lat": "42.656465",
        "lon": "140.830441"
    },
    {
        "id": "74",
        "type": "医療法人",
        "name": "東札幌病院",
        "url": "http://www.hsh.or.jp",
        "beds": "243",
        "address": "札幌市白石区東札幌3条3-7-35",
        "tel": "011-812-2311",
        "lat": "43.050473",
        "lon": "141.387826"
    },
    {
        "id": "75",
        "type": "医療法人",
        "name": "北海道脳神経外科記念病院",
        "url": "http://www.hnsmhp.or.jp/",
        "beds": "134",
        "address": "札幌市西区八軒9条東5-1-20",
        "tel": "011-717-2131",
        "lat": "43.085138",
        "lon": "141.326304"
    },
    {
        "id": "76",
        "type": "医療法人",
        "name": "室蘭太平洋病院",
        "url": "http://taiheiyo.jp/",
        "beds": "210",
        "address": "室蘭市白鳥台5-19-2",
        "tel": "0143-59-2211",
        "lat": "42.379329",
        "lon": "140.942138"
    },
    {
        "id": "77",
        "type": "医療法人",
        "name": "森病院",
        "url": "http://www.seijinkai-mori.jp/seijinkai/mori/",
        "beds": "135",
        "address": "函館市桔梗町557番地",
        "tel": "0138-47-2222",
        "lat": "41.860425",
        "lon": "140.753504"
    },
    {
        "id": "78",
        "type": "医療法人",
        "name": "吉田病院",
        "url": "http://www.keiyukai-group.com/yoshi-hp/",
        "beds": "263",
        "address": "旭川市4条西4-1-2",
        "tel": "0166-25-1115",
        "lat": "43.773905",
        "lon": "142.343662"
    },
    {
        "id": "79",
        "type": "特定医療法人",
        "name": "札幌循環器病院",
        "url": "http://www.s-junkanki.or.jp/",
        "beds": "89",
        "address": "札幌市中央区北11条西14-29-15",
        "tel": "011-747-5821",
        "lat": "43.072562",
        "lon": "141.333473"
    },
    {
        "id": "80",
        "type": "特定医療法人",
        "name": "茨戸病院",
        "url": "http://barato-hospital.or.jp/",
        "beds": "173",
        "address": "石狩市花川東128-14",
        "tel": "0133-74-3011",
        "lat": "43.168113",
        "lon": "141.343049"
    },
    {
        "id": "81",
        "type": "社会医療法人",
        "name": "恵佑会札幌病院",
        "url": "http://www.keiyukaisapporo.or.jp/",
        "beds": "229",
        "address": "札幌市白石区本通14丁目北1-1",
        "tel": "011-863-2101",
        "lat": "43.039738",
        "lon": "141.427439"
    },
    {
        "id": "82",
        "type": "社会医療法人",
        "name": "札幌清田病院",
        "url": "http://kiyota-hp.or.jp",
        "beds": "109",
        "address": "札幌市清田区真栄1条1-1-1",
        "tel": "011-883-6111",
        "lat": "42.999126",
        "lon": "141.439184"
    },
    {
        "id": "83",
        "type": "社会医療法人",
        "name": "札幌白石記念病院",
        "url": "http://www.ssn-hp.jp",
        "beds": "103",
        "address": "札幌市白石区本通8南1-10",
        "tel": "011-863-5151",
        "lat": "43.044451",
        "lon": "141.416455"
    },
    {
        "id": "84",
        "type": "社会医療法人",
        "name": "札幌禎心会病院",
        "url": "http://www.teishinkai.jp/thp/",
        "beds": "279",
        "address": "札幌市東区北33条東1-3-1",
        "tel": "011-712-1131",
        "lat": "43.100865",
        "lon": "141.346457"
    },
    {
        "id": "85",
        "type": "社会医療法人",
        "name": "札幌南一条病院",
        "url": "http://www.h-keiaikai.or.jp/minamiichijo/",
        "beds": "147",
        "address": "札幌市中央区南1条西13-317-1",
        "tel": "011-271-3711",
        "lat": "43.0566",
        "lon": "141.337825"
    },
    {
        "id": "86",
        "type": "社会医療法人",
        "name": "社会医療法人　高橋病院",
        "url": "http://takahashi-group.jp/",
        "beds": "179",
        "address": "函館市元町32-18",
        "tel": "0138-23-7221",
        "lat": "41.765459",
        "lon": "140.712069"
    },
    {
        "id": "87",
        "type": "社会医療法人",
        "name": "製鉄記念室蘭病院",
        "url": "http://www.nshp-muroran.or.jp/",
        "beds": "347",
        "address": "室蘭市知利別町1-45",
        "tel": "0143-44-4650",
        "lat": "42.3578",
        "lon": "141.01615"
    },
    {
        "id": "88",
        "type": "社会医療法人",
        "name": "手稲いなづみ病院",
        "url": "http://www.inazumi.or.jp/",
        "beds": "95",
        "address": "札幌市手稲区前田三条4-2-6",
        "tel": "011-685-2200",
        "lat": "43.115531",
        "lon": "141.261974"
    },
    {
        "id": "89",
        "type": "社会医療法人",
        "name": "時計台記念病院",
        "url": "http://www.tokeidaihosp.or.jp/",
        "beds": "250",
        "address": "札幌市中央区北1条東1-2-3",
        "tel": "011-251-1221",
        "lat": "43.0631",
        "lon": "141.357466"
    },
    {
        "id": "90",
        "type": "社会医療法人",
        "name": "苫小牧東病院",
        "url": "http://health-heart-hope.com/",
        "beds": "260",
        "address": "苫小牧市明野新町５丁目１番３０号",
        "tel": "0144-55-8811",
        "lat": "42.662571",
        "lon": "141.636702"
    },
    {
        "id": "91",
        "type": "社会医療法人",
        "name": "中村記念病院",
        "url": "http://www.nmh.or.jp/",
        "beds": "499",
        "address": "札幌市中央区南1条西14-291",
        "tel": "011-231-8555",
        "lat": "43.056428",
        "lon": "141.336472"
    },
    {
        "id": "92",
        "type": "社会医療法人",
        "name": "西岡病院",
        "url": "http://www.nishioka-hosp.jp",
        "beds": "98",
        "address": "札幌市豊平区西岡4条4-1-52",
        "tel": "011-853-8322",
        "lat": "43.016214",
        "lon": "141.38859"
    },
    {
        "id": "93",
        "type": "社会医療法人",
        "name": "日鋼記念病院",
        "url": "http://www.nikko-kinen.or.jp/",
        "beds": "479",
        "address": "室蘭市新富町1-5-13",
        "tel": "0143-24-1331",
        "lat": "42.315646",
        "lon": "140.985609"
    },
    {
        "id": "94",
        "type": "社会医療法人",
        "name": "聖ヶ丘病院",
        "url": "http://www.jikeikai.or.jp/facility/p1.html",
        "beds": "288",
        "address": "伊達市舟岡町214-22",
        "tel": "0142-21-5300",
        "lat": "42.465515",
        "lon": "140.882704"
    },
    {
        "id": "95",
        "type": "社会医療法人",
        "name": "北斗病院",
        "url": "http://www.hokuto7.or.jp/",
        "beds": "267",
        "address": "帯広市稲田町基線7-5",
        "tel": "0155-48-8000",
        "lat": "42.880038",
        "lon": "143.189156"
    },
    {
        "id": "96",
        "type": "社会医療法人",
        "name": "北楡会札幌北楡病院",
        "url": "http://www.hokuyu-aoth.org/",
        "beds": "281",
        "address": "札幌市白石区東札幌6条6-5-1",
        "tel": "011-865-0111",
        "lat": "43.049235",
        "lon": "141.39955"
    },
    {
        "id": "97",
        "type": "社会医療法人",
        "name": "北光記念病院",
        "url": "http://www.hokko.or.jp/",
        "beds": "145",
        "address": "札幌市東区北27条東8-1-6",
        "tel": "011-722-1133",
        "lat": "43.096686",
        "lon": "141.36088"
    },
    {
        "id": "98",
        "type": "社会福祉法人",
        "name": "共愛会病院",
        "url": "http://www.kyoaikai-hosp.com",
        "beds": "378",
        "address": "函館市中島町7-21",
        "tel": "0138-51-2111",
        "lat": "41.785406",
        "lon": "140.740385"
    },
    {
        "id": "99",
        "type": "社会福祉法人",
        "name": "慈啓会病院",
        "url": "http://www.sapporojikeikai.or.jp/jikeikai/",
        "beds": "235",
        "address": "札幌市中央区旭ケ丘5-6-50",
        "tel": "011-561-8292",
        "lat": "43.03648",
        "lon": "141.322934"
    },
    {
        "id": "100",
        "type": "社会福祉法人",
        "name": "函館五稜郭病院",
        "url": "http://www.gobyou.com/",
        "beds": "480",
        "address": "函館市五稜郭町38-3",
        "tel": "0138-51-2295",
        "lat": "41.792384",
        "lon": "140.756044"
    },
    {
        "id": "101",
        "type": "社会福祉法人",
        "name": "函館中央病院",
        "url": "http://www.chubyou.com/",
        "beds": "527",
        "address": "函館市本町33-2",
        "tel": "0138-52-1231",
        "lat": "41.786629",
        "lon": "140.751768"
    },
    {
        "id": "102",
        "type": "会社",
        "name": "ＮＴＴ東日本札幌病院",
        "url": "http://www.ntt-east.co.jp/smc/",
        "beds": "301",
        "address": "札幌市中央区南1条西15-290",
        "tel": "011-623-7000",
        "lat": "43.055829",
        "lon": "141.334596"
    },
    {
        "id": "103",
        "type": "会社",
        "name": "ＪＲ札幌病院",
        "url": "https://hospital.jrhokkaido.co.jp/",
        "beds": "312",
        "address": "札幌市中央区北3条東1",
        "tel": "011-208-7150",
        "lat": "43.065569",
        "lon": "141.356779"
    },
    {
        "id": "104",
        "type": "その他法人",
        "name": "小樽掖済会病院",
        "url": "http://www.otaru-ekisaikai.jp",
        "beds": "138",
        "address": "小樽市稲穂1-4-1",
        "tel": "0134-24-0325",
        "lat": "43.194385",
        "lon": "140.998476"
    }
]