[
    {
        "id": "1",
        "type": "独立行政法人国立病院機構",
        "name": "下志津病院",
        "url": "https://www.nsh.gr.jp/",
        "beds": "440",
        "address": "四街道市鹿渡934-5",
        "tel": "043-422-2511",
        "lat": "35.666461",
        "lon": "140.166807"
    },
    {
        "id": "2",
        "type": "独立行政法人国立病院機構",
        "name": "下総精神医療センター",
        "url": "http://www.hosp.go.jp/~simofusa/",
        "beds": "435",
        "address": "千葉市緑区辺田町578",
        "tel": "043-291-1221",
        "lat": "35.559771",
        "lon": "140.189565"
    },
    {
        "id": "3",
        "type": "独立行政法人国立病院機構",
        "name": "千葉医療センター",
        "url": "https://chiba.hosp.go.jp/index.html",
        "beds": "455",
        "address": "千葉市中央区椿森4-1-2",
        "tel": "043-251-5311",
        "lat": "35.621636",
        "lon": "140.121623"
    },
    {
        "id": "4",
        "type": "独立行政法人国立病院機構",
        "name": "千葉東病院",
        "url": "http://www.chiba-easthp.jp/",
        "beds": "409",
        "address": "千葉市中央区仁戸名町673",
        "tel": "043-261-5171",
        "lat": "35.583818",
        "lon": "140.158847"
    },
    {
        "id": "5",
        "type": "国立大学法人",
        "name": "千葉大学医学部附属病院",
        "url": "http://www.ho.chiba-u.ac.jp",
        "beds": "850",
        "address": "千葉市中央区亥鼻1-8-1",
        "tel": "043-222-7171",
        "lat": "35.604022",
        "lon": "140.131649"
    },
    {
        "id": "6",
        "type": "独立行政法人労働者健康安全機構",
        "name": "千葉労災病院",
        "url": "http://www.chibah.johas.go.jp/",
        "beds": "400",
        "address": "市原市辰巳台東2-16",
        "tel": "0436-74-1111",
        "lat": "35.521909",
        "lon": "140.158203"
    },
    {
        "id": "7",
        "type": "国立研究開発法人",
        "name": "国府台病院",
        "url": "http://www.ncgmkohnodai.go.jp/",
        "beds": "442",
        "address": "市川市国府台1-7-1",
        "tel": "047-372-3501",
        "lat": "35.746078",
        "lon": "139.905748"
    },
    {
        "id": "8",
        "type": "国立研究開発法人",
        "name": "国立がん研究センター東病院",
        "url": "http://www.ncc.go.jp/jp/ncce/index.html",
        "beds": "425",
        "address": "柏市柏の葉６丁目５番１号",
        "tel": "04-7133-1111",
        "lat": "35.899727",
        "lon": "139.941618"
    },
    {
        "id": "9",
        "type": "独立行政法人地域医療機能推進機構",
        "name": "JCHO千葉病院",
        "url": "http://chiba.jcho.go.jp/",
        "beds": "199",
        "address": "千葉市中央区仁戸名町682",
        "tel": "043-261-2211",
        "lat": "35.582857",
        "lon": "140.162776"
    },
    {
        "id": "10",
        "type": "独立行政法人地域医療機能推進機構",
        "name": "船橋中央病院",
        "url": "http://funabashi.jcho.go.jp/",
        "beds": "464",
        "address": "船橋市海神6-13-10",
        "tel": "047-433-2111",
        "lat": "35.705893",
        "lon": "139.969494"
    },
    {
        "id": "11",
        "type": "都道府県",
        "name": "千葉県がんセンター",
        "url": "http://www.pref.chiba.lg.jp/gan/",
        "beds": "341",
        "address": "千葉市中央区仁戸名町666-2",
        "tel": "043-264-5431",
        "lat": "35.582237",
        "lon": "140.158607"
    },
    {
        "id": "12",
        "type": "都道府県",
        "name": "千葉県救急医療センター",
        "url": "https://www.pref.chiba.lg.jp/kyuukyuu/",
        "beds": "100",
        "address": "千葉市美浜区磯辺3-32-1",
        "tel": "043-279-2211",
        "lat": "35.628845",
        "lon": "140.051544"
    },
    {
        "id": "13",
        "type": "都道府県",
        "name": "千葉県こども病院",
        "url": "https://www.pref.chiba.lg.jp/kodomo/",
        "beds": "224",
        "address": "千葉市緑区辺田町579-1",
        "tel": "043-292-2111",
        "lat": "35.557998",
        "lon": "140.19083"
    },
    {
        "id": "14",
        "type": "都道府県",
        "name": "千葉県循環器病センター",
        "url": "https://www.pref.chiba.lg.jp/junkan/",
        "beds": "220",
        "address": "市原市鶴舞575",
        "tel": "0436-88-3111",
        "lat": "35.384826",
        "lon": "140.185239"
    },
    {
        "id": "15",
        "type": "都道府県",
        "name": "千葉県精神科医療センター",
        "url": "https://www.pref.chiba.lg.jp/seishin/",
        "beds": "50",
        "address": "千葉市美浜区豊砂5",
        "tel": "043-276-1361",
        "lat": "35.650576",
        "lon": "140.026537"
    },
    {
        "id": "16",
        "type": "都道府県",
        "name": "千葉県千葉リハビリテーションセンター",
        "url": "http://www.chiba-reha.jp/",
        "beds": "242",
        "address": "千葉市緑区誉田町1-45-2",
        "tel": "043-291-1831",
        "lat": "35.557129",
        "lon": "140.192394"
    },
    {
        "id": "17",
        "type": "都道府県",
        "name": "千葉県立佐原病院",
        "url": "https://www.pref.chiba.lg.jp/sawara/",
        "beds": "231",
        "address": "香取市佐原イ2285",
        "tel": "0478-54-1231",
        "lat": "35.885599",
        "lon": "140.510126"
    },
    {
        "id": "18",
        "type": "市町村",
        "name": "いすみ医療センター",
        "url": "http://www.kuniyoshi-hp.jp",
        "beds": "144",
        "address": "いすみ市苅谷1177",
        "tel": "0470-86-2311",
        "lat": "35.28484",
        "lon": "140.314912"
    },
    {
        "id": "19",
        "type": "市町村",
        "name": "大網白里市立国保大網病院",
        "url": "http://city-oamihp.com/",
        "beds": "99",
        "address": "大網白里市富田884-1",
        "tel": "0475-72-1121",
        "lat": "35.515574",
        "lon": "140.327462"
    },
    {
        "id": "20",
        "type": "市町村",
        "name": "香取おみがわ医療センター",
        "url": "http://www.hospital.omigawa.chiba.jp/",
        "beds": "100",
        "address": "香取市南原地新田438番地１",
        "tel": "0478-82-3161",
        "lat": "35.844217",
        "lon": "140.60124"
    },
    {
        "id": "21",
        "type": "市町村",
        "name": "鴨川市立国保病院",
        "url": "http://www.city.kamogawa.lg.jp/iryo_kenko/kokuhobyoin/index.html",
        "beds": "70",
        "address": "鴨川市宮山233",
        "tel": "04-7097-1221",
        "lat": "35.130894",
        "lon": "140.014876"
    },
    {
        "id": "22",
        "type": "市町村",
        "name": "国保直営総合病院君津中央病院",
        "url": "http://www.hospital.kisarazu.chiba.jp",
        "beds": "660",
        "address": "木更津市桜井1010番地",
        "tel": "0438-36-1071",
        "lat": "35.359425",
        "lon": "139.922555"
    },
    {
        "id": "23",
        "type": "市町村",
        "name": "公立長生病院",
        "url": "http://www.chouseihp.jp",
        "beds": "180",
        "address": "茂原市本納2777",
        "tel": "0475-34-2121",
        "lat": "35.476267",
        "lon": "140.303242"
    },
    {
        "id": "24",
        "type": "市町村",
        "name": "国保匝瑳市民病院",
        "url": "http://www.sosa-hp.jp/",
        "beds": "99",
        "address": "匝瑳市八日市場イ1304",
        "tel": "0479-72-1525",
        "lat": "35.705096",
        "lon": "140.535314"
    },
    {
        "id": "25",
        "type": "市町村",
        "name": "国保多古中央病院",
        "url": "http://www.takochu.tako.chiba.jp/",
        "beds": "161",
        "address": "香取郡多古町多古388-1",
        "tel": "0479-76-2211",
        "lat": "35.738009",
        "lon": "140.472093"
    },
    {
        "id": "26",
        "type": "市町村",
        "name": "国保直営君津中央病院大佐和分院",
        "url": "http://www.hospital.kisarazu.chiba.jp/osawa.html",
        "beds": "36",
        "address": "富津市千種新田710",
        "tel": "0439-65-1251",
        "lat": "35.294801",
        "lon": "139.850128"
    },
    {
        "id": "27",
        "type": "市町村",
        "name": "国保東庄病院",
        "url": "http://www.town.tohnosho.chiba.jp/hospital/",
        "beds": "80",
        "address": "香取郡東庄町石出2692-15",
        "tel": "0478-86-1177",
        "lat": "35.820519",
        "lon": "140.697458"
    },
    {
        "id": "28",
        "type": "市町村",
        "name": "千葉市立青葉病院",
        "url": "http://www.city.chiba.jp/byoin/aoba/aobatop.html",
        "beds": "369",
        "address": "千葉市中央区青葉町1273-2",
        "tel": "043-227-1131",
        "lat": "35.601251",
        "lon": "140.138867"
    },
    {
        "id": "29",
        "type": "市町村",
        "name": "千葉市立海浜病院",
        "url": "http://www.city.chiba.jp/byoin/kaihin/kaihintop.html",
        "beds": "293",
        "address": "千葉市美浜区磯辺3-31-1",
        "tel": "043-277-7711",
        "lat": "35.627804",
        "lon": "140.051418"
    },
    {
        "id": "30",
        "type": "市町村",
        "name": "銚子市立病院",
        "url": "http://www.choshi-ik.or.jp/",
        "beds": "186",
        "address": "銚子市前宿町597",
        "tel": "0479-23-0011",
        "lat": "35.725658",
        "lon": "140.8436"
    },
    {
        "id": "31",
        "type": "市町村",
        "name": "東陽病院",
        "url": "http://hospital.town.yokoshibahikari.chiba.jp/",
        "beds": "100",
        "address": "山武郡横芝光町宮川12100",
        "tel": "0479-84-1335",
        "lat": "35.658098",
        "lon": "140.503089"
    },
    {
        "id": "32",
        "type": "市町村",
        "name": "船橋市立医療センター",
        "url": "http://www.mmc.funabashi.chiba.jp/",
        "beds": "449",
        "address": "船橋市金杉1-21-1",
        "tel": "047-438-3321",
        "lat": "35.723829",
        "lon": "139.99848"
    },
    {
        "id": "33",
        "type": "市町村",
        "name": "松戸市立総合医療センター",
        "url": "http://www.city.matsudo.chiba.jp/hospital/",
        "beds": "600",
        "address": "松戸市千駄堀993-1",
        "tel": "047-712-2511",
        "lat": "35.802864",
        "lon": "139.932831"
    },
    {
        "id": "34",
        "type": "市町村",
        "name": "松戸市立福祉医療センター東松戸病院",
        "url": "http://www.city.matsudo.chiba.jp/higashihospital/",
        "beds": "198",
        "address": "松戸市高塚新田123-13",
        "tel": "047-391-5500",
        "lat": "35.757096",
        "lon": "139.943436"
    },
    {
        "id": "35",
        "type": "市町村",
        "name": "南房総市立富山国保病院",
        "url": "http://www.tomiyamakokuho.com",
        "beds": "51",
        "address": "南房総市平久里中1410-1",
        "tel": "0470-58-0301",
        "lat": "35.097006",
        "lon": "139.914147"
    },
    {
        "id": "36",
        "type": "地方独立行政法人",
        "name": "さんむ医療センター",
        "url": "http://www.sanmu-mc.jp/",
        "beds": "312",
        "address": "山武市成東167",
        "tel": "0475-82-2521",
        "lat": "35.600931",
        "lon": "140.410936"
    },
    {
        "id": "37",
        "type": "地方独立行政法人",
        "name": "総合病院国保旭中央病院",
        "url": "http://www.hospital.asahi.chiba.jp/",
        "beds": "989",
        "address": "旭市イの1326",
        "tel": "0479-63-8111",
        "lat": "35.71828",
        "lon": "140.660914"
    },
    {
        "id": "38",
        "type": "日赤",
        "name": "成田赤十字病院",
        "url": "https://www.narita.jrc.or.jp/",
        "beds": "716",
        "address": "成田市飯田町90-1",
        "tel": "0476-22-2311",
        "lat": "35.76505",
        "lon": "140.303153"
    },
    {
        "id": "39",
        "type": "済生会",
        "name": "千葉県済生会習志野病院",
        "url": "http://www.cniba-saiseikai.com/",
        "beds": "400",
        "address": "千葉県習志野市泉町１－１－１",
        "tel": "047-473-1281",
        "lat": "35.692019",
        "lon": "140.046885"
    },
    {
        "id": "40",
        "type": "公益法人",
        "name": "佐倉厚生園病院",
        "url": "http://www.sakurakouseien.jp/",
        "beds": "181",
        "address": "佐倉市鏑木町320",
        "tel": "043-484-2161",
        "lat": "35.714328",
        "lon": "140.235657"
    },
    {
        "id": "41",
        "type": "公益法人",
        "name": "東京ベイ・浦安市川医療センター",
        "url": "http://www.tokyobay-mc.jp/",
        "beds": "52",
        "address": "浦安市当代島3-4-32",
        "tel": "047-351-3101",
        "lat": "35.671434",
        "lon": "139.893618"
    },
    {
        "id": "42",
        "type": "医療法人",
        "name": "旭神経内科リハビリテーション病院",
        "url": "http://www.yayoikai.or.jp",
        "beds": "87",
        "address": "松戸市栗ケ沢789-1",
        "tel": "047-385-5566",
        "lat": "35.811083",
        "lon": "139.954281"
    },
    {
        "id": "43",
        "type": "医療法人",
        "name": "我孫子聖仁会病院",
        "url": "http://seijinkai-abiko.jp/",
        "beds": "168",
        "address": "我孫子市柴崎1300",
        "tel": "04-7181-1100",
        "lat": "35.876479",
        "lon": "140.051732"
    },
    {
        "id": "44",
        "type": "医療法人",
        "name": "我孫子東邦病院",
        "url": "http://www.abikotoho.org/",
        "beds": "153",
        "address": "我孫子市我孫子1851-1",
        "tel": "04-7182-8166",
        "lat": "35.866708",
        "lon": "140.027225"
    },
    {
        "id": "45",
        "type": "医療法人",
        "name": "磯ヶ谷病院",
        "url": "http//isogaya.aicomp.jp",
        "beds": "164",
        "address": "市原市磯ヶ谷35",
        "tel": "0436-36-1121",
        "lat": "35.452229",
        "lon": "140.149614"
    },
    {
        "id": "46",
        "type": "医療法人",
        "name": "板倉病院",
        "url": "http://www.itakura.or.jp/",
        "beds": "91",
        "address": "船橋市本町2-10-1",
        "tel": "047-431-2662",
        "lat": "35.697556",
        "lon": "139.982475"
    },
    {
        "id": "47",
        "type": "医療法人",
        "name": "井上記念病院",
        "url": "http://www.inouemh.or.jp/",
        "beds": "171",
        "address": "千葉市中央区新田町1-16",
        "tel": "043-245-8800",
        "lat": "35.609342",
        "lon": "140.115769"
    },
    {
        "id": "48",
        "type": "医療法人",
        "name": "内田病院",
        "url": "http://koujinkai-uchida.or.jp/uchida/index.html",
        "beds": "77",
        "address": "銚子市西芝町4-4",
        "tel": "0479-22-8600",
        "lat": "35.730558",
        "lon": "140.826639"
    },
    {
        "id": "49",
        "type": "医療法人",
        "name": "浦安病院",
        "url": "http://www.urayasu-hp.jp",
        "beds": "60",
        "address": "浦安市北栄4-1-18",
        "tel": "047-353-8411",
        "lat": "35.659268",
        "lon": "139.904775"
    },
    {
        "id": "50",
        "type": "医療法人",
        "name": "エビハラ病院",
        "url": "http://www.ebihara.or.jp/kouwakai/",
        "beds": "178",
        "address": "鴨川市太海630-10",
        "tel": "04-7093-2626",
        "lat": "35.091399",
        "lon": "140.091195"
    },
    {
        "id": "51",
        "type": "医療法人",
        "name": "大野中央病院",
        "url": "http://www.ransen.or.jp",
        "beds": "197",
        "address": "市川市下貝塚3-20-3",
        "tel": "047-374-0011",
        "lat": "35.740161",
        "lon": "139.948751"
    },
    {
        "id": "52",
        "type": "医療法人",
        "name": "大村病院",
        "url": "http://www.o-heiseikai.com",
        "beds": "75",
        "address": "市川市南八幡4-14-2",
        "tel": "047-377-3111",
        "lat": "35.718701",
        "lon": "139.925576"
    },
    {
        "id": "53",
        "type": "医療法人",
        "name": "柏厚生総合病院",
        "url": "http://www.kashiwakousei.or.jp/",
        "beds": "318",
        "address": "柏市篠籠田617",
        "tel": "04-7145-1111",
        "lat": "35.872944",
        "lon": "139.961317"
    },
    {
        "id": "54",
        "type": "医療法人",
        "name": "柏たなか病院",
        "url": "http://www.aoikai.jp/shisetu/kashiwatanaka/",
        "beds": "246",
        "address": "柏市小青田1-3-2",
        "tel": "04-7131-2000",
        "lat": "35.911015",
        "lon": "139.955598"
    },
    {
        "id": "55",
        "type": "医療法人",
        "name": "柏戸病院",
        "url": "http://www.kashiwado.com",
        "beds": "170",
        "address": "千葉市中央区長洲2-21-8",
        "tel": "043-227-8366",
        "lat": "35.599942",
        "lon": "140.12335"
    },
    {
        "id": "56",
        "type": "医療法人",
        "name": "勝田台病院",
        "url": "http://www.katsutadai.or.jp/",
        "beds": "148",
        "address": "八千代市勝田622-2",
        "tel": "047-482-3020",
        "lat": "35.705407",
        "lon": "140.125312"
    },
    {
        "id": "57",
        "type": "医療法人",
        "name": "亀田総合病院",
        "url": "http://www.kameda.com/ja/general/",
        "beds": "917",
        "address": "鴨川市東町929",
        "tel": "04-7092-2211",
        "lat": "35.121917",
        "lon": "140.125836"
    },
    {
        "id": "58",
        "type": "医療法人",
        "name": "北柏リハビリ総合病院",
        "url": "http://www.tensenkai.or.jp/rehabili/",
        "beds": "247",
        "address": "柏市柏下265",
        "tel": "04-7169-8000",
        "lat": "35.871897",
        "lon": "139.982884"
    },
    {
        "id": "59",
        "type": "医療法人",
        "name": "季美の森リハビリテーション病院",
        "url": "http://www.krh.jp/",
        "beds": "120",
        "address": "大網白里市季美の森南1-30-1",
        "tel": "0475-71-3366",
        "lat": "35.554314",
        "lon": "140.291841"
    },
    {
        "id": "60",
        "type": "医療法人",
        "name": "共立習志野台病院",
        "url": "http://www.kyoritsunarasinodai.or.jp/",
        "beds": "71",
        "address": "船橋市習志野台4-13-16",
        "tel": "047-466-3018",
        "lat": "35.718523",
        "lon": "140.045208"
    },
    {
        "id": "61",
        "type": "医療法人",
        "name": "小板橋病院",
        "url": "http://www.koitabashi-hospital.jp/",
        "beds": "114",
        "address": "松戸市和名ケ谷1313-1",
        "tel": "047-392-4555",
        "lat": "35.778846",
        "lon": "139.919094"
    },
    {
        "id": "62",
        "type": "医療法人",
        "name": "幸有会記念病院",
        "url": "http://koyukaihp.com/",
        "beds": "122",
        "address": "千葉市花見川区犢橋町77-3",
        "tel": "043-259-3210",
        "lat": "35.668751",
        "lon": "140.112774"
    },
    {
        "id": "63",
        "type": "医療法人",
        "name": "五香病院",
        "url": "http://www.gokou-hp.com/",
        "beds": "120",
        "address": "松戸市五香8-40-1",
        "tel": "047-311-5550",
        "lat": "35.796188",
        "lon": "139.980195"
    },
    {
        "id": "64",
        "type": "医療法人",
        "name": "小張総合病院",
        "url": "http://www.kobari.or.jp/",
        "beds": "350",
        "address": "野田市横内29-1",
        "tel": "04-7124-6666",
        "lat": "35.952109",
        "lon": "139.879376"
    },
    {
        "id": "65",
        "type": "医療法人",
        "name": "最成病院",
        "url": "http://www.saisei.or.jp/",
        "beds": "238",
        "address": "千葉市花見川区柏井町800-1",
        "tel": "043-258-1211",
        "lat": "35.688517",
        "lon": "140.103282"
    },
    {
        "id": "66",
        "type": "医療法人",
        "name": "斎藤労災病院",
        "url": "http://www.saito-rosai.or.jp",
        "beds": "92",
        "address": "千葉市中央区道場南1-12-7",
        "tel": "043-227-7437",
        "lat": "35.612493",
        "lon": "140.130262"
    },
    {
        "id": "67",
        "type": "医療法人",
        "name": "佐倉中央病院",
        "url": "http://www.aishin.or.jp/sakura/",
        "beds": "96",
        "address": "佐倉市栄町20-4",
        "tel": "043-486-1311",
        "lat": "35.724543",
        "lon": "140.228458"
    },
    {
        "id": "68",
        "type": "医療法人",
        "name": "山王病院",
        "url": "http://www.sannou.or.jp/",
        "beds": "318",
        "address": "千葉市稲毛区山王町166-2",
        "tel": "043-421-2221",
        "lat": "35.667187",
        "lon": "140.13967"
    },
    {
        "id": "69",
        "type": "医療法人",
        "name": "塩田病院",
        "url": "http://www.shioda.or.jp ",
        "beds": "290",
        "address": "勝浦市出水1221",
        "tel": "0470-73-1221",
        "lat": "35.151141",
        "lon": "140.317749"
    },
    {
        "id": "70",
        "type": "医療法人",
        "name": "自動車事故対策機構千葉療護センター",
        "url": "http://chiba-ryougo.jp/",
        "beds": "80",
        "address": "千葉市美浜区磯辺3-30-1",
        "tel": "043-277-0061",
        "lat": "35.625893",
        "lon": "140.055797"
    },
    {
        "id": "71",
        "type": "医療法人",
        "name": "島田総合病院",
        "url": "http://www.shimada-hsp.or.jp/",
        "beds": "185",
        "address": "銚子市東町5-3",
        "tel": "0479-22-5401",
        "lat": "35.732064",
        "lon": "140.841812"
    },
    {
        "id": "72",
        "type": "医療法人",
        "name": "白井聖仁会病院",
        "url": "http://www.seijinkai-shiroi.jp/",
        "beds": "193",
        "address": "白井市笹塚3-25-2",
        "tel": "047-491-3111",
        "lat": "35.790932",
        "lon": "140.054202"
    },
    {
        "id": "73",
        "type": "医療法人",
        "name": "新東京病院",
        "url": "http://www.shin-tokyohospital.or.jp/",
        "beds": "396",
        "address": "松戸市和名ヶ谷1271",
        "tel": "047-711-8726",
        "lat": "35.777093",
        "lon": "139.920673"
    },
    {
        "id": "74",
        "type": "医療法人",
        "name": "聖光ヶ丘病院",
        "url": "http://seihikarihosp.jp/",
        "beds": "219",
        "address": "柏市光ヶ丘団地2-3",
        "tel": "04-7171-2023",
        "lat": "35.829802",
        "lon": "139.958387"
    },
    {
        "id": "75",
        "type": "医療法人",
        "name": "セコメディック病院",
        "url": "http://secomedic.gr.jp/",
        "beds": "292",
        "address": "船橋市豊富町696-1",
        "tel": "047-457-9900",
        "lat": "35.763342",
        "lon": "140.074931"
    },
    {
        "id": "76",
        "type": "医療法人",
        "name": "セントマーガレット病院",
        "url": "http://www.st-marguerite.or.jp/",
        "beds": "315",
        "address": "八千代市上高野450",
        "tel": "047-485-5111",
        "lat": "35.738107",
        "lon": "140.128081"
    },
    {
        "id": "77",
        "type": "医療法人",
        "name": "総泉病院",
        "url": "http://www.sousen.seikei-kai.or.jp/",
        "beds": "353",
        "address": "千葉市若葉区更科町2592",
        "tel": "043-237-5001",
        "lat": "35.620998",
        "lon": "140.218285"
    },
    {
        "id": "78",
        "type": "医療法人",
        "name": "第２北総病院",
        "url": "http://www.dainihokuso.jp/",
        "beds": "120",
        "address": "鎌ケ谷市初富803",
        "tel": "047-445-5552",
        "lat": "35.777715",
        "lon": "140.021147"
    },
    {
        "id": "79",
        "type": "医療法人",
        "name": "館山病院",
        "url": "http://hakudoukai.com/hp/",
        "beds": "208",
        "address": "館山市長須賀196",
        "tel": "0470-22-1122",
        "lat": "34.984124",
        "lon": "139.862366"
    },
    {
        "id": "80",
        "type": "医療法人",
        "name": "たむら記念病院",
        "url": "http://misakikai.tskk.biz/",
        "beds": "167",
        "address": "銚子市三崎町2-2609-1",
        "tel": "0479-25-1611",
        "lat": "35.71236",
        "lon": "140.789029"
    },
    {
        "id": "81",
        "type": "医療法人",
        "name": "千葉中央メディカルセンター",
        "url": "http://www.ccmc.seikei-kai.or.jp",
        "beds": "272",
        "address": "千葉市若葉区加曽利町1835-1",
        "tel": "043-232-3691",
        "lat": "35.618196",
        "lon": "140.171361"
    },
    {
        "id": "82",
        "type": "医療法人",
        "name": "千葉徳洲会病院",
        "url": "http://www.chibatoku.or.jp/",
        "beds": "391",
        "address": "船橋市高根台2-11-1",
        "tel": "047-466-7111",
        "lat": "35.731703",
        "lon": "140.032656"
    },
    {
        "id": "83",
        "type": "医療法人",
        "name": "千葉西総合病院",
        "url": "http://www.chibanishi-hp.or.jp/",
        "beds": "608",
        "address": "松戸市金ケ作107-1",
        "tel": "047-384-8111",
        "lat": "35.804565",
        "lon": "139.945101"
    },
    {
        "id": "84",
        "type": "医療法人",
        "name": "千葉みなと病院",
        "url": "http://chibaminato.com/",
        "beds": "96",
        "address": "千葉市中央区中央港1-29-1",
        "tel": "043-241-5381",
        "lat": "35.606502",
        "lon": "140.098833"
    },
    {
        "id": "85",
        "type": "医療法人",
        "name": "千葉南病院",
        "url": "http://www.chibaminami-hp.jp",
        "beds": "137",
        "address": "千葉市緑区高田町401-5",
        "tel": "043-292-5111",
        "lat": "35.55446",
        "lon": "140.211886"
    },
    {
        "id": "86",
        "type": "医療法人",
        "name": "千葉メディカルセンター",
        "url": "http://www.seikeikai-cmc.jp/",
        "beds": "315",
        "address": "千葉市中央区南町1-7-1",
        "tel": "043-261-5111",
        "lat": "35.584957",
        "lon": "140.130866"
    },
    {
        "id": "87",
        "type": "医療法人",
        "name": "津田沼中央総合病院",
        "url": "http://www.tcgh.jp",
        "beds": "300",
        "address": "習志野市谷津1-9-17",
        "tel": "047-476-5111",
        "lat": "35.686857",
        "lon": "140.018606"
    },
    {
        "id": "88",
        "type": "医療法人",
        "name": "成田病院",
        "url": "http://www.narita-hospital.jp",
        "beds": "716",
        "address": "成田市押畑896",
        "tel": "0476-22-1500",
        "lat": "35.801907",
        "lon": "140.308642"
    },
    {
        "id": "89",
        "type": "医療法人",
        "name": "萩原病院",
        "url": "http://www.hagiwara-hsp.or.jp",
        "beds": "148",
        "address": "木更津市木更津1-1-36",
        "tel": "0438-22-5111",
        "lat": "35.383203",
        "lon": "139.9276"
    },
    {
        "id": "90",
        "type": "医療法人",
        "name": "初富保健病院",
        "url": "http://www.hatsutomi.or.jp",
        "beds": "320",
        "address": "鎌ケ谷市初富114",
        "tel": "047-442-0811",
        "lat": "35.784355",
        "lon": "139.986196"
    },
    {
        "id": "91",
        "type": "医療法人",
        "name": "東船橋病院",
        "url": "http://www.hfhp.gr.jp/",
        "beds": "98",
        "address": "船橋市高根台4-29-1",
        "tel": "047-468-0011",
        "lat": "35.730709",
        "lon": "140.041155"
    },
    {
        "id": "92",
        "type": "医療法人",
        "name": "平山病院",
        "url": "http://www.hirayama-hospital.or.jp",
        "beds": "166",
        "address": "千葉市花見川区花見川1494-3",
        "tel": "043-259-4525",
        "lat": "35.689294",
        "lon": "140.094528"
    },
    {
        "id": "93",
        "type": "医療法人",
        "name": "船橋整形外科病院",
        "url": "http://www.fff.or.jp",
        "beds": "91",
        "address": "船橋市飯山満1-833",
        "tel": "047-425-5585",
        "lat": "35.708664",
        "lon": "140.011255"
    },
    {
        "id": "94",
        "type": "医療法人",
        "name": "船橋総合病院",
        "url": "http://www.fgh-carrot.com/",
        "beds": "246",
        "address": "船橋市北本町1-13-1",
        "tel": "047-425-1151",
        "lat": "35.713068",
        "lon": "139.983382"
    },
    {
        "id": "95",
        "type": "医療法人",
        "name": "平和台病院",
        "url": "http://www.medicalplaza.or.jp/heiwadai.html",
        "beds": "184",
        "address": "我孫子市布佐834-28",
        "tel": "04-7189-1111",
        "lat": "35.86376",
        "lon": "140.115903"
    },
    {
        "id": "96",
        "type": "医療法人",
        "name": "みつわ台総合病院",
        "url": "http://www.mitsuwadaibyoin.or.jp/",
        "beds": "261",
        "address": "千葉市若葉区若松町531-486",
        "tel": "043-251-3030",
        "lat": "35.647024",
        "lon": "140.143665"
    },
    {
        "id": "97",
        "type": "医療法人",
        "name": "八街総合病院",
        "url": "http://www.yachimata-hp.com",
        "beds": "191",
        "address": "八街市八街ほ137-1",
        "tel": "043-443-7311",
        "lat": "35.672259",
        "lon": "140.314846"
    },
    {
        "id": "98",
        "type": "医療法人",
        "name": "谷津保健病院",
        "url": "http://www.yatsu.or.jp/",
        "beds": "280",
        "address": "習志野市谷津4-6-16",
        "tel": "047-451-6000",
        "lat": "35.684497",
        "lon": "140.006827"
    },
    {
        "id": "99",
        "type": "医療法人",
        "name": "四街道徳洲会病院",
        "url": "http://www.yotsutoku.jp/",
        "beds": "220",
        "address": "四街道市吉岡1830-1",
        "tel": "043-214-0111",
        "lat": "35.628457",
        "lon": "140.187125"
    },
    {
        "id": "100",
        "type": "特定医療法人",
        "name": "岡田病院",
        "url": "http://www.seihoukai-okada.or.jp",
        "beds": "162",
        "address": "柏市末広町2-10",
        "tel": "04-7145-0121",
        "lat": "35.863622",
        "lon": "139.97115"
    },
    {
        "id": "101",
        "type": "特定医療法人",
        "name": "北習志野花輪病院",
        "url": "http://www.hanawa.or.jp/kitanara/",
        "beds": "147",
        "address": "船橋市習志野台2-71-10",
        "tel": "047-462-2112",
        "lat": "35.723798",
        "lon": "140.048044"
    },
    {
        "id": "102",
        "type": "特定医療法人",
        "name": "玄々堂君津病院",
        "url": "http://www.gengendo.jp",
        "beds": "160",
        "address": "君津市東坂田4-7-20",
        "tel": "0439-52-2366",
        "lat": "35.336225",
        "lon": "139.89646"
    },
    {
        "id": "103",
        "type": "特定医療法人",
        "name": "鈴木神経科病院",
        "url": "http://park10.wakwak.com/~yujinkai/suzukihospital.html",
        "beds": "137",
        "address": "茂原市高師82",
        "tel": "0475-22-2211",
        "lat": "35.431685",
        "lon": "140.293973"
    },
    {
        "id": "104",
        "type": "特定医療法人",
        "name": "東葛クリニック病院",
        "url": "http://www.tokatsu-clinic.jp/",
        "beds": "95",
        "address": "松戸市樋野口865-2",
        "tel": "047-364-5121",
        "lat": "35.791471",
        "lon": "139.893591"
    },
    {
        "id": "105",
        "type": "特定医療法人",
        "name": "東葛病院",
        "url": "http://www.tokatsu-hp.com/",
        "beds": "366",
        "address": "流山市中102-1",
        "tel": "04-7159-1011",
        "lat": "35.852955",
        "lon": "139.915949"
    },
    {
        "id": "106",
        "type": "特定医療法人",
        "name": "本多病院",
        "url": "http://www.sanseikai.or.jp",
        "beds": "264",
        "address": "香取市本郷772",
        "tel": "0478-82-3181",
        "lat": "35.853555",
        "lon": "140.58354"
    },
    {
        "id": "107",
        "type": "特定医療法人",
        "name": "山之内病院",
        "url": "http://www.kazusakai.jp",
        "beds": "137",
        "address": "茂原市町保3",
        "tel": "0475-25-1131",
        "lat": "35.42634",
        "lon": "140.305559"
    },
    {
        "id": "108",
        "type": "社会医療法人",
        "name": "袖ヶ浦さつき台病院",
        "url": "http://www.satsuki-kai.or.jp/",
        "beds": "409",
        "address": "袖ヶ浦市長浦駅前5-21",
        "tel": "0438-62-1113",
        "lat": "35.445747",
        "lon": "140.006349"
    },
    {
        "id": "109",
        "type": "社会医療法人",
        "name": "千葉脳神経外科病院",
        "url": "http://www.chiba-nougeka.or.jp/",
        "beds": "97",
        "address": "千葉市稲毛区長沼原町408",
        "tel": "043-250-1228",
        "lat": "35.678208",
        "lon": "140.127405"
    },
    {
        "id": "110",
        "type": "社会医療法人",
        "name": "名戸ヶ谷あびこ病院",
        "url": "http://nadogaya-abiko.com",
        "beds": "131",
        "address": "我孫子市我孫子1855-1",
        "tel": "04-7157-2233",
        "lat": "35.865212",
        "lon": "140.027387"
    },
    {
        "id": "111",
        "type": "社会医療法人",
        "name": "名戸ヶ谷病院",
        "url": "http://www.nadogaya.com",
        "beds": "247",
        "address": "柏市名戸ケ谷687-4",
        "tel": "04-7167-8336",
        "lat": "35.845217",
        "lon": "139.982002"
    },
    {
        "id": "112",
        "type": "社会医療法人",
        "name": "習志野第一病院",
        "url": "http://www.naraichi.or.jp",
        "beds": "183",
        "address": "習志野市津田沼5-5-25",
        "tel": "047-454-1511",
        "lat": "35.681229",
        "lon": "140.025423"
    },
    {
        "id": "113",
        "type": "私立学校法人",
        "name": "国際医療福祉大学市川病院",
        "url": "http://www.kaken-hp.or.jp/",
        "beds": "260",
        "address": "市川市国府台6-1-14",
        "tel": "047-375-1111",
        "lat": "35.756734",
        "lon": "139.902556"
    },
    {
        "id": "114",
        "type": "私立学校法人",
        "name": "順天堂大学医学部附属浦安病院",
        "url": "http//www.hosp-urayasu.juntendo.ac.jp/",
        "beds": "785",
        "address": "浦安市富岡2-1-1",
        "tel": "047-353-3111",
        "lat": "35.645993",
        "lon": "139.907114"
    },
    {
        "id": "115",
        "type": "私立学校法人",
        "name": "帝京大学ちば総合医療センター",
        "url": "http://www.med.teikyo-u.ac.jp/~chiba/",
        "beds": "475",
        "address": "市原市姉崎3426-3",
        "tel": "0436-62-1211",
        "lat": "35.466217",
        "lon": "140.062769"
    },
    {
        "id": "116",
        "type": "私立学校法人",
        "name": "東京歯科大学市川総合病院",
        "url": "http://www.tdc.ac.jp/hospital/igh/",
        "beds": "570",
        "address": "千葉県市川市菅野5-11-13",
        "tel": "047-322-0151",
        "lat": "35.733691",
        "lon": "139.922098"
    },
    {
        "id": "117",
        "type": "私立学校法人",
        "name": "東京慈恵会医科大学附属柏病院",
        "url": "http://www.jikei.ac.jp/hospital/kashiwa/",
        "beds": "664",
        "address": "柏市柏下163-1",
        "tel": "04-7164-1111",
        "lat": "35.869811",
        "lon": "139.982958"
    },
    {
        "id": "118",
        "type": "私立学校法人",
        "name": "東京女子医科大学附属八千代医療センター",
        "url": "http://www.twmu.ac.jp/TYMC",
        "beds": "501",
        "address": "八千代市大和田新田477-96",
        "tel": "047-450-6000",
        "lat": "35.730243",
        "lon": "140.096893"
    },
    {
        "id": "119",
        "type": "私立学校法人",
        "name": "東邦大学医療センター佐倉病院",
        "url": "http://www.sakura.med.toho-u.ac.jp/",
        "beds": "451",
        "address": "佐倉市下志津564-1",
        "tel": "043-462-8811",
        "lat": "35.717155",
        "lon": "140.168109"
    },
    {
        "id": "120",
        "type": "私立学校法人",
        "name": "日本医科大学千葉北総病院",
        "url": "http://www.hokuso-h.nms.ac.jp/",
        "beds": "574",
        "address": "印西市鎌苅1715",
        "tel": "0476-99-1111",
        "lat": "35.781169",
        "lon": "140.198145"
    },
    {
        "id": "121",
        "type": "社会福祉法人",
        "name": "安房地域医療センター",
        "url": "http://www.awairyo.jp/ja/",
        "beds": "149",
        "address": "館山市山本1155",
        "tel": "0470-25-5111",
        "lat": "35.000026",
        "lon": "139.891686"
    },
    {
        "id": "122",
        "type": "社会福祉法人",
        "name": "海上寮療養所",
        "url": "http://www.rosario.jp/kaijoryo/",
        "beds": "189",
        "address": "旭市野中4017",
        "tel": "0479-60-0601",
        "lat": "35.703848",
        "lon": "140.681524"
    },
    {
        "id": "123",
        "type": "社会福祉法人",
        "name": "九十九里ホーム病院",
        "url": "http://www.99-home.com",
        "beds": "149",
        "address": "匝瑳市飯倉21",
        "tel": "0479-72-1131",
        "lat": "35.687526",
        "lon": "140.523732"
    },
    {
        "id": "124",
        "type": "社会福祉法人",
        "name": "聖隷佐倉市民病院",
        "url": "http://www.seirei.or.jp/sakura/",
        "beds": "400",
        "address": "佐倉市江原台2-36-2",
        "tel": "043-486-1151",
        "lat": "35.737213",
        "lon": "140.200304"
    },
    {
        "id": "125",
        "type": "会社",
        "name": "キッコーマン総合病院",
        "url": "http://hospital.kikkoman.co.jp/",
        "beds": "129",
        "address": "野田市宮崎100",
        "tel": "04-7123-5911",
        "lat": "35.953226",
        "lon": "139.87021"
    },
    {
        "id": "126",
        "type": "その他法人",
        "name": "千葉みなとリハビリテーション病院",
        "url": "http://www.minato-reha.com/",
        "beds": "180",
        "address": "千葉市中央区中央港1-17-18",
        "tel": "043-245-1555",
        "lat": "35.603504",
        "lon": "140.10123"
    },
    {
        "id": "127",
        "type": "その他法人",
        "name": "松戸リハビリテーション病院",
        "url": "http://www.matsudo-reha.com/",
        "beds": "180",
        "address": "松戸市和名ヶ谷1009-1",
        "tel": "047-703-1555",
        "lat": "35.780408",
        "lon": "139.921508"
    },
    {
        "id": "128",
        "type": "その他法人",
        "name": "八千代リハビリテーション病院",
        "url": "http://www.yachiyo-reha.com/",
        "beds": "180",
        "address": "八千代市米本1808",
        "tel": "047-488-1555",
        "lat": "35.746699",
        "lon": "140.119123"
    }
]