[
    {
        "id": "1",
        "type": "独立行政法人国立病院機構",
        "name": "東京医療センター",
        "url": "http://www.ntmc.go.jp/",
        "beds": "741",
        "address": "目黒区東が丘2-5-1",
        "tel": "03-3411-0111",
        "lat": "35.626448",
        "lon": "139.666459"
    },
    {
        "id": "2",
        "type": "独立行政法人国立病院機構",
        "name": "東京病院",
        "url": "http://www.hosp.go.jp/~tokyo/",
        "beds": "522",
        "address": "清瀬市竹丘3-1-1",
        "tel": "042-491-2111",
        "lat": "35.767834",
        "lon": "139.50523"
    },
    {
        "id": "3",
        "type": "独立行政法人国立病院機構",
        "name": "村山医療センター",
        "url": "http://www.murayama-hosp.jp/",
        "beds": "303",
        "address": "武蔵村山市学園2-37-1",
        "tel": "042-561-1221",
        "lat": "35.747259",
        "lon": "139.399031"
    },
    {
        "id": "4",
        "type": "国立大学法人",
        "name": "東京医科歯科大学医学部附属病院",
        "url": "http://www.tmd.ac.jp/medhospital/",
        "beds": "753",
        "address": "文京区湯島1-5-45",
        "tel": "03-3813-6111",
        "lat": "35.701696",
        "lon": "139.764209"
    },
    {
        "id": "5",
        "type": "国立大学法人",
        "name": "東京大学医学部附属病院",
        "url": "http://www.h.u-tokyo.ac.jp",
        "beds": "1228",
        "address": "文京区本郷7-3-1",
        "tel": "03-3815-5411",
        "lat": "35.714163",
        "lon": "139.762102"
    },
    {
        "id": "6",
        "type": "独立行政法人労働者健康安全機構",
        "name": "東京労災病院",
        "url": "http://www.tokyoh.johas.go.jp/",
        "beds": "400",
        "address": "大田区大森南4-13-21",
        "tel": "03-3742-7301",
        "lat": "35.565611",
        "lon": "139.747214"
    },
    {
        "id": "7",
        "type": "国立研究開発法人",
        "name": "国立がん研究センター中央病院",
        "url": "http://www.ncc.go.jp/jp/ncch/",
        "beds": "578",
        "address": "中央区築地5-1-1",
        "tel": "03-3542-2511",
        "lat": "35.665005",
        "lon": "139.767583"
    },
    {
        "id": "8",
        "type": "国立研究開発法人",
        "name": "国立国際医療研究センター病院",
        "url": "http://www.ncgm.go.jp/index.html",
        "beds": "763",
        "address": "新宿区戸山1-21-1",
        "tel": "03-3202-7181",
        "lat": "35.702292",
        "lon": "139.716664"
    },
    {
        "id": "9",
        "type": "国立研究開発法人",
        "name": "国立成育医療研究センター病院",
        "url": "http://www.ncchd.go.jp/",
        "beds": "460",
        "address": "世田谷区大蔵2-10-1",
        "tel": "03-3416-0181",
        "lat": "35.633399",
        "lon": "139.611529"
    },
    {
        "id": "10",
        "type": "独立行政法人地域医療機能推進機構",
        "name": "東京蒲田医療センター",
        "url": "http://kamata.jcho.go.jp",
        "beds": "230",
        "address": "大田区南蒲田2-19-2",
        "tel": "03-3738-8221",
        "lat": "35.55437",
        "lon": "139.7238"
    },
    {
        "id": "11",
        "type": "独立行政法人地域医療機能推進機構",
        "name": "東京城東病院",
        "url": "http://joto.jcho.go.jp",
        "beds": "130",
        "address": "江東区亀戸9-13-1",
        "tel": "03-3685-1431",
        "lat": "35.695177",
        "lon": "139.846095"
    },
    {
        "id": "12",
        "type": "独立行政法人地域医療機能推進機構",
        "name": "東京新宿メディカルセンター",
        "url": "http://shinjuku.jcho.go.jp/",
        "beds": "520",
        "address": "新宿区津久戸町5-1",
        "tel": "03-3269-8111",
        "lat": "35.703433",
        "lon": "139.742135"
    },
    {
        "id": "13",
        "type": "独立行政法人地域医療機能推進機構",
        "name": "東京高輪病院",
        "url": "http://takanawa.jcho.go.jp/",
        "beds": "247",
        "address": "港区高輪3-10-11",
        "tel": "03-3443-9191",
        "lat": "35.631341",
        "lon": "139.732021"
    },
    {
        "id": "14",
        "type": "独立行政法人地域医療機能推進機構",
        "name": "東京山手メディカルセンター",
        "url": "http://yamate.jcho.go.jp/",
        "beds": "418",
        "address": "新宿区百人町3-22-1",
        "tel": "03-3364-0251",
        "lat": "35.704759",
        "lon": "139.699067"
    },
    {
        "id": "15",
        "type": "国（その他）",
        "name": "自衛隊中央病院",
        "url": "http://www.mod.go.jp/gsdf/chosp/",
        "beds": "500",
        "address": "世田谷区池尻1-2-24",
        "tel": "03-3411-0151",
        "lat": "35.64481",
        "lon": "139.683125"
    },
    {
        "id": "16",
        "type": "都道府県",
        "name": "東京都立大塚病院",
        "url": "http://www.byouin.metro.tokyo.jp/ohtsuka/",
        "beds": "508",
        "address": "豊島区南大塚2-8-1",
        "tel": "03-3941-3211",
        "lat": "35.72526",
        "lon": "139.732543"
    },
    {
        "id": "17",
        "type": "都道府県",
        "name": "東京都立駒込病院",
        "url": "http://www.cick.jp/",
        "beds": "815",
        "address": "文京区本駒込3-18-22",
        "tel": "03-3823-2101",
        "lat": "35.729843",
        "lon": "139.756393"
    },
    {
        "id": "18",
        "type": "都道府県",
        "name": "東京都立小児総合医療センター",
        "url": "http://www.byouin.metro.tokyo.jp/shouni/",
        "beds": "561",
        "address": "府中市武蔵台2-8-29",
        "tel": "042-300-5111",
        "lat": "35.691802",
        "lon": "139.462225"
    },
    {
        "id": "19",
        "type": "都道府県",
        "name": "東京都立神経病院",
        "url": "http://www.byouin.metro.tokyo.jp/tmnh/",
        "beds": "304",
        "address": "府中市武蔵台2-6-1",
        "tel": "042-323-5110",
        "lat": "35.690557",
        "lon": "139.461285"
    },
    {
        "id": "20",
        "type": "都道府県",
        "name": "東京都立多摩総合医療センター",
        "url": "http://www.fuchu-hp.fuchu.tokyo.jp/",
        "beds": "789",
        "address": "府中市武蔵台2-8-29",
        "tel": "042-323-5111",
        "lat": "35.691802",
        "lon": "139.462225"
    },
    {
        "id": "21",
        "type": "都道府県",
        "name": "東京都立広尾病院",
        "url": "http://www.byouin.metro.tokyo.jp/hiroo/",
        "beds": "426",
        "address": "渋谷区恵比寿2-34-10",
        "tel": "03-3444-1181",
        "lat": "35.646828",
        "lon": "139.721689"
    },
    {
        "id": "22",
        "type": "都道府県",
        "name": "東京都立松沢病院",
        "url": "http://www.byouin.metro.tokyo.jp/matsuzawa/",
        "beds": "898",
        "address": "世田谷区上北沢2-1-1",
        "tel": "03-3303-7211",
        "lat": "35.66678",
        "lon": "139.620278"
    },
    {
        "id": "23",
        "type": "都道府県",
        "name": "都立墨東病院",
        "url": "http://bokutoh-hp.metro.tokyo.jp/",
        "beds": "765",
        "address": "墨田区江東橋4-23-15",
        "tel": "03-3633-6151",
        "lat": "35.694594",
        "lon": "139.818958"
    },
    {
        "id": "24",
        "type": "市町村",
        "name": "稲城市立病院",
        "url": "http://www.hospital.inagi.tokyo.jp/",
        "beds": "290",
        "address": "稲城市大丸1171",
        "tel": "042-377-0931",
        "lat": "35.646872",
        "lon": "139.485143"
    },
    {
        "id": "25",
        "type": "市町村",
        "name": "青梅市立総合病院",
        "url": "http://www.mghp.ome.tokyo.jp/",
        "beds": "529",
        "address": "青梅市東青梅4-16-5",
        "tel": "0428-22-3191",
        "lat": "35.782502",
        "lon": "139.28118"
    },
    {
        "id": "26",
        "type": "市町村",
        "name": "公立阿伎留医療センター",
        "url": "http://www.akiru-med.jp",
        "beds": "305",
        "address": "あきる野市引田78-1",
        "tel": "042-558-0321",
        "lat": "35.732189",
        "lon": "139.272619"
    },
    {
        "id": "27",
        "type": "市町村",
        "name": "公立昭和病院",
        "url": "http://www.kouritu-showa.jp/",
        "beds": "518",
        "address": "小平市花小金井8-1-1",
        "tel": "042-461-0052",
        "lat": "35.731464",
        "lon": "139.503033"
    },
    {
        "id": "28",
        "type": "市町村",
        "name": "公立福生病院",
        "url": "http://www.fussahp.jp",
        "beds": "316",
        "address": "福生市加美平1-6-1",
        "tel": "042-551-1111",
        "lat": "35.746974",
        "lon": "139.326844"
    },
    {
        "id": "29",
        "type": "市町村",
        "name": "町田市民病院",
        "url": "http://machida-city-hospital-tokyo.jp",
        "beds": "447",
        "address": "町田市旭町2-15-41",
        "tel": "042-722-2230",
        "lat": "35.556913",
        "lon": "139.438796"
    },
    {
        "id": "30",
        "type": "地方独立行政法人",
        "name": "東京都健康長寿医療センター",
        "url": "http://www.tmghig.jp/",
        "beds": "550",
        "address": "板橋区栄町35-2",
        "tel": "03-3964-1141",
        "lat": "35.751787",
        "lon": "139.703303"
    },
    {
        "id": "31",
        "type": "日赤",
        "name": "大森赤十字病院",
        "url": "http://omori.jrc.or.jp/",
        "beds": "344",
        "address": "大田区中央4-30-1",
        "tel": "03-3775-3111",
        "lat": "35.578907",
        "lon": "139.717896"
    },
    {
        "id": "32",
        "type": "日赤",
        "name": "葛飾赤十字産院",
        "url": "http://katsushika.jrc.or.jp/",
        "beds": "113",
        "address": "葛飾区立石5-11-12",
        "tel": "03-3693-5211",
        "lat": "35.742572",
        "lon": "139.846624"
    },
    {
        "id": "33",
        "type": "日赤",
        "name": "日本赤十字社医療センター",
        "url": "http://www.med.jrc.or.jp/",
        "beds": "708",
        "address": "渋谷区広尾4-1-22",
        "tel": "03-3400-1311",
        "lat": "35.654524",
        "lon": "139.717985"
    },
    {
        "id": "34",
        "type": "日赤",
        "name": "武蔵野赤十字病院",
        "url": "http://www.musashino.jrc.or.jp/",
        "beds": "611",
        "address": "武蔵野市境南町1-26-1",
        "tel": "0422-32-3111",
        "lat": "35.697696",
        "lon": "139.547536"
    },
    {
        "id": "35",
        "type": "済生会",
        "name": "東京都済生会中央病院",
        "url": "http://www.saichu.jp",
        "beds": "535",
        "address": "港区三田1-4-17",
        "tel": "03-3451-8211",
        "lat": "35.654062",
        "lon": "139.74357"
    },
    {
        "id": "36",
        "type": "済生会",
        "name": "東京都済生会向島病院",
        "url": "http://www.saiseikai-mkj.jp/",
        "beds": "102",
        "address": "墨田区八広1-5-10",
        "tel": "03-3610-3651",
        "lat": "35.720687",
        "lon": "139.822228"
    },
    {
        "id": "37",
        "type": "共済組合及び連合会",
        "name": "関東中央病院",
        "url": "http://www.kanto-ctr-hsp.com",
        "beds": "403",
        "address": "世田谷区上用賀6-25-1",
        "tel": "03-3429-1171",
        "lat": "35.636835",
        "lon": "139.626088"
    },
    {
        "id": "38",
        "type": "共済組合及び連合会",
        "name": "九段坂病院",
        "url": "http://www.kudanzaka.com",
        "beds": "231",
        "address": "千代田区九段南1-6-12",
        "tel": "03-3262-9191",
        "lat": "35.693798",
        "lon": "139.752063"
    },
    {
        "id": "39",
        "type": "共済組合及び連合会",
        "name": "立川病院",
        "url": "http://www.tachikawa-hosp.gr.jp/",
        "beds": "493",
        "address": "立川市錦町4-2-22",
        "tel": "042-523-3131",
        "lat": "35.69256",
        "lon": "139.422365"
    },
    {
        "id": "40",
        "type": "共済組合及び連合会",
        "name": "東京共済病院",
        "url": "http://www.tkh.meguro.tokyo.jp",
        "beds": "350",
        "address": "目黒区中目黒2-3-8",
        "tel": "03-3712-3151",
        "lat": "35.641571",
        "lon": "139.704112"
    },
    {
        "id": "41",
        "type": "共済組合及び連合会",
        "name": "虎の門病院",
        "url": "http://www.toranomon.gr.jp/",
        "beds": "868",
        "address": "港区虎ノ門2-2-2",
        "tel": "03-3588-1111",
        "lat": "35.669009",
        "lon": "139.746174"
    },
    {
        "id": "42",
        "type": "共済組合及び連合会",
        "name": "三宿病院",
        "url": "http://www.mishuku.gr.jp/",
        "beds": "253",
        "address": "目黒区上目黒5-33-12",
        "tel": "03-3711-5771",
        "lat": "35.642356",
        "lon": "139.68526"
    },
    {
        "id": "43",
        "type": "国民健康保険組合",
        "name": "総合病院厚生中央病院",
        "url": "http://kohseichuo.jp/",
        "beds": "320",
        "address": "目黒区三田1-11-7",
        "tel": "03-3713-2141",
        "lat": "35.641464",
        "lon": "139.712549"
    },
    {
        "id": "44",
        "type": "公益法人",
        "name": "愛誠病院",
        "url": "http://www.aisei-byouin.or.jp",
        "beds": "441",
        "address": "板橋区加賀1-3-1",
        "tel": "03-3961-5351",
        "lat": "35.753788",
        "lon": "139.721036"
    },
    {
        "id": "45",
        "type": "公益法人",
        "name": "板橋区医師会病院",
        "url": "http://www.itabashi-med.jp",
        "beds": "192",
        "address": "板橋区高島平3-12-6",
        "tel": "03-3975-8151",
        "lat": "35.786955",
        "lon": "139.658041"
    },
    {
        "id": "46",
        "type": "公益法人",
        "name": "永寿総合病院",
        "url": "http://www.eijuhp.com/index.html",
        "beds": "400",
        "address": "台東区東上野2-23-16",
        "tel": "03-3833-8381",
        "lat": "35.709701",
        "lon": "139.779703"
    },
    {
        "id": "47",
        "type": "公益法人",
        "name": "永寿総合病院　柳橋分院",
        "url": "http://www.yanagibashihp.com/",
        "beds": "80",
        "address": "台東区柳橋2-20-4",
        "tel": "03-3851-9375",
        "lat": "35.698941",
        "lon": "139.789649"
    },
    {
        "id": "48",
        "type": "公益法人",
        "name": "荏原病院",
        "url": "http://www.ebara-hp.ota.tokyo.jp/",
        "beds": "506",
        "address": "大田区東雪谷4-5-10",
        "tel": "03-5734-8000",
        "lat": "35.593755",
        "lon": "139.693208"
    },
    {
        "id": "49",
        "type": "公益法人",
        "name": "大久保病院",
        "url": "http://www.ohkubohospital.jp",
        "beds": "304",
        "address": "新宿区歌舞伎町2-44-1",
        "tel": "03-5273-7711",
        "lat": "35.696697",
        "lon": "139.701143"
    },
    {
        "id": "50",
        "type": "公益法人",
        "name": "がん研究会有明病院",
        "url": "http://www.jfcr.or.jp/hospital/",
        "beds": "700",
        "address": "江東区有明3-8-31",
        "tel": "03-3520-0111",
        "lat": "35.634222",
        "lon": "139.794691"
    },
    {
        "id": "51",
        "type": "公益法人",
        "name": "杏雲堂病院",
        "url": "http://www.kyoundo.jp",
        "beds": "198",
        "address": "千代田区神田駿河台1-8",
        "tel": "03-3292-2051",
        "lat": "35.698015",
        "lon": "139.763245"
    },
    {
        "id": "52",
        "type": "公益法人",
        "name": "榊原記念病院",
        "url": "http://www.hospital.heart.or.jp/",
        "beds": "320",
        "address": "府中市朝日町3-16-1",
        "tel": "042-314-3111",
        "lat": "35.66635",
        "lon": "139.520228"
    },
    {
        "id": "53",
        "type": "公益法人",
        "name": "三楽病院",
        "url": "http://www.sanraku.or.jp/",
        "beds": "270",
        "address": "千代田区神田駿河台2-5",
        "tel": "03-3292-3981",
        "lat": "35.699417",
        "lon": "139.761351"
    },
    {
        "id": "54",
        "type": "公益法人",
        "name": "心臓血管研究所付属病院",
        "url": "https://www.cvi.or.jp/",
        "beds": "74",
        "address": "港区西麻布3-2-19",
        "tel": "03-3408-2151",
        "lat": "35.658924",
        "lon": "139.727265"
    },
    {
        "id": "55",
        "type": "公益法人",
        "name": "新山手病院",
        "url": "http://www.shinyamanote.jp/",
        "beds": "180",
        "address": "東村山市諏訪町3-6-1",
        "tel": "042-391-1425",
        "lat": "35.770348",
        "lon": "139.462541"
    },
    {
        "id": "56",
        "type": "公益法人",
        "name": "第三北品川病院",
        "url": "http://kcmi.or.jp/daisankitashinagawa/",
        "beds": "114",
        "address": "品川区北品川3-3-7",
        "tel": "03-3474-1831",
        "lat": "35.621322",
        "lon": "139.73886"
    },
    {
        "id": "57",
        "type": "公益法人",
        "name": "玉川病院",
        "url": "http://www.tamagawa-hosp.jp/",
        "beds": "389",
        "address": "世田谷区瀬田4-8-1",
        "tel": "03-3700-1151",
        "lat": "35.620442",
        "lon": "139.624341"
    },
    {
        "id": "58",
        "type": "公益法人",
        "name": "多摩南部地域病院",
        "url": "http://www.tamanan-hp.com/",
        "beds": "287",
        "address": "多摩市中沢2-1-2",
        "tel": "042-338-5111",
        "lat": "35.622822",
        "lon": "139.414982"
    },
    {
        "id": "59",
        "type": "公益法人",
        "name": "多摩北部医療センター",
        "url": "http://www.tamahoku-hp.jp/",
        "beds": "344",
        "address": "東村山市青葉町1-7-1",
        "tel": "042-396-3811",
        "lat": "35.760741",
        "lon": "139.493331"
    },
    {
        "id": "60",
        "type": "公益法人",
        "name": "東部地域病院",
        "url": "http://www.tobu-hp.or.jp",
        "beds": "314",
        "address": "葛飾区亀有5-14-1",
        "tel": "03-5682-5111",
        "lat": "35.766202",
        "lon": "139.844142"
    },
    {
        "id": "61",
        "type": "公益法人",
        "name": "豊島病院",
        "url": "http://www.toshima-hp.jp",
        "beds": "470",
        "address": "板橋区栄町33-1",
        "tel": "03-5375-1234",
        "lat": "35.752819",
        "lon": "139.701277"
    },
    {
        "id": "62",
        "type": "公益法人",
        "name": "練馬総合病院",
        "url": "http://www.nerima-hosp.or.jp/",
        "beds": "224",
        "address": "練馬区旭丘1-24-1",
        "tel": "03-5988-2200",
        "lat": "35.733526",
        "lon": "139.67714"
    },
    {
        "id": "63",
        "type": "公益法人",
        "name": "複十字病院",
        "url": "http://www.fukujuji.org/",
        "beds": "334",
        "address": "清瀬市松山3-1-24",
        "tel": "042-491-4111",
        "lat": "35.771558",
        "lon": "139.512278"
    },
    {
        "id": "64",
        "type": "医療法人",
        "name": "あきる台病院",
        "url": "http://www.akirudai-hp.or.jp/",
        "beds": "100",
        "address": "あきる野市秋川6-5-1",
        "tel": "042-559-5761",
        "lat": "35.729343",
        "lon": "139.291708"
    },
    {
        "id": "65",
        "type": "医療法人",
        "name": "あけぼの病院",
        "url": "http://www.akebono-hospital.jp/",
        "beds": "98",
        "address": "町田市中町1-23-3",
        "tel": "042-728-1111",
        "lat": "35.549597",
        "lon": "139.445112"
    },
    {
        "id": "66",
        "type": "医療法人",
        "name": "小豆沢病院",
        "url": "http://www.kenbun.or.jp",
        "beds": "134",
        "address": "板橋区小豆沢1-6-8",
        "tel": "03-3966-8411",
        "lat": "35.772988",
        "lon": "139.700755"
    },
    {
        "id": "67",
        "type": "医療法人",
        "name": "池上総合病院",
        "url": "http://www.ikegamihosp.jp",
        "beds": "384",
        "address": "大田区池上6-1-19",
        "tel": "03-3752-3151",
        "lat": "35.572714",
        "lon": "139.704387"
    },
    {
        "id": "68",
        "type": "医療法人",
        "name": "池袋病院",
        "url": "http://www.ikebukuro-hp.com/",
        "beds": "96",
        "address": "豊島区東池袋3-5-4",
        "tel": "03-3987-2431",
        "lat": "35.731029",
        "lon": "139.717187"
    },
    {
        "id": "69",
        "type": "医療法人",
        "name": "石川島記念病院",
        "url": "http://ishikawajima.gr.jp/",
        "beds": "47",
        "address": "中央区佃2-5-2",
        "tel": "03-3532-3201",
        "lat": "35.667554",
        "lon": "139.785431"
    },
    {
        "id": "70",
        "type": "医療法人",
        "name": "板橋中央総合病院",
        "url": "http://www.ims-itabashi.jp/",
        "beds": "579",
        "address": "板橋区小豆沢2-12-7",
        "tel": "03-3967-1181",
        "lat": "35.775599",
        "lon": "139.69709"
    },
    {
        "id": "71",
        "type": "医療法人",
        "name": "一心病院",
        "url": "http://www.isshin.net/",
        "beds": "111",
        "address": "豊島区北大塚1-18-7",
        "tel": "03-3918-1215",
        "lat": "35.732796",
        "lon": "139.730151"
    },
    {
        "id": "72",
        "type": "医療法人",
        "name": "医療法人社団博栄会　赤羽中央総合病院",
        "url": "http://www.hakueikai.or.jp",
        "beds": "150",
        "address": "北区赤羽南2-5-12",
        "tel": "03-3902-0348",
        "lat": "35.773201",
        "lon": "139.723185"
    },
    {
        "id": "73",
        "type": "医療法人",
        "name": "岩井整形外科内科病院",
        "url": "http://www.iwai.com/iwai-seikei/",
        "beds": "56",
        "address": "江戸川区南小岩8-17-2",
        "tel": "03-5694-6211",
        "lat": "35.733745",
        "lon": "139.884947"
    },
    {
        "id": "74",
        "type": "医療法人",
        "name": "浮間中央病院",
        "url": "http://www.hakueikai.or.jp/ukima/",
        "beds": "95",
        "address": "北区赤羽北2-21-19",
        "tel": "03-3907-8711",
        "lat": "35.784255",
        "lon": "139.703236"
    },
    {
        "id": "75",
        "type": "医療法人",
        "name": "永生病院",
        "url": "http://www.eisei.or.jp",
        "beds": "595",
        "address": "八王子市椚田町583-15",
        "tel": "042-661-4108",
        "lat": "35.639563",
        "lon": "139.305"
    },
    {
        "id": "76",
        "type": "医療法人",
        "name": "扇大橋病院",
        "url": "http://ougioohashi-hp.webmedipr.jp/",
        "beds": "96",
        "address": "足立区扇1-55-28",
        "tel": "03-3890-1171",
        "lat": "35.76555",
        "lon": "139.771681"
    },
    {
        "id": "77",
        "type": "医療法人",
        "name": "荻窪病院",
        "url": "https://www.ogikubo-hospital.or.jp/",
        "beds": "252",
        "address": "杉並区今川3-1-24",
        "tel": "03-3399-1101",
        "lat": "35.715238",
        "lon": "139.607275"
    },
    {
        "id": "78",
        "type": "医療法人",
        "name": "織本病院",
        "url": "http://www.orimoto.or.jp/",
        "beds": "92",
        "address": "清瀬市旭が丘1-261",
        "tel": "042-491-2121",
        "lat": "35.79091",
        "lon": "139.534074"
    },
    {
        "id": "79",
        "type": "医療法人",
        "name": "葛西中央病院",
        "url": "http://kasai-central-hospital.or.jp/",
        "beds": "57",
        "address": "江戸川区船堀7-10-3",
        "tel": "03-3680-8121",
        "lat": "35.67671",
        "lon": "139.868744"
    },
    {
        "id": "80",
        "type": "医療法人",
        "name": "金地病院",
        "url": "http://www.kanaji.jp",
        "beds": "38",
        "address": "北区中里1-5-6",
        "tel": "03-3821-6433",
        "lat": "35.736796",
        "lon": "139.749902"
    },
    {
        "id": "81",
        "type": "医療法人",
        "name": "要町病院",
        "url": "http://www.kanamecho-hp.jp",
        "beds": "150",
        "address": "豊島区要町1-11-13",
        "tel": "03-3957-3181",
        "lat": "35.733669",
        "lon": "139.699126"
    },
    {
        "id": "82",
        "type": "医療法人",
        "name": "上板橋病院",
        "url": "http://www.jiseikai.or.jp/kamiitabashi.html",
        "beds": "150",
        "address": "板橋区常盤台4-36-9",
        "tel": "03-3933-7191",
        "lat": "35.765361",
        "lon": "139.676413"
    },
    {
        "id": "83",
        "type": "医療法人",
        "name": "神尾記念病院",
        "url": "http://www.kamio.org",
        "beds": "30",
        "address": "千代田区神田淡路町2-25",
        "tel": "03-3253-3351",
        "lat": "35.697004",
        "lon": "139.766688"
    },
    {
        "id": "84",
        "type": "医療法人",
        "name": "亀有病院",
        "url": "http://www.kameari-hp.com/",
        "beds": "127",
        "address": "葛飾区亀有3-36-3",
        "tel": "03-3601-0186",
        "lat": "35.763345",
        "lon": "139.849613"
    },
    {
        "id": "85",
        "type": "医療法人",
        "name": "河北前田病院",
        "url": "http://www.maeda-jp.or.jp",
        "beds": "117",
        "address": "杉並区本天沼1-2-1",
        "tel": "03-3330-0384",
        "lat": "35.712694",
        "lon": "139.633064"
    },
    {
        "id": "86",
        "type": "医療法人",
        "name": "嬉泉病院",
        "url": "http://www.kisen.or.jp/",
        "beds": "60",
        "address": "葛飾区東金町1-35-8",
        "tel": "03-3600-9007",
        "lat": "35.773007",
        "lon": "139.871156"
    },
    {
        "id": "87",
        "type": "医療法人",
        "name": "グレイス病院",
        "url": "http://www.mcs.or.jp",
        "beds": "120",
        "address": "日野市大字宮248",
        "tel": "042-584-5119",
        "lat": "35.669998",
        "lon": "139.406451"
    },
    {
        "id": "88",
        "type": "医療法人",
        "name": "敬愛病院",
        "url": "http://www.keiai-hospital.jp",
        "beds": "54",
        "address": "板橋区向原3-10-23",
        "tel": "03-3973-3811",
        "lat": "35.744127",
        "lon": "139.681518"
    },
    {
        "id": "89",
        "type": "医療法人",
        "name": "京葉病院",
        "url": "http://www.keiyo-hp.jp/",
        "beds": "60",
        "address": "江戸川区松江2-43-12",
        "tel": "03-3654-8211",
        "lat": "35.702681",
        "lon": "139.87572"
    },
    {
        "id": "90",
        "type": "医療法人",
        "name": "糀谷病院",
        "url": "http://koujiya-hospital.jp/",
        "beds": "88",
        "address": "大田区南蒲田3-3-15",
        "tel": "03-3745-2354",
        "lat": "35.553765",
        "lon": "139.728676"
    },
    {
        "id": "91",
        "type": "医療法人",
        "name": "小林病院",
        "url": "http://www.kobayashibyoin.com/",
        "beds": "115",
        "address": "板橋区成増3-10-8",
        "tel": "03-3930-7077",
        "lat": "35.778451",
        "lon": "139.633981"
    },
    {
        "id": "92",
        "type": "医療法人",
        "name": "桜台病院",
        "url": "http://www.keiseikai-group.com/sakuradai/",
        "beds": "86",
        "address": "練馬区豊玉南1-20-15",
        "tel": "03-3993-7631",
        "lat": "35.728608",
        "lon": "139.659167"
    },
    {
        "id": "93",
        "type": "医療法人",
        "name": "山王病院",
        "url": "http://www.sannoclc.or.jp/hospital/",
        "beds": "79",
        "address": "港区赤坂8-10-16",
        "tel": "03-3402-3151",
        "lat": "35.669683",
        "lon": "139.727256"
    },
    {
        "id": "94",
        "type": "医療法人",
        "name": "下井病院",
        "url": "http://www.shimoi.or.jp",
        "beds": "60",
        "address": "足立区綾瀬3-28-8",
        "tel": "03-3620-8811",
        "lat": "35.765277",
        "lon": "139.828982"
    },
    {
        "id": "95",
        "type": "医療法人",
        "name": "荘病院",
        "url": "http://www.sho-hospital.jp/usr/pc/",
        "beds": "60",
        "address": "板橋区板橋1-41-14",
        "tel": "03-3963-0551",
        "lat": "35.748716",
        "lon": "139.715659"
    },
    {
        "id": "96",
        "type": "医療法人",
        "name": "杉並リハビリテーション病院",
        "url": "http://www.suginami-reha-tokyo.jp",
        "beds": "101",
        "address": "杉並区西荻北2-5-5",
        "tel": "03-3396-3181",
        "lat": "35.704325",
        "lon": "139.60221"
    },
    {
        "id": "97",
        "type": "医療法人",
        "name": "スズキ病院",
        "url": "http://www.suzuki-hospi.or.jp",
        "beds": "99",
        "address": "練馬区栄町7-1",
        "tel": "03-3557-2001",
        "lat": "35.737031",
        "lon": "139.670766"
    },
    {
        "id": "98",
        "type": "医療法人",
        "name": "誠志会病院",
        "url": "http://www.seisikai.or.jp",
        "beds": "152",
        "address": "板橋区坂下1-40-2",
        "tel": "03-3968-2621",
        "lat": "35.779627",
        "lon": "139.681044"
    },
    {
        "id": "99",
        "type": "医療法人",
        "name": "世田谷中央病院",
        "url": "http://setagaya-hp.or.jp/",
        "beds": "131",
        "address": "世田谷区世田谷1-32-18",
        "tel": "03-3420-7111",
        "lat": "35.641196",
        "lon": "139.65054"
    },
    {
        "id": "100",
        "type": "医療法人",
        "name": "セントラル病院",
        "url": "http://www.central-hospital.or.jp",
        "beds": "92",
        "address": "渋谷区松涛2-18-1",
        "tel": "03-3467-5131",
        "lat": "35.658885",
        "lon": "139.689644"
    },
    {
        "id": "101",
        "type": "医療法人",
        "name": "総合東京病院",
        "url": "http://www.tokyo-hospital.com/",
        "beds": "451",
        "address": "中野区江古田3-15-2",
        "tel": "03-3387-5421",
        "lat": "35.727936",
        "lon": "139.66392"
    },
    {
        "id": "102",
        "type": "医療法人",
        "name": "相武病院",
        "url": "http://www.sobu-hosp.or.jp",
        "beds": "326",
        "address": "八王子市戸吹町323-1",
        "tel": "042-691-7788",
        "lat": "35.709661",
        "lon": "139.294614"
    },
    {
        "id": "103",
        "type": "医療法人",
        "name": "高山整形外科病院",
        "url": "http://www.takayamaseikei.or.jp",
        "beds": "48",
        "address": "葛飾区金町3-4-5",
        "tel": "03-3607-3260",
        "lat": "35.766435",
        "lon": "139.871646"
    },
    {
        "id": "104",
        "type": "医療法人",
        "name": "竹丘病院",
        "url": "http://www.takeoka.or.jp",
        "beds": "164",
        "address": "清瀬市竹丘2-3-7",
        "tel": "042-491-6111",
        "lat": "35.765141",
        "lon": "139.508916"
    },
    {
        "id": "105",
        "type": "医療法人",
        "name": "竹川病院",
        "url": "http://www.takekawa.gr.jp",
        "beds": "151",
        "address": "板橋区桜川2-19-1",
        "tel": "03-6413-1300",
        "lat": "35.758806",
        "lon": "139.679136"
    },
    {
        "id": "106",
        "type": "医療法人",
        "name": "立川中央病院",
        "url": "http://www.tactis.or.jp",
        "beds": "115",
        "address": "立川市柴崎町2-17-14",
        "tel": "042-522-7171",
        "lat": "35.695744",
        "lon": "139.407122"
    },
    {
        "id": "107",
        "type": "医療法人",
        "name": "田中脳神経外科病院",
        "url": "http://www.tanaka-nrsg-hp.or.jp",
        "beds": "58",
        "address": "練馬区関町南3-9-23",
        "tel": "03-3920-6263",
        "lat": "35.721865",
        "lon": "139.581916"
    },
    {
        "id": "108",
        "type": "医療法人",
        "name": "多摩丘陵病院",
        "url": "http://www.tamakyuryo.or.jp/hospital/",
        "beds": "316",
        "address": "町田市下小山田町1491",
        "tel": "042-797-1511",
        "lat": "35.604829",
        "lon": "139.421785"
    },
    {
        "id": "109",
        "type": "医療法人",
        "name": "多摩リハビリテーション病院",
        "url": "http://www.wafukai.or.jp/tamarb/",
        "beds": "199",
        "address": "青梅市長渕9-1412-4",
        "tel": "0428-24-3798",
        "lat": "35.764746",
        "lon": "139.269703"
    },
    {
        "id": "110",
        "type": "医療法人",
        "name": "調布東山病院",
        "url": "http://www.touzan.or.jp/",
        "beds": "83",
        "address": "調布市小島町2-32-17",
        "tel": "042-481-5511",
        "lat": "35.652173",
        "lon": "139.542202"
    },
    {
        "id": "111",
        "type": "医療法人",
        "name": "同愛会病院",
        "url": "http://www.douaikai.jp/",
        "beds": "149",
        "address": "江戸川区松島1-42-21",
        "tel": "03-3654-3311",
        "lat": "35.705578",
        "lon": "139.867613"
    },
    {
        "id": "112",
        "type": "医療法人",
        "name": "東京衛生アドベンチスト病院",
        "url": "http://www.tokyoeisei.com/",
        "beds": "186",
        "address": "杉並区天沼3-17-3",
        "tel": "03-3392-6151",
        "lat": "35.708108",
        "lon": "139.619395"
    },
    {
        "id": "113",
        "type": "医療法人",
        "name": "東京蒲田病院",
        "url": "www.t-kamata-hosp.or.jp",
        "beds": "180",
        "address": "大田区西蒲田7-10-1",
        "tel": "03-3733-0525",
        "lat": "35.564248",
        "lon": "139.71195"
    },
    {
        "id": "114",
        "type": "医療法人",
        "name": "東京天使病院",
        "url": "http://www.angelcourt.or.jp",
        "beds": "122",
        "address": "八王子市上壱分方町50-1",
        "tel": "042-651-5331",
        "lat": "35.684396",
        "lon": "139.28056"
    },
    {
        "id": "115",
        "type": "医療法人",
        "name": "東都文京病院",
        "url": "http://www.tohtobunkyo-hp.com/",
        "beds": "126",
        "address": "文京区湯島3-5-7",
        "tel": "03-3831-2181",
        "lat": "35.704205",
        "lon": "139.767849"
    },
    {
        "id": "116",
        "type": "医療法人",
        "name": "東立病院",
        "url": "http://www.touritsu-hosp.com/pc/index.html",
        "beds": "57",
        "address": "葛飾区立石6-38-13",
        "tel": "03-3693-1515",
        "lat": "35.743571",
        "lon": "139.854213"
    },
    {
        "id": "117",
        "type": "医療法人",
        "name": "東和病院",
        "url": "http://www.towa-hp.jp/",
        "beds": "299",
        "address": "足立区東和4-7-10",
        "tel": "03-3629-8111",
        "lat": "35.772636",
        "lon": "139.843787"
    },
    {
        "id": "118",
        "type": "医療法人",
        "name": "常盤台外科病院",
        "url": "http://tokiwadai-geka.jp/",
        "beds": "99",
        "address": "板橋区常盤台2-25-20",
        "tel": "03-3960-7211",
        "lat": "35.76253",
        "lon": "139.690035"
    },
    {
        "id": "119",
        "type": "医療法人",
        "name": "としま昭和病院",
        "url": "http://www.toshimashowa.or.jp/",
        "beds": "46",
        "address": "豊島区南長崎5-17-9",
        "tel": "03-3953-5555",
        "lat": "35.728864",
        "lon": "139.682263"
    },
    {
        "id": "120",
        "type": "医療法人",
        "name": "成増厚生病院",
        "url": "http://narimasukosei-hospital.jp/",
        "beds": "530",
        "address": "板橋区三園1-19-1",
        "tel": "03-3939-1191",
        "lat": "35.788676",
        "lon": "139.639942"
    },
    {
        "id": "121",
        "type": "医療法人",
        "name": "ニューハート・ワタナベ国際病院",
        "url": "https://newheart.jp/",
        "beds": "44",
        "address": "杉並区浜田山3-19-11",
        "tel": "03-3311-1119",
        "lat": "35.683092",
        "lon": "139.629733"
    },
    {
        "id": "122",
        "type": "医療法人",
        "name": "野村病院",
        "url": "https://www.nomura.or.jp/",
        "beds": "133",
        "address": "三鷹市下連雀8-3-6",
        "tel": "0422-47-4848",
        "lat": "35.685147",
        "lon": "139.56805"
    },
    {
        "id": "123",
        "type": "医療法人",
        "name": "八王子消化器病院",
        "url": "http://www.hachiojisyokaki.com/",
        "beds": "98",
        "address": "八王子市万町177-3",
        "tel": "042-626-5111",
        "lat": "35.650727",
        "lon": "139.332914"
    },
    {
        "id": "124",
        "type": "医療法人",
        "name": "浜田病院",
        "url": "http://www.obatakai.or.jp",
        "beds": "22",
        "address": "千代田区神田駿河台2-5",
        "tel": "03-5280-1166",
        "lat": "35.699417",
        "lon": "139.761351"
    },
    {
        "id": "125",
        "type": "医療法人",
        "name": "半蔵門病院",
        "url": "http://www.hanzomon.com/",
        "beds": "44",
        "address": "千代田区麹町1-10",
        "tel": "03-3239-3355",
        "lat": "35.685123",
        "lon": "139.742369"
    },
    {
        "id": "126",
        "type": "医療法人",
        "name": "聖ヶ丘病院",
        "url": "http://www.hijirigaoka.or.jp/",
        "beds": "48",
        "address": "多摩市連光寺2-69-6",
        "tel": "042-338-8111",
        "lat": "35.639492",
        "lon": "139.453343"
    },
    {
        "id": "127",
        "type": "医療法人",
        "name": "日の出ヶ丘病院",
        "url": "http://www.hinodehp.com",
        "beds": "170",
        "address": "西多摩郡日の出町大久野310番地",
        "tel": "042-597-0811",
        "lat": "35.742972",
        "lon": "139.246224"
    },
    {
        "id": "128",
        "type": "医療法人",
        "name": "平塚胃腸病院",
        "url": "http://www.ichou.gr.jp/",
        "beds": "40",
        "address": "豊島区西池袋3-2-16",
        "tel": "03-3982-1161",
        "lat": "35.728831",
        "lon": "139.706096"
    },
    {
        "id": "129",
        "type": "医療法人",
        "name": "藤﨑病院",
        "url": "http://www.fujisaki-hp.com/",
        "beds": "119",
        "address": "江東区南砂1-25-11",
        "tel": "03-3648-2111",
        "lat": "35.676565",
        "lon": "139.826747"
    },
    {
        "id": "130",
        "type": "医療法人",
        "name": "富士病院",
        "url": "http://fujihospital.com",
        "beds": "92",
        "address": "北区西ヶ原3-33-11",
        "tel": "03-3910-6661",
        "lat": "35.745024",
        "lon": "139.738606"
    },
    {
        "id": "131",
        "type": "医療法人",
        "name": "富士見病院",
        "url": "http://www.fujimi-hp.or.jp/",
        "beds": "108",
        "address": "板橋区大和町14-16",
        "tel": "03-3962-2431",
        "lat": "35.760756",
        "lon": "139.705298"
    },
    {
        "id": "132",
        "type": "医療法人",
        "name": "府中恵仁会病院",
        "url": "http://www.fuchu-keijinkai.or.jp",
        "beds": "217",
        "address": "府中市住吉町5-21-1",
        "tel": "042-365-1211",
        "lat": "35.657102",
        "lon": "139.455508"
    },
    {
        "id": "133",
        "type": "医療法人",
        "name": "平成立石病院",
        "url": "http://www.heisei-tateishi.net",
        "beds": "203",
        "address": "葛飾区立石5-1-9",
        "tel": "03-3692-2121",
        "lat": "35.742205",
        "lon": "139.842137"
    },
    {
        "id": "134",
        "type": "医療法人",
        "name": "右田病院",
        "url": "http://www.migitahosp.or.jp/",
        "beds": "82",
        "address": "八王子市暁町1-48-18",
        "tel": "042-622-5155",
        "lat": "35.668842",
        "lon": "139.340657"
    },
    {
        "id": "135",
        "type": "医療法人",
        "name": "三鷹中央病院",
        "url": "http://eiju.webmedipr.jp/",
        "beds": "122",
        "address": "三鷹市上連雀5-23-10",
        "tel": "0422-44-6161",
        "lat": "35.694987",
        "lon": "139.552407"
    },
    {
        "id": "136",
        "type": "医療法人",
        "name": "南多摩病院",
        "url": "http://www.minamitama.jp/",
        "beds": "170",
        "address": "八王子市散田町3-10-1",
        "tel": "042-663-0111",
        "lat": "35.655339",
        "lon": "139.312866"
    },
    {
        "id": "137",
        "type": "医療法人",
        "name": "みなみ野病院",
        "url": "http://www.eisei.or.jp/minamino",
        "beds": "205",
        "address": "八王子市みなみ野5-30-3",
        "tel": "042-632-8118",
        "lat": "35.631021",
        "lon": "139.318712"
    },
    {
        "id": "138",
        "type": "医療法人",
        "name": "武蔵野中央病院",
        "url": "http://www.musashino-chuou.com/",
        "beds": "306",
        "address": "小金井市東町1-44-26",
        "tel": "0422-31-1231",
        "lat": "35.693836",
        "lon": "139.529988"
    },
    {
        "id": "139",
        "type": "医療法人",
        "name": "武蔵野徳洲会病院",
        "url": "https://www.musatoku.com/",
        "beds": "246",
        "address": "西東京市向台町3-5-48",
        "tel": "042-465-0700",
        "lat": "35.717483",
        "lon": "139.53324"
    },
    {
        "id": "140",
        "type": "医療法人",
        "name": "目黒病院",
        "url": "http://www.meguro-hospital.com/",
        "beds": "60",
        "address": "目黒区中央町2-12-6",
        "tel": "03-3711-5641",
        "lat": "35.631922",
        "lon": "139.691134"
    },
    {
        "id": "141",
        "type": "医療法人",
        "name": "目白病院",
        "url": "http://mejirohp.jp/",
        "beds": "100",
        "address": "新宿区下落合3-22-23",
        "tel": "03-3953-9909",
        "lat": "35.722402",
        "lon": "139.698952"
    },
    {
        "id": "142",
        "type": "医療法人",
        "name": "安田病院",
        "url": "http://www.yasudahosp.jp/",
        "beds": "46",
        "address": "板橋区成増1-13-9",
        "tel": "03-3939-0101",
        "lat": "35.775359",
        "lon": "139.632883"
    },
    {
        "id": "143",
        "type": "医療法人",
        "name": "代々木病院",
        "url": "http://www.tokyo-kinikai.com/yoyogi/",
        "beds": "150",
        "address": "渋谷区千駄ヶ谷1-30-7",
        "tel": "03-3404-7661",
        "lat": "35.680855",
        "lon": "139.709679"
    },
    {
        "id": "144",
        "type": "医療法人",
        "name": "ロイヤル病院",
        "url": "http://www.mck.or.jp",
        "beds": "198",
        "address": "杉並区下高井戸4-6-2",
        "tel": "03-3302-7331",
        "lat": "35.670342",
        "lon": "139.627927"
    },
    {
        "id": "145",
        "type": "特定医療法人",
        "name": "北多摩病院",
        "url": "https://www.kitatamahospital.net",
        "beds": "269",
        "address": "調布市調布ヶ丘4-1-1",
        "tel": "042-486-8111",
        "lat": "35.659608",
        "lon": "139.54386"
    },
    {
        "id": "146",
        "type": "特定医療法人",
        "name": "武蔵野陽和会病院",
        "url": "",
        "beds": "103",
        "address": "武蔵野市緑町2-1-33",
        "tel": "0422-52-3212",
        "lat": "35.716516",
        "lon": "139.565313"
    },
    {
        "id": "147",
        "type": "社会医療法人",
        "name": "いずみ記念病院",
        "url": "http://www.izumikinen.or.jp",
        "beds": "144",
        "address": "足立区本木1-3-7",
        "tel": "03-5888-2111",
        "lat": "35.76099",
        "lon": "139.786346"
    },
    {
        "id": "148",
        "type": "社会医療法人",
        "name": "大田病院",
        "url": "http://othp.c-pronet.jp/",
        "beds": "189",
        "address": "大田区大森東4-4-14",
        "tel": "03-3762-8421",
        "lat": "35.569193",
        "lon": "139.737833"
    },
    {
        "id": "149",
        "type": "社会医療法人",
        "name": "河北総合病院",
        "url": "http://kawakita.or.jp/",
        "beds": "331",
        "address": "杉並区阿佐谷北1-7-3",
        "tel": "03-3339-2121",
        "lat": "35.706801",
        "lon": "139.638856"
    },
    {
        "id": "150",
        "type": "社会医療法人",
        "name": "社会医療法人社団 森山医会　森山記念病院",
        "url": "http://mk.moriyamaikai.or.jp/",
        "beds": "275",
        "address": "江戸川区北葛西四丁目3番1号",
        "tel": "03-5679-1211",
        "lat": "35.672199",
        "lon": "139.861665"
    },
    {
        "id": "151",
        "type": "社会医療法人",
        "name": "第一病院",
        "url": "http://www.daiichi.or.jp/",
        "beds": "136",
        "address": "葛飾区東金町4-2-10",
        "tel": "03-3607-0007",
        "lat": "35.772367",
        "lon": "139.876405"
    },
    {
        "id": "152",
        "type": "社会医療法人",
        "name": "立川相互病院",
        "url": "http://www.t-kenseikai.jp/tachisou/",
        "beds": "287",
        "address": "立川市緑町4-1",
        "tel": "042-525-2585",
        "lat": "35.703575",
        "lon": "139.413366"
    },
    {
        "id": "153",
        "type": "社会医療法人",
        "name": "長汐病院",
        "url": "http://www.nagashio.jp",
        "beds": "302",
        "address": "豊島区池袋1-5-8",
        "tel": "03-3984-6161",
        "lat": "35.735391",
        "lon": "139.713124"
    },
    {
        "id": "154",
        "type": "社会医療法人",
        "name": "東大和病院",
        "url": "http://www.yamatokai.or.jp/higasiyamato/",
        "beds": "284",
        "address": "東大和市南街1-13-12",
        "tel": "042-562-1411",
        "lat": "35.7412",
        "lon": "139.431966"
    },
    {
        "id": "155",
        "type": "社会医療法人",
        "name": "牧田総合病院",
        "url": "http://www.makita-hosp.or.jp/",
        "beds": "284",
        "address": "大田区大森北1-34-6",
        "tel": "03-3762-4671",
        "lat": "35.586089",
        "lon": "139.727256"
    },
    {
        "id": "156",
        "type": "社会医療法人",
        "name": "牧田総合病院　蒲田分院",
        "url": "http://www.makita-hosp.or.jp/kamata/",
        "beds": "120",
        "address": "大田区西蒲田4-22-1",
        "tel": "03-5748-5020",
        "lat": "35.568822",
        "lon": "139.715384"
    },
    {
        "id": "157",
        "type": "社会医療法人",
        "name": "武蔵村山病院",
        "url": "http://www.yamatokai.or.jp/musasimurayama/",
        "beds": "300",
        "address": "武蔵村山市榎1-1-5",
        "tel": "042-566-3111",
        "lat": "35.743826",
        "lon": "139.387676"
    },
    {
        "id": "158",
        "type": "私立学校法人",
        "name": "北里大学北里研究所病院",
        "url": "http://www.kitasato-u.ac.jp/hokken-hp/",
        "beds": "329",
        "address": "港区白金5-9-1",
        "tel": "03-3444-6161",
        "lat": "35.6448",
        "lon": "139.725733"
    },
    {
        "id": "159",
        "type": "私立学校法人",
        "name": "慶應義塾大学病院",
        "url": "http://www.hosp.keio.ac.jp/",
        "beds": "960",
        "address": "新宿区信濃町35",
        "tel": "03-3353-1211",
        "lat": "35.681433",
        "lon": "139.71916"
    },
    {
        "id": "160",
        "type": "私立学校法人",
        "name": "国際医療福祉大学三田病院",
        "url": "http://mita.iuhw.ac.jp",
        "beds": "291",
        "address": "港区三田1-4-3",
        "tel": "03-3451-8121",
        "lat": "35.653698",
        "lon": "139.742477"
    },
    {
        "id": "161",
        "type": "私立学校法人",
        "name": "順天堂大学医学部附属順天堂医院",
        "url": "http://www.juntendo.ac.jp/hospital/",
        "beds": "1032",
        "address": "文京区本郷3-1-3",
        "tel": "03-3813-3111",
        "lat": "35.702405",
        "lon": "139.762606"
    },
    {
        "id": "162",
        "type": "私立学校法人",
        "name": "順天堂大学医学部附属順天堂東京江東高齢者医療センター",
        "url": "http://www.juntendo.gmc.ac.jp",
        "beds": "404",
        "address": "江東区新砂3-3-20",
        "tel": "03-5632-3111",
        "lat": "35.665353",
        "lon": "139.83364"
    },
    {
        "id": "163",
        "type": "私立学校法人",
        "name": "順天堂大学医学部附属練馬病院",
        "url": "https://www.juntendo.ac.jp/hospital_nerima/",
        "beds": "400",
        "address": "練馬区高野台3-1-10",
        "tel": "03-5923-3111",
        "lat": "35.742156",
        "lon": "139.614762"
    },
    {
        "id": "164",
        "type": "私立学校法人",
        "name": "昭和大学病院",
        "url": "http://www.showa-u.ac.jp/SUH/",
        "beds": "815",
        "address": "品川区旗の台1-5-8",
        "tel": "03-3784-8000",
        "lat": "35.608364",
        "lon": "139.703623"
    },
    {
        "id": "165",
        "type": "私立学校法人",
        "name": "聖路加国際病院",
        "url": "http://hospital.luke.ac.jp/",
        "beds": "520",
        "address": "中央区明石町9番1号",
        "tel": "03-3541-5151",
        "lat": "35.667309",
        "lon": "139.777298"
    },
    {
        "id": "166",
        "type": "私立学校法人",
        "name": "帝京大学医学部附属病院",
        "url": "http://www.teikyo-hospital.jp/",
        "beds": "1078",
        "address": "板橋区加賀2-11-1",
        "tel": "03-3964-1211",
        "lat": "35.759005",
        "lon": "139.713899"
    },
    {
        "id": "167",
        "type": "私立学校法人",
        "name": "東京医科大学八王子医療センター",
        "url": "http://hachioji.tokyo-med.ac.jp/",
        "beds": "610",
        "address": "八王子市館町1163",
        "tel": "042-665-5611",
        "lat": "35.631318",
        "lon": "139.288055"
    },
    {
        "id": "168",
        "type": "私立学校法人",
        "name": "東京医科大学病院",
        "url": "http://hospinfo.tokyo-med.ac.jp/",
        "beds": "1015",
        "address": "新宿区西新宿6-7-1",
        "tel": "03-3342-6111",
        "lat": "35.693258",
        "lon": "139.691659"
    },
    {
        "id": "169",
        "type": "私立学校法人",
        "name": "東京慈恵会医科大学附属病院",
        "url": "http://www.jikei.ac.jp/hospital/honin/",
        "beds": "1075",
        "address": "港区西新橋3-19-18",
        "tel": "03-3433-1111",
        "lat": "35.663568",
        "lon": "139.751326"
    },
    {
        "id": "170",
        "type": "私立学校法人",
        "name": "東京女子医科大学病院",
        "url": "http://www.twmu.ac.jp/info-twmu/",
        "beds": "1379",
        "address": "新宿区河田町8-1",
        "tel": "03-3353-8111",
        "lat": "35.69702",
        "lon": "139.719905"
    },
    {
        "id": "171",
        "type": "私立学校法人",
        "name": "東邦大学医療センター大森病院",
        "url": "http://www.omori.med.toho-u.ac.jp/",
        "beds": "934",
        "address": "大田区大森西6-11-1",
        "tel": "03-3762-4151",
        "lat": "35.568931",
        "lon": "139.72411"
    },
    {
        "id": "172",
        "type": "私立学校法人",
        "name": "日本歯科大学附属病院",
        "url": "http://dent-hosp.ndu.ac.jp/nduhosp/",
        "beds": "42",
        "address": "千代田区富士見2-3-16",
        "tel": "03-3261-5511",
        "lat": "35.700011",
        "lon": "139.744994"
    },
    {
        "id": "173",
        "type": "私立学校法人",
        "name": "日本医科大学付属病院",
        "url": "",
        "beds": "897",
        "address": "文京区千駄木１丁目１番５号",
        "tel": "03-3822-2131",
        "lat": "35.721143",
        "lon": "139.758969"
    },
    {
        "id": "174",
        "type": "私立学校法人",
        "name": "日本大学医学部附属板橋病院",
        "url": "http://www.med.nihon-u.ac.jp/hospital/itabashi/",
        "beds": "1025",
        "address": "板橋区大谷口上町30-1",
        "tel": "03-3972-8111",
        "lat": "35.749564",
        "lon": "139.691647"
    },
    {
        "id": "175",
        "type": "私立学校法人",
        "name": "日本大学病院",
        "url": "http://www.nihon-u.ac.jp/hospital/",
        "beds": "320",
        "address": "千代田区神田駿河台1-6",
        "tel": "03-3293-1711",
        "lat": "35.697346",
        "lon": "139.762752"
    },
    {
        "id": "176",
        "type": "社会福祉法人",
        "name": "あそか病院",
        "url": "http://hp.asokakai.or.jp/",
        "beds": "254",
        "address": "江東区住吉1-18-1",
        "tel": "03-3632-0290",
        "lat": "35.689926",
        "lon": "139.811889"
    },
    {
        "id": "177",
        "type": "社会福祉法人",
        "name": "江戸川病院",
        "url": "http://www.edogawa.or.jp",
        "beds": "418",
        "address": "江戸川区東小岩2-24-18",
        "tel": "03-3673-1221",
        "lat": "35.728473",
        "lon": "139.893085"
    },
    {
        "id": "178",
        "type": "社会福祉法人",
        "name": "江戸川病院高砂分院",
        "url": "http://www.takasago-hp.jp/t_top/takasago_top.html",
        "beds": "99",
        "address": "葛飾区西水元4-5-1",
        "tel": "03-3607-4060",
        "lat": "35.793662",
        "lon": "139.845542"
    },
    {
        "id": "179",
        "type": "社会福祉法人",
        "name": "江戸川メディケア病院",
        "url": "www.katayama-hospital.com/",
        "beds": "150",
        "address": "江戸川区東松本2-14-12",
        "tel": "03-3657-1181",
        "lat": "35.720265",
        "lon": "139.881562"
    },
    {
        "id": "180",
        "type": "社会福祉法人",
        "name": "久我山病院",
        "url": "http://www.kugayama-hp.org/",
        "beds": "199",
        "address": "世田谷区北烏山2-14-20",
        "tel": "03-3309-1111",
        "lat": "35.681475",
        "lon": "139.598969"
    },
    {
        "id": "181",
        "type": "社会福祉法人",
        "name": "桜町病院",
        "url": "http://www.seiyohanekai.or.jp/sakuramachi-hp/",
        "beds": "199",
        "address": "小金井市桜町1-2-20",
        "tel": "042-383-4111",
        "lat": "35.70989",
        "lon": "139.511593"
    },
    {
        "id": "182",
        "type": "社会福祉法人",
        "name": "心身障害児総合医療療育センター",
        "url": "http://www.ryouiku-net.com/",
        "beds": "256",
        "address": "板橋区小茂根1-1-10",
        "tel": "03-3974-2146",
        "lat": "35.747385",
        "lon": "139.682686"
    },
    {
        "id": "183",
        "type": "社会福祉法人",
        "name": "聖母病院",
        "url": "https://www.seibokai.or.jp",
        "beds": "154",
        "address": "新宿区中落合2-5-1",
        "tel": "03-3951-1111",
        "lat": "35.719919",
        "lon": "139.694364"
    },
    {
        "id": "184",
        "type": "社会福祉法人",
        "name": "総合母子保健センター愛育病院",
        "url": "http://www.aiiku.net",
        "beds": "160",
        "address": "港区芝浦1-16-10",
        "tel": "03-6453-7300",
        "lat": "35.645958",
        "lon": "139.752468"
    },
    {
        "id": "185",
        "type": "社会福祉法人",
        "name": "同愛記念病院",
        "url": "http://www.doai.jp",
        "beds": "403",
        "address": "墨田区横網2-1-11",
        "tel": "03-3625-6381",
        "lat": "35.699569",
        "lon": "139.794168"
    },
    {
        "id": "186",
        "type": "社会福祉法人",
        "name": "東京白十字病院",
        "url": "http://www.t-hakujuji.or.jp",
        "beds": "125",
        "address": "東村山市諏訪町2-26-1",
        "tel": "042-391-6111",
        "lat": "35.770985",
        "lon": "139.463579"
    },
    {
        "id": "187",
        "type": "社会福祉法人",
        "name": "日暮里上宮病院",
        "url": "http://www.jyogu.com/nippori/",
        "beds": "81",
        "address": "荒川区東日暮里2-29-8",
        "tel": "03-3891-5291",
        "lat": "35.728676",
        "lon": "139.785086"
    },
    {
        "id": "188",
        "type": "社会福祉法人",
        "name": "三井記念病院",
        "url": "http://www.mitsuihosp.or.jp/",
        "beds": "482",
        "address": "千代田区神田和泉町1",
        "tel": "03-3862-9111",
        "lat": "35.699084",
        "lon": "139.778469"
    },
    {
        "id": "189",
        "type": "社会福祉法人",
        "name": "南台病院",
        "url": "http://minamidaihp.jp/",
        "beds": "140",
        "address": "小平市小川町1-485",
        "tel": "042-341-7111",
        "lat": "35.728184",
        "lon": "139.440266"
    },
    {
        "id": "190",
        "type": "社会福祉法人",
        "name": "有隣病院",
        "url": "http://tokyoyurin-hospital.com/",
        "beds": "251",
        "address": "世田谷区船橋2-15-38",
        "tel": "03-3482-3611",
        "lat": "35.650992",
        "lon": "139.61914"
    },
    {
        "id": "191",
        "type": "社会福祉法人",
        "name": "緑風荘病院",
        "url": "http://ryokufuusou.com",
        "beds": "199",
        "address": "東村山市萩山町3-31-1",
        "tel": "042-392-1101",
        "lat": "35.74425",
        "lon": "139.46754"
    },
    {
        "id": "192",
        "type": "医療生協",
        "name": "王子生協病院",
        "url": "http://oujiseikyo-hp.jp/",
        "beds": "159",
        "address": "北区豊島3-4-15",
        "tel": "03-3912-2201",
        "lat": "35.760226",
        "lon": "139.744193"
    },
    {
        "id": "193",
        "type": "医療生協",
        "name": "東京健生病院",
        "url": "http://thoken.or.jp/kensei/",
        "beds": "126",
        "address": "文京区大塚4-3-8",
        "tel": "03-3944-6111",
        "lat": "35.724521",
        "lon": "139.736004"
    },
    {
        "id": "194",
        "type": "医療生協",
        "name": "新渡戸記念中野総合病院",
        "url": "http://www.nakanosogo.or.jp/",
        "beds": "296",
        "address": "中野区中央4-59-16",
        "tel": "03-3382-1231",
        "lat": "35.702504",
        "lon": "139.667103"
    },
    {
        "id": "195",
        "type": "会社",
        "name": "いすゞ病院",
        "url": "http://isuzu-hospital.jp/",
        "beds": "20",
        "address": "品川区南大井6-21-10",
        "tel": "03-3762-9127",
        "lat": "35.589575",
        "lon": "139.732681"
    },
    {
        "id": "196",
        "type": "会社",
        "name": "ＮＴＴ東日本関東病院",
        "url": "http://www.ntt-east.co.jp/kmc/",
        "beds": "594",
        "address": "品川区東五反田5-9-22",
        "tel": "03-3448-6111",
        "lat": "35.631307",
        "lon": "139.72558"
    },
    {
        "id": "197",
        "type": "会社",
        "name": "ＪＲ東京総合病院",
        "url": "http://www.jreast.co.jp/hospital/index.html/",
        "beds": "448",
        "address": "渋谷区代々木2-1-3",
        "tel": "03-3320-2200",
        "lat": "35.685464",
        "lon": "139.700149"
    },
    {
        "id": "198",
        "type": "会社",
        "name": "東急病院",
        "url": "http://www.tokyu-hospital.jp/",
        "beds": "135",
        "address": "大田区北千束3-27-2",
        "tel": "03-3718-3331",
        "lat": "35.607533",
        "lon": "139.685963"
    },
    {
        "id": "199",
        "type": "会社",
        "name": "東京逓信病院",
        "url": "http://www.hospital.japanpost.jp/tokyo/",
        "beds": "461",
        "address": "千代田区富士見2-14-23",
        "tel": "03-5214-7111",
        "lat": "35.697582",
        "lon": "139.743255"
    },
    {
        "id": "200",
        "type": "その他法人",
        "name": "赤羽リハビリテーション病院",
        "url": "http://www.akabane-rh.jp/",
        "beds": "234",
        "address": "北区赤羽西6-37-12",
        "tel": "03-5993-5777",
        "lat": "35.770318",
        "lon": "139.706138"
    },
    {
        "id": "201",
        "type": "その他法人",
        "name": "蒲田リハビリテーション病院",
        "url": "http://www.kamata-rh.net/index.php",
        "beds": "180",
        "address": "大田区大森西4-14-5",
        "tel": "03-5767-7100",
        "lat": "35.572496",
        "lon": "139.720587"
    },
    {
        "id": "202",
        "type": "その他法人",
        "name": "救世軍清瀬病院",
        "url": "http://kiyosehp.salvationarmy.or.jp",
        "beds": "142",
        "address": "清瀬市竹丘1-17-9",
        "tel": "042-491-1411",
        "lat": "35.769926",
        "lon": "139.506669"
    },
    {
        "id": "203",
        "type": "その他法人",
        "name": "救世軍ブース記念病院",
        "url": "http://boothhp.salvationarmy.or.jp/",
        "beds": "199",
        "address": "杉並区和田1-40-5",
        "tel": "03-3381-7236",
        "lat": "35.690519",
        "lon": "139.66021"
    },
    {
        "id": "204",
        "type": "その他法人",
        "name": "クリニカルリサーチ東京病院",
        "url": "http://www.crht.jp",
        "beds": "50",
        "address": "新宿区原町3-87-4　NTビル3F",
        "tel": "03-3355-7200",
        "lat": "35.69773",
        "lon": "139.723412"
    },
    {
        "id": "205",
        "type": "その他法人",
        "name": "厚生荘病院",
        "url": "http://www.kouseisou.jp/",
        "beds": "243",
        "address": "多摩市和田1547",
        "tel": "042-374-3535",
        "lat": "35.646735",
        "lon": "139.431725"
    },
    {
        "id": "206",
        "type": "その他法人",
        "name": "小金井リハビリテーション病院",
        "url": "http://www.koganei-rh.net/",
        "beds": "220",
        "address": "小金井市前原町1-3-2",
        "tel": "042-316-3561",
        "lat": "35.688937",
        "lon": "139.512298"
    },
    {
        "id": "207",
        "type": "その他法人",
        "name": "五反田リハビリテーション病院",
        "url": "http://www.gotanda-reha.com/",
        "beds": "240",
        "address": "品川区西五反田8-8-20",
        "tel": "03-3779-8820",
        "lat": "35.621657",
        "lon": "139.720723"
    },
    {
        "id": "208",
        "type": "その他法人",
        "name": "駒沢病院",
        "url": "http://www.komazawa-hp.jp/",
        "beds": "95",
        "address": "世田谷区駒沢2-2-15",
        "tel": "03-3424-2515",
        "lat": "35.633942",
        "lon": "139.660436"
    },
    {
        "id": "209",
        "type": "その他法人",
        "name": "至誠会第二病院",
        "url": "http://www.shiseikai-daini-hosp.jp/",
        "beds": "305",
        "address": "世田谷区上祖師谷5-19-1",
        "tel": "03-3300-0366",
        "lat": "35.656429",
        "lon": "139.591587"
    },
    {
        "id": "210",
        "type": "その他法人",
        "name": "城西病院",
        "url": "http://www.johsai-hp.or.jp/",
        "beds": "99",
        "address": "杉並区上荻2-42-11",
        "tel": "03-3390-4166",
        "lat": "35.707961",
        "lon": "139.614559"
    },
    {
        "id": "211",
        "type": "その他法人",
        "name": "仁和会総合病院",
        "url": "http://www.jinwakai.jp/",
        "beds": "157",
        "address": "八王子市明神町4-8-1",
        "tel": "042-644-3711",
        "lat": "35.658252",
        "lon": "139.341521"
    },
    {
        "id": "212",
        "type": "その他法人",
        "name": "東京警察病院",
        "url": "http://www.keisatsubyoin.or.jp/",
        "beds": "415",
        "address": "中野区中野四丁目22-1",
        "tel": "03-5343-5611",
        "lat": "35.709121",
        "lon": "139.659359"
    },
    {
        "id": "213",
        "type": "その他法人",
        "name": "東京武蔵野病院",
        "url": "http://www.tmh.or.jp/",
        "beds": "619",
        "address": "板橋区小茂根4-11-11",
        "tel": "03-5986-3111",
        "lat": "35.747142",
        "lon": "139.674687"
    },
    {
        "id": "214",
        "type": "その他法人",
        "name": "原宿リハビリテーション病院",
        "url": "http://www.harajuku-reha.com/",
        "beds": "332",
        "address": "渋谷区神宮前6-26-1",
        "tel": "03-3486-8333",
        "lat": "35.666874",
        "lon": "139.702473"
    },
    {
        "id": "215",
        "type": "その他法人",
        "name": "立正佼成会附属佼成病院",
        "url": "http://www.kosei-hp.or.jp",
        "beds": "340",
        "address": "杉並区和田2-25-1",
        "tel": "03-3383-1281",
        "lat": "35.690181",
        "lon": "139.655795"
    }
]