[
    {
        "id": "1",
        "type": "独立行政法人国立病院機構",
        "name": "久里浜医療センター",
        "url": "http://www.kurihama-med.jp/",
        "beds": "332",
        "address": "横須賀市野比5-3-1",
        "tel": "046-848-1550",
        "lat": "35.211957",
        "lon": "139.701856"
    },
    {
        "id": "2",
        "type": "独立行政法人国立病院機構",
        "name": "箱根病院",
        "url": "https://hakone.hosp.go.jp/",
        "beds": "199",
        "address": "小田原市風祭412",
        "tel": "0465-22-3196",
        "lat": "35.247581",
        "lon": "139.129528"
    },
    {
        "id": "3",
        "type": "独立行政法人国立病院機構",
        "name": "横浜医療センター",
        "url": "http://www.yokohama-mc.jp/",
        "beds": "510",
        "address": "横浜市戸塚区原宿3-60-2",
        "tel": "045-851-2621",
        "lat": "35.380364",
        "lon": "139.504504"
    },
    {
        "id": "4",
        "type": "独立行政法人労働者健康安全機構",
        "name": "関東労災病院",
        "url": "http://www.kantoh.johas.go.jp/",
        "beds": "610",
        "address": "川崎市中原区木月住吉町1-1",
        "tel": "044-411-3131",
        "lat": "35.568334",
        "lon": "139.656753"
    },
    {
        "id": "5",
        "type": "独立行政法人労働者健康安全機構",
        "name": "横浜労災病院",
        "url": "https://www.yokohamah.johas.go.jp/",
        "beds": "650",
        "address": "横浜市港北区小机町3211",
        "tel": "045-474-8111",
        "lat": "35.511348",
        "lon": "139.610067"
    },
    {
        "id": "6",
        "type": "独立行政法人地域医療機能推進機構",
        "name": "相模野病院",
        "url": "http://sagamino.jcho.go.jp",
        "beds": "212",
        "address": "相模原市中央区淵野辺1-2-30",
        "tel": "042-752-2025",
        "lat": "35.572753",
        "lon": "139.388703"
    },
    {
        "id": "7",
        "type": "独立行政法人地域医療機能推進機構",
        "name": "湯河原病院",
        "url": "http://yugawara.jcho.go.jp/",
        "beds": "199",
        "address": "足柄下郡湯河原町宮上438",
        "tel": "0465-63-2211",
        "lat": "35.144398",
        "lon": "139.078391"
    },
    {
        "id": "8",
        "type": "独立行政法人地域医療機能推進機構",
        "name": "横浜中央病院",
        "url": "http://yokohama.jcho.go.jp",
        "beds": "250",
        "address": "横浜市中区山下町268",
        "tel": "045-641-1921",
        "lat": "35.440831",
        "lon": "139.643674"
    },
    {
        "id": "9",
        "type": "独立行政法人地域医療機能推進機構",
        "name": "横浜保土ヶ谷中央病院",
        "url": "http://hodogaya.jcho.go.jp/",
        "beds": "241",
        "address": "横浜市保土ヶ谷区釜台町43-1",
        "tel": "045-331-1251",
        "lat": "35.472712",
        "lon": "139.583234"
    },
    {
        "id": "10",
        "type": "市町村",
        "name": "川崎市立井田病院",
        "url": "http://www.city.kawasaki.jp/33/cmsfiles/contents/0000037/37855/ida/",
        "beds": "383",
        "address": "川崎市中原区井田2-27-1",
        "tel": "044-766-2188",
        "lat": "35.559996",
        "lon": "139.640871"
    },
    {
        "id": "11",
        "type": "市町村",
        "name": "川崎市立川崎病院",
        "url": "http://www.city.kawasaki.jp/32/cmsfiles/contents/0000037/37856/kawasaki/",
        "beds": "713",
        "address": "川崎市川崎区新川通12-1",
        "tel": "044-233-5521",
        "lat": "35.52673",
        "lon": "139.705939"
    },
    {
        "id": "12",
        "type": "市町村",
        "name": "茅ヶ崎市立病院",
        "url": "http://hosp.city.chigasaki.kanagawa.jp/",
        "beds": "401",
        "address": "茅ケ崎市本村5-15-1",
        "tel": "0467-52-1111",
        "lat": "35.339923",
        "lon": "139.415136"
    },
    {
        "id": "13",
        "type": "市町村",
        "name": "平塚市民病院",
        "url": "http://www.hiratsuka-city-hospital.jp/",
        "beds": "416",
        "address": "平塚市南原1-19-1",
        "tel": "0463-32-0015",
        "lat": "35.336384",
        "lon": "139.325428"
    },
    {
        "id": "14",
        "type": "市町村",
        "name": "藤沢市民病院",
        "url": "http://www.city.fujisawa.kanagawa.jp/hospital/",
        "beds": "536",
        "address": "藤沢市藤沢2-6-1",
        "tel": "0466-25-3111",
        "lat": "35.350636",
        "lon": "139.481572"
    },
    {
        "id": "15",
        "type": "市町村",
        "name": "三浦市立病院",
        "url": "http://www.city.miura.kanagawa.jp/byouin/",
        "beds": "136",
        "address": "三浦市岬陽町4-33",
        "tel": "046-882-2111",
        "lat": "35.144817",
        "lon": "139.628733"
    },
    {
        "id": "16",
        "type": "市町村",
        "name": "大和市立病院",
        "url": "http://www.yamatocity-mh.jp/",
        "beds": "403",
        "address": "大和市深見西8-3-6",
        "tel": "046-260-0111",
        "lat": "35.486833",
        "lon": "139.459159"
    },
    {
        "id": "17",
        "type": "市町村",
        "name": "横須賀市立うわまち病院",
        "url": "http://www.jadecom.or.jp/jadecomhp/uwamachi/html/",
        "beds": "417",
        "address": "横須賀市上町2-36",
        "tel": "046-823-2630",
        "lat": "35.271745",
        "lon": "139.668251"
    },
    {
        "id": "18",
        "type": "市町村",
        "name": "横須賀市立市民病院",
        "url": "http://www.jadecom.or.jp/jadecomhp/yokosuka-shimin/html/",
        "beds": "482",
        "address": "横須賀市長坂1-3-2",
        "tel": "046-856-3136",
        "lat": "35.222749",
        "lon": "139.627078"
    },
    {
        "id": "19",
        "type": "市町村",
        "name": "横浜市立市民病院",
        "url": "",
        "beds": "650",
        "address": "横浜市保土ヶ谷区岡沢町56",
        "tel": "045-331-1961",
        "lat": "35.472967",
        "lon": "139.599371"
    },
    {
        "id": "20",
        "type": "市町村",
        "name": "横浜市立みなと赤十字病院",
        "url": "http://www.yokohama.jrc.or.jp",
        "beds": "634",
        "address": "横浜市中区新山下3-12-1",
        "tel": "045-628-6100",
        "lat": "35.436448",
        "lon": "139.664251"
    },
    {
        "id": "21",
        "type": "地方独立行政法人",
        "name": "神奈川県立がんセンター",
        "url": "http://kcch.kanagawa-pho.jp/",
        "beds": "415",
        "address": "横浜市旭区中尾2-3-2",
        "tel": "045-520-2222",
        "lat": "35.468193",
        "lon": "139.526397"
    },
    {
        "id": "22",
        "type": "地方独立行政法人",
        "name": "神奈川県立こども医療センター",
        "url": "http://kcmc.kanagawa-pho.jp/",
        "beds": "419",
        "address": "横浜市南区六ッ川2-138-4",
        "tel": "045-711-2351",
        "lat": "35.421525",
        "lon": "139.579558"
    },
    {
        "id": "23",
        "type": "地方独立行政法人",
        "name": "横浜市立大学附属市民総合医療センター",
        "url": "http://www.yokohama-cu.ac.jp/urahp/",
        "beds": "726",
        "address": "横浜市南区浦舟町4-57",
        "tel": "045-261-5656",
        "lat": "35.434059",
        "lon": "139.624907"
    },
    {
        "id": "24",
        "type": "日赤",
        "name": "相模原赤十字病院",
        "url": "http://www.sagamihara.jrc.or.jp",
        "beds": "132",
        "address": "相模原市緑区中野256",
        "tel": "042-784-1101",
        "lat": "35.583737",
        "lon": "139.261117"
    },
    {
        "id": "25",
        "type": "日赤",
        "name": "秦野赤十字病院",
        "url": "http://hadano-jrc.jp/",
        "beds": "320",
        "address": "秦野市立野台1-1",
        "tel": "0463-81-3721",
        "lat": "35.360504",
        "lon": "139.2295"
    },
    {
        "id": "26",
        "type": "済生会",
        "name": "済生会神奈川県病院",
        "url": "http://www.kanagawa.saiseikai.or.jp",
        "beds": "199",
        "address": "横浜市神奈川区富家町6-6",
        "tel": "045-432-1111",
        "lat": "35.480798",
        "lon": "139.634223"
    },
    {
        "id": "27",
        "type": "済生会",
        "name": "済生会横浜市東部病院",
        "url": "http://www.tobu.saiseikai.or.jp/",
        "beds": "562",
        "address": "横浜市鶴見区下末吉3-6-1",
        "tel": "045-576-3000",
        "lat": "35.523851",
        "lon": "139.675222"
    },
    {
        "id": "28",
        "type": "済生会",
        "name": "済生会若草病院",
        "url": "http://www.wakakusa.saiseikai.or.jp/",
        "beds": "177",
        "address": "横浜市金沢区平潟町12-1",
        "tel": "045-781-8811",
        "lat": "35.33237",
        "lon": "139.631097"
    },
    {
        "id": "29",
        "type": "済生会",
        "name": "湘南平塚病院",
        "url": "http://www.hiratsuka.saiseikai.or.jp/",
        "beds": "176",
        "address": "平塚市宮松町18-1",
        "tel": "0463-71-6161",
        "lat": "35.337521",
        "lon": "139.353029"
    },
    {
        "id": "30",
        "type": "済生会",
        "name": "東神奈川リハビリテーション病院",
        "url": "http://higashikanagawa.saiseikai.or.jp",
        "beds": "99",
        "address": "横浜市神奈川区西神奈川1-13-10",
        "tel": "045-324-3600",
        "lat": "35.480565",
        "lon": "139.630712"
    },
    {
        "id": "31",
        "type": "済生会",
        "name": "横浜市南部病院",
        "url": "http://www.nanbu.saiseikai.or.jp/",
        "beds": "500",
        "address": "横浜市港南区港南台3-2-10",
        "tel": "045-832-1111",
        "lat": "35.375253",
        "lon": "139.579184"
    },
    {
        "id": "32",
        "type": "厚生連",
        "name": "伊勢原協同病院",
        "url": "http://www.iseharahp.com/",
        "beds": "350",
        "address": "伊勢原市田中345",
        "tel": "0463-94-2111",
        "lat": "35.40316",
        "lon": "139.316313"
    },
    {
        "id": "33",
        "type": "厚生連",
        "name": "相模原協同病院",
        "url": "http://www.sagamiharahp.com/",
        "beds": "437",
        "address": "相模原市緑区橋本2-8-18",
        "tel": "042-772-4291",
        "lat": "35.59587",
        "lon": "139.3407"
    },
    {
        "id": "34",
        "type": "健康保険組合及び連合会",
        "name": "東芝林間病院",
        "url": "http://www.rinkanhp.com",
        "beds": "199",
        "address": "相模原市南区上鶴間7-9-1",
        "tel": "042-742-3577",
        "lat": "35.520401",
        "lon": "139.441973"
    },
    {
        "id": "35",
        "type": "共済組合及び連合会",
        "name": "虎の門病院分院",
        "url": "http://www.toranomon.gr.jp/kajigaya/",
        "beds": "300",
        "address": "川崎市高津区梶ヶ谷1-3-1",
        "tel": "044-877-5111",
        "lat": "35.588983",
        "lon": "139.59976"
    },
    {
        "id": "36",
        "type": "共済組合及び連合会",
        "name": "平塚共済病院",
        "url": "http://www.kkr.hiratsuka.kanagawa.jp/",
        "beds": "441",
        "address": "平塚市追分9-11",
        "tel": "0463-32-1950",
        "lat": "35.338163",
        "lon": "139.337954"
    },
    {
        "id": "37",
        "type": "共済組合及び連合会",
        "name": "横須賀共済病院",
        "url": "http://www.ykh.gr.jp",
        "beds": "740",
        "address": "横須賀市米が浜通1-16",
        "tel": "046-822-2710",
        "lat": "35.276694",
        "lon": "139.674157"
    },
    {
        "id": "38",
        "type": "共済組合及び連合会",
        "name": "横浜栄共済病院",
        "url": "http://www.yokohamasakae.jp/",
        "beds": "380",
        "address": "横浜市栄区桂町132",
        "tel": "045-891-2171",
        "lat": "35.362279",
        "lon": "139.550533"
    },
    {
        "id": "39",
        "type": "共済組合及び連合会",
        "name": "横浜南共済病院",
        "url": "http://www.minamikyousai.jp",
        "beds": "565",
        "address": "横浜市金沢区六浦東1-21-1",
        "tel": "045-782-2101",
        "lat": "35.320654",
        "lon": "139.622457"
    },
    {
        "id": "40",
        "type": "公益法人",
        "name": "けいゆう病院",
        "url": "http://www.keiyu-hospital.com/",
        "beds": "410",
        "address": "横浜市西区みなとみらい3-7-3",
        "tel": "045-221-8181",
        "lat": "35.459377",
        "lon": "139.63329"
    },
    {
        "id": "41",
        "type": "医療法人",
        "name": "朝倉病院",
        "url": "http://www.asakura-hospital.com/",
        "beds": "90",
        "address": "横浜市港南区下永谷5-81-12",
        "tel": "045-824-0202",
        "lat": "35.411179",
        "lon": "139.560345"
    },
    {
        "id": "42",
        "type": "医療法人",
        "name": "オアシス湘南病院",
        "url": "http://www.shinnaikai-medical.or.jp/",
        "beds": "158",
        "address": "海老名市中河内1227-1",
        "tel": "046-238-6262",
        "lat": "35.419613",
        "lon": "139.391609"
    },
    {
        "id": "43",
        "type": "医療法人",
        "name": "片倉病院",
        "url": "http://www.katakura.or.jp",
        "beds": "28",
        "address": "川崎市高津区新作4-11-16",
        "tel": "044-866-2151",
        "lat": "35.586787",
        "lon": "139.619285"
    },
    {
        "id": "44",
        "type": "医療法人",
        "name": "金沢病院",
        "url": "http://www.keisuikai.or.jp",
        "beds": "162",
        "address": "横浜市金沢区泥亀2-8-3",
        "tel": "045-781-2611",
        "lat": "35.337197",
        "lon": "139.625283"
    },
    {
        "id": "45",
        "type": "医療法人",
        "name": "金沢文庫病院",
        "url": "http://www.kanabun-hp.jp/",
        "beds": "147",
        "address": "横浜市金沢区釜利谷東2-6-22",
        "tel": "045-785-3311",
        "lat": "35.344062",
        "lon": "139.613911"
    },
    {
        "id": "46",
        "type": "医療法人",
        "name": "菊名記念病院",
        "url": "http://www.kmh.or.jp/",
        "beds": "218",
        "address": "横浜市港北区菊名4-4-27",
        "tel": "045-402-7117",
        "lat": "35.509236",
        "lon": "139.63516"
    },
    {
        "id": "47",
        "type": "医療法人",
        "name": "清川病院",
        "url": "http://www.kiyokawa-hp.or.jp",
        "beds": "198",
        "address": "鎌倉市小町2-13-7",
        "tel": "0467-24-1200",
        "lat": "35.32123",
        "lon": "139.554375"
    },
    {
        "id": "48",
        "type": "医療法人",
        "name": "黒河内病院",
        "url": "http://www.kurokouchi.or.jp/",
        "beds": "51",
        "address": "相模原市南区豊町17-36",
        "tel": "042-742-0211",
        "lat": "35.528302",
        "lon": "139.427437"
    },
    {
        "id": "49",
        "type": "医療法人",
        "name": "京浜総合病院",
        "url": "http://www.keihin-ghp.or.jp",
        "beds": "184",
        "address": "川崎市中原区新城1-2-5",
        "tel": "044-777-3251",
        "lat": "35.585888",
        "lon": "139.631149"
    },
    {
        "id": "50",
        "type": "医療法人",
        "name": "慶友会第一病院",
        "url": "http://www.daiichi-hosp.jp/",
        "beds": "55",
        "address": "川崎市川崎区元木2-7-2",
        "tel": "044-344-5231",
        "lat": "35.522705",
        "lon": "139.697798"
    },
    {
        "id": "51",
        "type": "医療法人",
        "name": "元気会 横浜病院",
        "url": "http://genkikaiyokohama.jp/",
        "beds": "326",
        "address": "横浜市緑区寺山町729",
        "tel": "045-933-1011",
        "lat": "35.501796",
        "lon": "139.541951"
    },
    {
        "id": "52",
        "type": "医療法人",
        "name": "港南台病院",
        "url": "http://www.kounandai-hosp.or.jp",
        "beds": "84",
        "address": "横浜市港南区港南台2-7-41",
        "tel": "045-831-8181",
        "lat": "35.376443",
        "lon": "139.581539"
    },
    {
        "id": "53",
        "type": "医療法人",
        "name": "小林病院",
        "url": "http://www.kobayashihp.or.jp",
        "beds": "163",
        "address": "小田原市栄町1-14-18",
        "tel": "0465-22-3161",
        "lat": "35.253534",
        "lon": "139.158426"
    },
    {
        "id": "54",
        "type": "医療法人",
        "name": "さいわい鶴見病院",
        "url": "https://tsurumihp.jp/",
        "beds": "60",
        "address": "横浜市鶴見区豊岡町21-1",
        "tel": "045-581-1417",
        "lat": "35.510544",
        "lon": "139.675258"
    },
    {
        "id": "55",
        "type": "医療法人",
        "name": "相模原中央病院",
        "url": "http://sagamihara-chuo-hospital.jp/",
        "beds": "160",
        "address": "相模原市中央区富士見6-4-20",
        "tel": "042-754-2211",
        "lat": "35.568367",
        "lon": "139.373225"
    },
    {
        "id": "56",
        "type": "医療法人",
        "name": "さがみリハビリテーション病院",
        "url": "http://sagami-rh.or.jp",
        "beds": "130",
        "address": "相模原市中央区下九沢54-2",
        "tel": "042-773-3211",
        "lat": "35.574333",
        "lon": "139.34883"
    },
    {
        "id": "57",
        "type": "医療法人",
        "name": "桜ヶ丘中央病院",
        "url": "http://www.sakura-hp.or.jp",
        "beds": "171",
        "address": "大和市福田1-7-1",
        "tel": "046-269-4111",
        "lat": "35.451463",
        "lon": "139.464803"
    },
    {
        "id": "58",
        "type": "医療法人",
        "name": "湘南厚木病院",
        "url": "http://www.shonan-atsugi.jp/",
        "beds": "253",
        "address": "厚木市温水118-1",
        "tel": "046-223-3636",
        "lat": "35.432745",
        "lon": "139.353626"
    },
    {
        "id": "59",
        "type": "医療法人",
        "name": "湘南鎌倉総合病院",
        "url": "http://www.shonankamakura.or.jp/",
        "beds": "648",
        "address": "鎌倉市岡本1370-1",
        "tel": "0467-46-1717",
        "lat": "35.345342",
        "lon": "139.515134"
    },
    {
        "id": "60",
        "type": "医療法人",
        "name": "湘南記念病院",
        "url": "http://www.syonankinenhp.or.jp/",
        "beds": "161",
        "address": "鎌倉市笛田2-2-60",
        "tel": "0467-32-3456",
        "lat": "35.329489",
        "lon": "139.517246"
    },
    {
        "id": "61",
        "type": "医療法人",
        "name": "湘南慶育病院",
        "url": "http://keiiku.gr.jp",
        "beds": "230",
        "address": "藤沢市遠藤4360",
        "tel": "0466-48-0050",
        "lat": "35.390952",
        "lon": "139.431207"
    },
    {
        "id": "62",
        "type": "医療法人",
        "name": "湘南藤沢徳洲会病院",
        "url": "http://fujisawatokushukai.jp/",
        "beds": "419",
        "address": "藤沢市辻堂神台1-5-1",
        "tel": "0466-35-1177",
        "lat": "35.341088",
        "lon": "139.444935"
    },
    {
        "id": "63",
        "type": "医療法人",
        "name": "鈴木病院",
        "url": "http://www.suzuki-hp.ne.jp/",
        "beds": "125",
        "address": "鎌倉市腰越1-1-1",
        "tel": "0467-31-7651",
        "lat": "35.307425",
        "lon": "139.501614"
    },
    {
        "id": "64",
        "type": "医療法人",
        "name": "瀬谷ふたつ橋病院",
        "url": "http://misatokai.jp/",
        "beds": "89",
        "address": "横浜市瀬谷区瀬谷1-29-1",
        "tel": "045-303-1151",
        "lat": "35.46698",
        "lon": "139.493626"
    },
    {
        "id": "65",
        "type": "医療法人",
        "name": "総合川崎臨港病院",
        "url": "http://rinko.or.jp/",
        "beds": "199",
        "address": "川崎市川崎区中島3-13-1",
        "tel": "044-233-9336",
        "lat": "35.526054",
        "lon": "139.717665"
    },
    {
        "id": "66",
        "type": "医療法人",
        "name": "総合新川橋病院",
        "url": "http://www.shinkawabashi.or.jp/",
        "beds": "208",
        "address": "川崎市川崎区新川通1-15",
        "tel": "044-222-2111",
        "lat": "35.526891",
        "lon": "139.703046"
    },
    {
        "id": "67",
        "type": "医療法人",
        "name": "相和病院",
        "url": "http://www.sowa-hospital.or.jp/",
        "beds": "314",
        "address": "相模原市緑区大島1752",
        "tel": "042-761-2331",
        "lat": "35.573462",
        "lon": "139.32626"
    },
    {
        "id": "68",
        "type": "医療法人",
        "name": "高田中央病院",
        "url": "http://www.sukoyaka.gr.jp/",
        "beds": "60",
        "address": "横浜市港北区高田西2-6-5",
        "tel": "045-592-5557",
        "lat": "35.551898",
        "lon": "139.620107"
    },
    {
        "id": "69",
        "type": "医療法人",
        "name": "たちばな台病院",
        "url": "https://tachibanadai-hp.com/",
        "beds": "140",
        "address": "横浜市青葉区たちばな台2-2-1",
        "tel": "045-962-3338",
        "lat": "35.55397",
        "lon": "139.513639"
    },
    {
        "id": "70",
        "type": "医療法人",
        "name": "茅ヶ崎中央病院",
        "url": "http://www.fureai-g.or.jp/chu/",
        "beds": "100",
        "address": "茅ケ崎市茅ケ崎2-2-3",
        "tel": "0467-86-6530",
        "lat": "35.334169",
        "lon": "139.405827"
    },
    {
        "id": "71",
        "type": "医療法人",
        "name": "戸塚共立第１病院",
        "url": "http://www.tk1-hospital.com/",
        "beds": "148",
        "address": "横浜市戸塚区戸塚町116",
        "tel": "045-864-2501",
        "lat": "35.398755",
        "lon": "139.532283"
    },
    {
        "id": "72",
        "type": "医療法人",
        "name": "西横浜国際総合病院",
        "url": "http://www.nishiyokohama.or.jp/",
        "beds": "188",
        "address": "横浜市戸塚区汲沢町56",
        "tel": "045-871-8855",
        "lat": "35.384656",
        "lon": "139.514349"
    },
    {
        "id": "73",
        "type": "医療法人",
        "name": "日本鋼管病院",
        "url": "http://www.koukankai.or.jp/",
        "beds": "395",
        "address": "川崎市川崎区鋼管通1-2-1",
        "tel": "044-333-5591",
        "lat": "35.519584",
        "lon": "139.712031"
    },
    {
        "id": "74",
        "type": "医療法人",
        "name": "葉山ハートセンター",
        "url": "http://www.hayamaheart.gr.jp",
        "beds": "89",
        "address": "三浦郡葉山町下山口1898-1",
        "tel": "046-875-1717",
        "lat": "35.257486",
        "lon": "139.581965"
    },
    {
        "id": "75",
        "type": "医療法人",
        "name": "東戸塚記念病院",
        "url": "http://www.higashi-totsuka.com/",
        "beds": "292",
        "address": "横浜市戸塚区品濃町548-7",
        "tel": "045-825-2111",
        "lat": "35.431726",
        "lon": "139.55932"
    },
    {
        "id": "76",
        "type": "医療法人",
        "name": "福井記念病院",
        "url": "http://www.bmk.or.jp/fukui/",
        "beds": "448",
        "address": "三浦市初声町高円坊1040-2",
        "tel": "046-888-2145",
        "lat": "35.203216",
        "lon": "139.644867"
    },
    {
        "id": "77",
        "type": "医療法人",
        "name": "渕野辺総合病院",
        "url": "http://www.sowa.or.jp/fuchinobe/",
        "beds": "161",
        "address": "相模原市中央区渕野辺3-2-8",
        "tel": "042-754-2222",
        "lat": "35.57157",
        "lon": "139.391723"
    },
    {
        "id": "78",
        "type": "医療法人",
        "name": "ふれあい鎌倉ホスピタル",
        "url": "http://www.fureai-g.or.jp/kamakura-hp/",
        "beds": "112",
        "address": "鎌倉市御成町9-5",
        "tel": "0467-23-1111",
        "lat": "35.31778",
        "lon": "139.548924"
    },
    {
        "id": "79",
        "type": "医療法人",
        "name": "ふれあい鶴見ホスピタル",
        "url": "http://www.fureai-g.or.jp/tsu/",
        "beds": "210",
        "address": "横浜市鶴見区東寺尾4-4-22",
        "tel": "045-586-1717",
        "lat": "35.496289",
        "lon": "139.65866"
    },
    {
        "id": "80",
        "type": "医療法人",
        "name": "平成横浜病院",
        "url": "http://www.yokohamahp.jp",
        "beds": "173",
        "address": "横浜市戸塚区戸塚町550",
        "tel": "045-860-1777",
        "lat": "35.389179",
        "lon": "139.53028"
    },
    {
        "id": "81",
        "type": "医療法人",
        "name": "平和病院",
        "url": "http://www.heiwakai.com/",
        "beds": "146",
        "address": "横浜市鶴見区東寺尾中台29-1",
        "tel": "045-581-2211",
        "lat": "35.506736",
        "lon": "139.665419"
    },
    {
        "id": "82",
        "type": "医療法人",
        "name": "松島病院",
        "url": "http://www.matsushima-hp.or.jp/",
        "beds": "117",
        "address": "横浜市西区戸部本町19-11",
        "tel": "045-321-7311",
        "lat": "35.456938",
        "lon": "139.622533"
    },
    {
        "id": "83",
        "type": "医療法人",
        "name": "緑協和病院",
        "url": "http://midorikyowa.com/",
        "beds": "145",
        "address": "横浜市青葉区奈良町1802",
        "tel": "045-962-6666",
        "lat": "35.565732",
        "lon": "139.4802"
    },
    {
        "id": "84",
        "type": "医療法人",
        "name": "みどり野リハビリテーション病院",
        "url": "http://www.midorino-hp.jp/",
        "beds": "136",
        "address": "大和市中央林間2-6-17",
        "tel": "046-271-1221",
        "lat": "35.502188",
        "lon": "139.445504"
    },
    {
        "id": "85",
        "type": "医療法人",
        "name": "八木病院",
        "url": "http://www12.plala.or.jp/yagi-hp/",
        "beds": "94",
        "address": "秦野市本町1-3-1",
        "tel": "0463-81-1666",
        "lat": "35.372197",
        "lon": "139.226306"
    },
    {
        "id": "86",
        "type": "医療法人",
        "name": "大和徳洲会病院",
        "url": "http://www.yth.or.jp/",
        "beds": "199",
        "address": "大和市中央4-4-12",
        "tel": "046-264-1111",
        "lat": "35.468971",
        "lon": "139.458299"
    },
    {
        "id": "87",
        "type": "医療法人",
        "name": "山本記念病院",
        "url": "http://www.yamamoto-kinen.or.jp",
        "beds": "131",
        "address": "横浜市都筑区東山田町1552",
        "tel": "045-593-2211",
        "lat": "35.558916",
        "lon": "139.612393"
    },
    {
        "id": "88",
        "type": "医療法人",
        "name": "湯河原胃腸病院",
        "url": "http://yugawara-icho.or.jp/",
        "beds": "108",
        "address": "足柄下郡湯河原町土肥4-3-1",
        "tel": "0465-62-7181",
        "lat": "35.143462",
        "lon": "139.104332"
    },
    {
        "id": "89",
        "type": "医療法人",
        "name": "よこすか浦賀病院",
        "url": "http://www.uraga-hp.com/",
        "beds": "99",
        "address": "横須賀市西浦賀1-11-1",
        "tel": "046-841-0922",
        "lat": "35.238992",
        "lon": "139.720868"
    },
    {
        "id": "90",
        "type": "医療法人",
        "name": "横浜旭中央総合病院",
        "url": "http://www.ims-yokohama-asahi.jp/",
        "beds": "515",
        "address": "横浜市旭区若葉台4-20-1",
        "tel": "045-921-6111",
        "lat": "35.507315",
        "lon": "139.49765"
    },
    {
        "id": "91",
        "type": "医療法人",
        "name": "横浜新緑総合病院",
        "url": "http://www.shinmidori.com/",
        "beds": "236",
        "address": "横浜市緑区十日市場町1726-7",
        "tel": "045-984-2400",
        "lat": "35.524714",
        "lon": "139.509077"
    },
    {
        "id": "92",
        "type": "医療法人",
        "name": "横浜総合病院",
        "url": "http://www.yokoso.or.jp",
        "beds": "300",
        "address": "横浜市青葉区鉄町2201-5",
        "tel": "045-902-0001",
        "lat": "35.570168",
        "lon": "139.526849"
    },
    {
        "id": "93",
        "type": "医療法人",
        "name": "横浜第一病院",
        "url": "http://www.zenjinkai.or.jp/hospital/yokohama/",
        "beds": "52",
        "address": "横浜市西区高島2-5-15",
        "tel": "045-453-6711",
        "lat": "35.461275",
        "lon": "139.622741"
    },
    {
        "id": "94",
        "type": "医療法人",
        "name": "横浜鶴ヶ峰病院",
        "url": "http://www.tsurugaminehospital.com/",
        "beds": "151",
        "address": "横浜市旭区川島町1764",
        "tel": "045-371-2511",
        "lat": "35.470591",
        "lon": "139.553987"
    },
    {
        "id": "95",
        "type": "医療法人",
        "name": "横浜鶴見リハビリテーション病院",
        "url": "https://www.yt-reha.jp",
        "beds": "228",
        "address": "横浜市鶴見区下野谷町4-145-1",
        "tel": "045-503-2000",
        "lat": "35.497783",
        "lon": "139.68228"
    },
    {
        "id": "96",
        "type": "医療法人",
        "name": "横浜東邦病院",
        "url": "http://www.yokohama-toho.jp/",
        "beds": "96",
        "address": "横浜市港南区最戸1-3-16",
        "tel": "045-741-2511",
        "lat": "35.414409",
        "lon": "139.597713"
    },
    {
        "id": "97",
        "type": "医療法人",
        "name": "横浜なみきリハビリテーション病院",
        "url": "http://www.ynrh.jp/",
        "beds": "224",
        "address": "横浜市金沢区並木2-8-1",
        "tel": "045-788-0031",
        "lat": "35.363004",
        "lon": "139.637746"
    },
    {
        "id": "98",
        "type": "特定医療法人",
        "name": "大口東総合病院",
        "url": "http://www.jikei-o.or.jp/oguchi-higashi/index.html",
        "beds": "179",
        "address": "横浜市神奈川区入江2-19-1",
        "tel": "045-401-2411",
        "lat": "35.492243",
        "lon": "139.647371"
    },
    {
        "id": "99",
        "type": "特定医療法人",
        "name": "太田総合病院",
        "url": "http://www.ota-g-hospital.com/",
        "beds": "261",
        "address": "川崎市川崎区日進町1-50",
        "tel": "044-244-0131",
        "lat": "35.528204",
        "lon": "139.695886"
    },
    {
        "id": "100",
        "type": "特定医療法人",
        "name": "鹿島田病院",
        "url": "http://www.kashimada-h.com",
        "beds": "98",
        "address": "川崎市幸区鹿島田1-21-20",
        "tel": "044-511-0551",
        "lat": "35.552649",
        "lon": "139.675531"
    },
    {
        "id": "101",
        "type": "特定医療法人",
        "name": "亀田病院",
        "url": "http://kameda-hp.jp/",
        "beds": "60",
        "address": "横浜市西区御所山町77",
        "tel": "045-231-1881",
        "lat": "35.455434",
        "lon": "139.623616"
    },
    {
        "id": "102",
        "type": "特定医療法人",
        "name": "佐々木病院",
        "url": "http://www.yha-net.jp/sasaki/",
        "beds": "88",
        "address": "横浜市鶴見区下末吉1-13-8",
        "tel": "045-581-3123",
        "lat": "35.518851",
        "lon": "139.670758"
    },
    {
        "id": "103",
        "type": "特定医療法人",
        "name": "湘南中央病院",
        "url": "http://www.swg.or.jp/hospital/",
        "beds": "199",
        "address": "藤沢市羽鳥1-3-43",
        "tel": "0466-36-8151",
        "lat": "35.342773",
        "lon": "139.449697"
    },
    {
        "id": "104",
        "type": "特定医療法人",
        "name": "総合高津中央病院",
        "url": "http://www.takatsuhosp.or.jp/",
        "beds": "260",
        "address": "川崎市高津区溝口1-16-7",
        "tel": "044-822-6121",
        "lat": "35.600963",
        "lon": "139.613306"
    },
    {
        "id": "105",
        "type": "特定医療法人",
        "name": "藤沢御所見病院",
        "url": "http://www.goshomi.jp",
        "beds": "154",
        "address": "藤沢市獺郷580",
        "tel": "0466-48-6501",
        "lat": "35.394151",
        "lon": "139.40831"
    },
    {
        "id": "106",
        "type": "特定医療法人",
        "name": "南大和病院",
        "url": "http://www.minamiyamato-hosp.or.jp",
        "beds": "140",
        "address": "大和市下和田1331-2",
        "tel": "046-269-2411",
        "lat": "35.433107",
        "lon": "139.469482"
    },
    {
        "id": "107",
        "type": "特定医療法人",
        "name": "山近記念総合病院",
        "url": "https://www.yamachika-hp.jp/",
        "beds": "152",
        "address": "小田原市小八幡3-19-14",
        "tel": "0465-47-7151",
        "lat": "35.276475",
        "lon": "139.203619"
    },
    {
        "id": "108",
        "type": "社会医療法人",
        "name": "海老名総合病院",
        "url": "http://ebina.jinai.jp/",
        "beds": "479",
        "address": "海老名市河原口1320",
        "tel": "046-233-1311",
        "lat": "35.447394",
        "lon": "139.385587"
    },
    {
        "id": "109",
        "type": "社会医療法人",
        "name": "大船中央病院",
        "url": "http://www.ofunachuohp.net",
        "beds": "285",
        "address": "鎌倉市大船6-2-24",
        "tel": "0467-45-2111",
        "lat": "35.35172",
        "lon": "139.537901"
    },
    {
        "id": "110",
        "type": "社会医療法人",
        "name": "川崎幸病院",
        "url": "http://saiwaihp.jp/",
        "beds": "326",
        "address": "川崎市幸区大宮町31-27",
        "tel": "044-544-4611",
        "lat": "35.528715",
        "lon": "139.692249"
    },
    {
        "id": "111",
        "type": "社会医療法人",
        "name": "座間総合病院",
        "url": "https://zama.jinai.jp/",
        "beds": "352",
        "address": "座間市相武台1-50-1",
        "tel": "046-251-1311",
        "lat": "35.494294",
        "lon": "139.400738"
    },
    {
        "id": "112",
        "type": "社会医療法人",
        "name": "東名厚木病院",
        "url": "https://www.tomei.or.jp/hospital/",
        "beds": "282",
        "address": "厚木市船子232",
        "tel": "046-229-1771",
        "lat": "35.425764",
        "lon": "139.354126"
    },
    {
        "id": "113",
        "type": "私立学校法人",
        "name": "北里大学病院",
        "url": "http://www.kitasato-u.ac.jp/khp/",
        "beds": "1033",
        "address": "相模原市南区北里1-15-1",
        "tel": "042-778-8111",
        "lat": "35.537988",
        "lon": "139.393031"
    },
    {
        "id": "114",
        "type": "私立学校法人",
        "name": "聖マリアンナ医科大学病院",
        "url": "http://www.marianna-u.ac.jp/hospital/",
        "beds": "1208",
        "address": "川崎市宮前区菅生2-16-1",
        "tel": "044-977-8111",
        "lat": "35.600581",
        "lon": "139.548716"
    },
    {
        "id": "115",
        "type": "私立学校法人",
        "name": "聖マリアンナ医科大学横浜市西部病院",
        "url": "http://marianna-yokohama.jp/",
        "beds": "518",
        "address": "横浜市旭区矢指町1197-1",
        "tel": "045-366-1111",
        "lat": "35.476919",
        "lon": "139.502599"
    },
    {
        "id": "116",
        "type": "私立学校法人",
        "name": "帝京大学医学部附属溝口病院",
        "url": "http://teikyo-mizonokuchi.jp/",
        "beds": "400",
        "address": "川崎市高津区二子5-1-1",
        "tel": "044-844-3333",
        "lat": "35.602327",
        "lon": "139.616139"
    },
    {
        "id": "117",
        "type": "私立学校法人",
        "name": "東海大学医学部付属病院",
        "url": "http://www.fuzoku-hosp.tokai.ac.jp/",
        "beds": "804",
        "address": "伊勢原市下糟屋143",
        "tel": "0463-93-1121",
        "lat": "35.407144",
        "lon": "139.313644"
    },
    {
        "id": "118",
        "type": "社会福祉法人",
        "name": "国際親善総合病院",
        "url": "http://shinzen.jp/",
        "beds": "287",
        "address": "横浜市泉区西が岡1-28-1",
        "tel": "045-813-0221",
        "lat": "35.425502",
        "lon": "139.510104"
    },
    {
        "id": "119",
        "type": "社会福祉法人",
        "name": "聖隷横浜病院",
        "url": "http://www.seirei.or.jp/yokohama/",
        "beds": "300",
        "address": "横浜市保土ヶ谷区岩井町215",
        "tel": "045-715-3111",
        "lat": "35.442303",
        "lon": "139.605181"
    },
    {
        "id": "120",
        "type": "社会福祉法人",
        "name": "総合病院衣笠病院",
        "url": "http://www.kinugasa.or.jp/byouintop.html",
        "beds": "251",
        "address": "横須賀市小矢部2-23-1",
        "tel": "046-852-1182",
        "lat": "35.255374",
        "lon": "139.661699"
    },
    {
        "id": "121",
        "type": "社会福祉法人",
        "name": "横浜医療福祉センター港南",
        "url": "http://10ai-konan.jp/",
        "beds": "170",
        "address": "横浜市港南区港南台4-6-20",
        "tel": "045-830-5757",
        "lat": "35.372474",
        "lon": "139.574065"
    },
    {
        "id": "122",
        "type": "医療生協",
        "name": "川崎協同病院",
        "url": "http://www.kawasaki-kyodo.jp/",
        "beds": "267",
        "address": "川崎市川崎区桜本2-1-5",
        "tel": "044-299-4781",
        "lat": "35.522097",
        "lon": "139.721849"
    },
    {
        "id": "123",
        "type": "その他法人",
        "name": "鎌倉病院",
        "url": "http://kamakurahospital.or.jp/",
        "beds": "85",
        "address": "鎌倉市長谷3-1-8",
        "tel": "0467-22-5500",
        "lat": "35.3154",
        "lon": "139.534849"
    },
    {
        "id": "124",
        "type": "その他法人",
        "name": "長津田厚生総合病院",
        "url": "http://www.nagatsuta-ks-hp.or.jp/",
        "beds": "190",
        "address": "横浜市緑区長津田4-23-1",
        "tel": "045-981-1201",
        "lat": "35.536037",
        "lon": "139.493363"
    },
    {
        "id": "125",
        "type": "その他法人",
        "name": "横浜掖済会病院",
        "url": "http://www.yokohama-ekisaikai.com/",
        "beds": "151",
        "address": "横浜市中区山田町1-2",
        "tel": "045-261-8191",
        "lat": "35.438039",
        "lon": "139.634492"
    },
    {
        "id": "126",
        "type": "個人",
        "name": "湘南第一病院",
        "url": "http://shonan-daiichi.jp/",
        "beds": "94",
        "address": "藤沢市湘南台1-19-7",
        "tel": "0466-44-7111",
        "lat": "35.395269",
        "lon": "139.468923"
    }
]