[
    {
        "id": "1",
        "type": "独立行政法人国立病院機構",
        "name": "さいがた医療センター",
        "url": "https://saigata.hosp.go.jp/",
        "beds": "410",
        "address": "上越市大潟区犀潟468-1",
        "tel": "025-534-3131",
        "lat": "37.210428",
        "lon": "138.309"
    },
    {
        "id": "2",
        "type": "独立行政法人国立病院機構",
        "name": "新潟病院",
        "url": "http://www.niigata-nh.go.jp/html/index.html",
        "beds": "350",
        "address": "柏崎市赤坂町3-52",
        "tel": "0257-22-2126",
        "lat": "37.358333",
        "lon": "138.537123"
    },
    {
        "id": "3",
        "type": "独立行政法人国立病院機構",
        "name": "西新潟中央病院",
        "url": "https://nishiniigata.hosp.go.jp/",
        "beds": "400",
        "address": "新潟市西区真砂1-14-1",
        "tel": "025-265-3171",
        "lat": "37.88997",
        "lon": "138.986373"
    },
    {
        "id": "4",
        "type": "都道府県",
        "name": "魚沼基幹病院",
        "url": "www.uonuma-kikan-hospital.jp/",
        "beds": "454",
        "address": "南魚沼市浦佐4132番地",
        "tel": "025-777-3200",
        "lat": "37.171225",
        "lon": "138.936029"
    },
    {
        "id": "5",
        "type": "都道府県",
        "name": "新潟県立柿崎病院",
        "url": "http://kakizaki-hp.niigata.jp/",
        "beds": "55",
        "address": "上越市柿崎区柿崎6412-1",
        "tel": "025-536-3131",
        "lat": "37.277622",
        "lon": "138.392347"
    },
    {
        "id": "6",
        "type": "都道府県",
        "name": "新潟県立加茂病院",
        "url": "http://www.kamo-hospital.kamo.niigata.jp/",
        "beds": "180",
        "address": "加茂市青海町1-9-1",
        "tel": "0256-52-0701",
        "lat": "37.664802",
        "lon": "139.055532"
    },
    {
        "id": "7",
        "type": "都道府県",
        "name": "新潟県立がんセンター新潟病院",
        "url": "http://www.niigata-cc.jp",
        "beds": "450",
        "address": "新潟市中央区川岸町2-15-3",
        "tel": "025-266-5111",
        "lat": "37.910535",
        "lon": "139.029248"
    },
    {
        "id": "8",
        "type": "都道府県",
        "name": "新潟県立坂町病院",
        "url": "http://www.iwafune.ne.jp/~sakamachi-hosp/",
        "beds": "148",
        "address": "村上市下鍜冶屋589",
        "tel": "0254-62-3111",
        "lat": "38.11332",
        "lon": "139.448487"
    },
    {
        "id": "9",
        "type": "都道府県",
        "name": "新潟県立新発田病院",
        "url": "http://www.sbthp.jp/",
        "beds": "478",
        "address": "新発田市本町1-2-8",
        "tel": "0254-22-3121",
        "lat": "37.946565",
        "lon": "139.333975"
    },
    {
        "id": "10",
        "type": "都道府県",
        "name": "新潟県立精神医療センター",
        "url": "http://www.psyche-niigata.jp/",
        "beds": "400",
        "address": "長岡市寿2-4-1",
        "tel": "0258-24-3930",
        "lat": "37.478109",
        "lon": "138.852954"
    },
    {
        "id": "11",
        "type": "都道府県",
        "name": "新潟県立中央病院",
        "url": "http://www.cent-hosp.pref.niigata.jp/",
        "beds": "530",
        "address": "上越市新南町205",
        "tel": "025-522-7711",
        "lat": "37.10669",
        "lon": "138.270549"
    },
    {
        "id": "12",
        "type": "都道府県",
        "name": "新潟県立津川病院",
        "url": "http://tsugawa-hospital.sakura.ne.jp/",
        "beds": "67",
        "address": "東蒲原郡阿賀町津川200",
        "tel": "0254-92-3311",
        "lat": "37.678908",
        "lon": "139.463182"
    },
    {
        "id": "13",
        "type": "都道府県",
        "name": "新潟県立燕労災病院",
        "url": "http://www.tsrh.jp",
        "beds": "300",
        "address": "燕市佐渡633",
        "tel": "0256-64-5111",
        "lat": "37.66629",
        "lon": "138.952169"
    },
    {
        "id": "14",
        "type": "都道府県",
        "name": "新潟県立十日町病院",
        "url": "http://www.tokamachi-hosp-niigata.jp/",
        "beds": "275",
        "address": "十日町市高田町三丁目南32-9",
        "tel": "025-757-5566",
        "lat": "37.131209",
        "lon": "138.752463"
    },
    {
        "id": "15",
        "type": "都道府県",
        "name": "新潟県立松代病院",
        "url": "http://www.matsudai-hp.server-shared.com",
        "beds": "55",
        "address": "十日町市松代3592-2",
        "tel": "025-597-2100",
        "lat": "37.135043",
        "lon": "138.615055"
    },
    {
        "id": "16",
        "type": "都道府県",
        "name": "新潟県立妙高病院",
        "url": "http://www.myoukou-hsp.gr.jp/",
        "beds": "60",
        "address": "妙高市田口147-1",
        "tel": "0255-86-2003",
        "lat": "36.869257",
        "lon": "138.204717"
    },
    {
        "id": "17",
        "type": "都道府県",
        "name": "新潟県立吉田病院",
        "url": "http://www.ash.ne.jp/~yosidahp/",
        "beds": "199",
        "address": "燕市吉田大保町32-14",
        "tel": "0256-92-5111",
        "lat": "37.687278",
        "lon": "138.884977"
    },
    {
        "id": "18",
        "type": "都道府県",
        "name": "新潟県立リウマチセンター",
        "url": "http://www.ra-center.com",
        "beds": "100",
        "address": "新発田市本町1-2-8",
        "tel": "0254-23-7751",
        "lat": "37.946565",
        "lon": "139.333975"
    },
    {
        "id": "19",
        "type": "市町村",
        "name": "あがの市民病院",
        "url": "http://www.niigata-kouseiren.jp/hospital/aganoshimin/",
        "beds": "250",
        "address": "阿賀野市岡山町13-23",
        "tel": "0250-62-2780",
        "lat": "37.832796",
        "lon": "139.221168"
    },
    {
        "id": "20",
        "type": "市町村",
        "name": "新潟市民病院",
        "url": "http://www.hosp.niigata.niigata.jp/",
        "beds": "676",
        "address": "新潟市中央区鐘木463-7",
        "tel": "025-281-5151",
        "lat": "37.875673",
        "lon": "139.041361"
    },
    {
        "id": "21",
        "type": "市町村",
        "name": "見附市立病院",
        "url": "http://www2.city.mitsuke.niigata.jp/hospital/",
        "beds": "94",
        "address": "見附市学校町2-13-50",
        "tel": "0258-62-2800",
        "lat": "37.534193",
        "lon": "138.920321"
    },
    {
        "id": "22",
        "type": "市町村",
        "name": "ゆきぐに大和病院",
        "url": "http://www.yukigunihp.jp/",
        "beds": "45",
        "address": "南魚沼市浦佐4115",
        "tel": "025-777-2111",
        "lat": "37.17138",
        "lon": "138.93752"
    },
    {
        "id": "23",
        "type": "日赤",
        "name": "長岡赤十字病院",
        "url": "http://www.nagaoka.jrc.or.jp/",
        "beds": "605",
        "address": "長岡市千秋2-297-1",
        "tel": "0258-28-3600",
        "lat": "37.460122",
        "lon": "138.829036"
    },
    {
        "id": "24",
        "type": "済生会",
        "name": "済生会新潟病院",
        "url": "http://www.ngt.saiseikai.or.jp/",
        "beds": "425",
        "address": "新潟市西区寺地280-7",
        "tel": "025-233-6161",
        "lat": "37.878975",
        "lon": "139.004843"
    },
    {
        "id": "25",
        "type": "済生会",
        "name": "新潟県済生会三条病院",
        "url": "http://www.saisanhp.com",
        "beds": "199",
        "address": "三条市大野畑6-18",
        "tel": "0256-33-1551",
        "lat": "37.626586",
        "lon": "138.939827"
    },
    {
        "id": "26",
        "type": "厚生連",
        "name": "糸魚川総合病院",
        "url": "http://www.itoigawa-hp.jp",
        "beds": "261",
        "address": "糸魚川市竹ケ花457-1",
        "tel": "025-552-0280",
        "lat": "37.048998",
        "lon": "137.888516"
    },
    {
        "id": "27",
        "type": "厚生連",
        "name": "小千谷総合病院",
        "url": "https://www.ojiya-ghp.jp",
        "beds": "300",
        "address": "小千谷市大字平沢新田111番地",
        "tel": "0258-81-1600",
        "lat": "37.321551",
        "lon": "138.793"
    },
    {
        "id": "28",
        "type": "厚生連",
        "name": "柏崎総合医療センター",
        "url": "http://www.kashiwazaki-ghmc.jp/",
        "beds": "400",
        "address": "柏崎市北半田2-11-3",
        "tel": "0257-23-2165",
        "lat": "37.362346",
        "lon": "138.577607"
    },
    {
        "id": "29",
        "type": "厚生連",
        "name": "佐渡総合病院",
        "url": "http://sadosogo-hp.jp/",
        "beds": "354",
        "address": "佐渡市千種161",
        "tel": "0259-63-3121",
        "lat": "38.019617",
        "lon": "138.366706"
    },
    {
        "id": "30",
        "type": "厚生連",
        "name": "三条総合病院",
        "url": "http://www.kouseiren-sanjo.jp",
        "beds": "199",
        "address": "三条市塚野目5-1-62",
        "tel": "0256-32-1131",
        "lat": "37.642291",
        "lon": "138.973059"
    },
    {
        "id": "31",
        "type": "厚生連",
        "name": "上越総合病院",
        "url": "http://joetsu-hp.jp/",
        "beds": "318",
        "address": "上越市大道福田616",
        "tel": "025-524-3000",
        "lat": "37.149033",
        "lon": "138.250287"
    },
    {
        "id": "32",
        "type": "厚生連",
        "name": "豊栄病院",
        "url": "http://www.toyosaka-hospital.jp/",
        "beds": "199",
        "address": "新潟市北区石動1-11-1",
        "tel": "025-386-2311",
        "lat": "37.922553",
        "lon": "139.213794"
    },
    {
        "id": "33",
        "type": "厚生連",
        "name": "長岡中央綜合病院",
        "url": "http://www.nagachu.jp",
        "beds": "500",
        "address": "長岡市川崎町2041",
        "tel": "0258-35-3700",
        "lat": "37.451292",
        "lon": "138.878768"
    },
    {
        "id": "34",
        "type": "厚生連",
        "name": "新潟医療センター",
        "url": "http://www.niigata-medical.jp",
        "beds": "404",
        "address": "新潟市西区小針3-27-11",
        "tel": "025-232-0111",
        "lat": "37.887545",
        "lon": "138.998615"
    },
    {
        "id": "35",
        "type": "厚生連",
        "name": "村上総合病院",
        "url": "http://www.mgh.jp/",
        "beds": "263",
        "address": "村上市田端町2-17",
        "tel": "0254-53-2141",
        "lat": "38.220606",
        "lon": "139.466666"
    },
    {
        "id": "36",
        "type": "医療法人",
        "name": "柏崎中央病院",
        "url": "http://www.k-central.or.jp",
        "beds": "54",
        "address": "柏崎市駅前2-1-25",
        "tel": "0257-23-6254",
        "lat": "37.365972",
        "lon": "138.553162"
    },
    {
        "id": "37",
        "type": "医療法人",
        "name": "亀田第一病院",
        "url": "http://ijn.or.jp/",
        "beds": "197",
        "address": "新潟市江南区西町2-5-22",
        "tel": "025-382-3111",
        "lat": "37.87487",
        "lon": "139.104316"
    },
    {
        "id": "38",
        "type": "医療法人",
        "name": "黒川病院",
        "url": "http://www.hakujitsukai.com/",
        "beds": "269",
        "address": "胎内市下館字大開1522",
        "tel": "0254-47-2422",
        "lat": "38.081607",
        "lon": "139.445657"
    },
    {
        "id": "39",
        "type": "医療法人",
        "name": "齋藤記念病院",
        "url": "https://www.saito-memorial.com",
        "beds": "98",
        "address": "南魚沼市欠之上478-2",
        "tel": "025-773-5111",
        "lat": "37.088135",
        "lon": "138.867762"
    },
    {
        "id": "40",
        "type": "医療法人",
        "name": "肴町病院",
        "url": "http://sanpokukai.jp/",
        "beds": "105",
        "address": "村上市田端町16-7",
        "tel": "0254-53-2781",
        "lat": "38.22322",
        "lon": "139.464276"
    },
    {
        "id": "41",
        "type": "医療法人",
        "name": "白根大通病院",
        "url": "http://www.jojinkai.com/shirone/",
        "beds": "299",
        "address": "新潟市南区大通黄金4-14-2",
        "tel": "025-362-0260",
        "lat": "37.823124",
        "lon": "139.019731"
    },
    {
        "id": "42",
        "type": "医療法人",
        "name": "総合リハビリテーションセンター みどり病院",
        "url": "https://www.midori-gr.jp/",
        "beds": "261",
        "address": "新潟市神道寺2-5-1",
        "tel": "025-244-0080",
        "lat": "37.896894",
        "lon": "139.055095"
    },
    {
        "id": "43",
        "type": "医療法人",
        "name": "田宮病院",
        "url": "http://www.sutokukai.or.jp/tamiya-hp/",
        "beds": "479",
        "address": "長岡市深沢町2300",
        "tel": "0258-46-3200",
        "lat": "37.42499",
        "lon": "138.770588"
    },
    {
        "id": "44",
        "type": "医療法人",
        "name": "知命堂病院",
        "url": "http://chimeido.jp",
        "beds": "145",
        "address": "上越市西城町3-6-31",
        "tel": "025-523-2161",
        "lat": "37.115169",
        "lon": "138.247569"
    },
    {
        "id": "45",
        "type": "医療法人",
        "name": "椿田病院",
        "url": "http://www.tsubakida.com",
        "beds": "44",
        "address": "新潟市江南区大渕176",
        "tel": "025-276-2382",
        "lat": "37.891479",
        "lon": "139.144276"
    },
    {
        "id": "46",
        "type": "医療法人",
        "name": "富永草野病院",
        "url": "http://www.shihatsudo.or.jp",
        "beds": "196",
        "address": "三条市興野2-2-25",
        "tel": "0256-36-8777",
        "lat": "37.632246",
        "lon": "138.970918"
    },
    {
        "id": "47",
        "type": "医療法人",
        "name": "とやの中央病院",
        "url": "jinseikai.jp/toyano/",
        "beds": "160",
        "address": "新潟市中央区鳥屋野450-3",
        "tel": "025-284-5161",
        "lat": "37.886093",
        "lon": "139.034507"
    },
    {
        "id": "48",
        "type": "医療法人",
        "name": "中条中央病院",
        "url": "http://www.kyouseikai-hosp.com/",
        "beds": "90",
        "address": "胎内市西本町12-1",
        "tel": "0254-44-8800",
        "lat": "38.051926",
        "lon": "139.395366"
    },
    {
        "id": "49",
        "type": "医療法人",
        "name": "新潟脳外科病院",
        "url": "http://www.niigata-nogeka.or.jp",
        "beds": "178",
        "address": "新潟市西区山田3057",
        "tel": "025-231-5111",
        "lat": "37.883984",
        "lon": "139.011307"
    },
    {
        "id": "50",
        "type": "医療法人",
        "name": "新潟南病院",
        "url": "http://www.niigataminami-hp.com",
        "beds": "177",
        "address": "新潟市中央区鳥屋野2007-6",
        "tel": "025-284-2511",
        "lat": "37.886562",
        "lon": "139.022031"
    },
    {
        "id": "51",
        "type": "医療法人",
        "name": "新潟リハビリテーション病院",
        "url": "http://www.niigata-reha.jp",
        "beds": "168",
        "address": "新潟市北区木崎761",
        "tel": "025-388-2111",
        "lat": "37.931159",
        "lon": "139.173727"
    },
    {
        "id": "52",
        "type": "医療法人",
        "name": "新津医療センター病院",
        "url": "http://www.niitsu-mch.jp",
        "beds": "174",
        "address": "新潟市秋葉区古田610",
        "tel": "0250-24-5311",
        "lat": "37.790677",
        "lon": "139.101834"
    },
    {
        "id": "53",
        "type": "医療法人",
        "name": "西蒲中央病院",
        "url": "http://www.misatokai.or.jp",
        "beds": "166",
        "address": "新潟市西蒲区旗屋731",
        "tel": "0256-88-5521",
        "lat": "37.791003",
        "lon": "138.924409"
    },
    {
        "id": "54",
        "type": "医療法人",
        "name": "猫山宮尾病院",
        "url": "http://www.nekoyama.jp",
        "beds": "66",
        "address": "新潟市中央区湖南14-7",
        "tel": "025-282-2323",
        "lat": "37.876265",
        "lon": "139.039455"
    },
    {
        "id": "55",
        "type": "医療法人",
        "name": "東新潟病院",
        "url": "http://www.higashi-niigata-hp.or.jp/",
        "beds": "288",
        "address": "新潟市中央区姥ケ山274-1",
        "tel": "025-286-8811",
        "lat": "37.884776",
        "lon": "139.079826"
    },
    {
        "id": "56",
        "type": "医療法人",
        "name": "北越病院",
        "url": "http://www.mbc.or.jp/hokuetu",
        "beds": "55",
        "address": "新発田市緑町2-20-19",
        "tel": "0254-26-1010",
        "lat": "37.961992",
        "lon": "139.331476"
    },
    {
        "id": "57",
        "type": "医療法人",
        "name": "村上記念病院",
        "url": "http://www.shinkohkai.jp/murakami/",
        "beds": "120",
        "address": "村上市松山204-1",
        "tel": "0254-52-1229",
        "lat": "38.217709",
        "lon": "139.456942"
    },
    {
        "id": "58",
        "type": "医療法人",
        "name": "村上はまなす病院",
        "url": "http://www.sekizenkai.com/",
        "beds": "222",
        "address": "村上市瀬波中町12-18",
        "tel": "0254-53-2890",
        "lat": "38.227954",
        "lon": "139.452144"
    },
    {
        "id": "59",
        "type": "医療法人",
        "name": "よしだ病院",
        "url": "http://www.ichieikai.jp",
        "beds": "60",
        "address": "糸魚川市横町5-9-12",
        "tel": "025-553-0711",
        "lat": "37.043078",
        "lon": "137.847649"
    },
    {
        "id": "60",
        "type": "特定医療法人",
        "name": "五泉中央病院",
        "url": "http://www.sinjinkai.or.jp/nanbu/",
        "beds": "199",
        "address": "五泉市太田489-1",
        "tel": "0250-47-8150",
        "lat": "37.744302",
        "lon": "139.186456"
    },
    {
        "id": "61",
        "type": "特定医療法人",
        "name": "立川綜合病院",
        "url": "http://www.tatikawa.or.jp/tatikawa/",
        "beds": "481",
        "address": "長岡市旭岡1-24",
        "tel": "0258-33-3111",
        "lat": "37.422763",
        "lon": "138.858298"
    },
    {
        "id": "62",
        "type": "特定医療法人",
        "name": "聖園病院",
        "url": "http://www.misono-hp.or.jp",
        "beds": "192",
        "address": "新潟市西区青山7-9-10",
        "tel": "025-267-0171",
        "lat": "37.898249",
        "lon": "138.99213"
    },
    {
        "id": "63",
        "type": "社会医療法人",
        "name": "下越病院",
        "url": "http://niigata-min.or.jp/kaetsu/",
        "beds": "261",
        "address": "新潟市秋葉区東金沢1459-1",
        "tel": "0250-22-4711",
        "lat": "37.8037",
        "lon": "139.145665"
    },
    {
        "id": "64",
        "type": "社会医療法人",
        "name": "桑名病院",
        "url": "http://www.ngt-kuwana.or.jp",
        "beds": "230",
        "address": "新潟市東区河渡甲140",
        "tel": "025-273-2251",
        "lat": "37.948917",
        "lon": "139.100388"
    },
    {
        "id": "65",
        "type": "社会医療法人",
        "name": "三之町病院",
        "url": "http://www.sannocho.or.jp",
        "beds": "210",
        "address": "三条市本町5-2-30",
        "tel": "0256-33-0581",
        "lat": "37.630174",
        "lon": "138.95106"
    },
    {
        "id": "66",
        "type": "社会医療法人",
        "name": "新潟中央病院",
        "url": "http://www.nice-hp.or.jp/",
        "beds": "262",
        "address": "新潟市中央区新光町1-18",
        "tel": "025-285-8811",
        "lat": "37.904562",
        "lon": "139.025845"
    },
    {
        "id": "67",
        "type": "社会医療法人",
        "name": "新潟万代病院",
        "url": "http://www.n-bandaihp.com/",
        "beds": "52",
        "address": "新潟市中央区八千代2-2-8",
        "tel": "025-244-4700",
        "lat": "37.914878",
        "lon": "139.052622"
    },
    {
        "id": "68",
        "type": "社会医療法人",
        "name": "新潟臨港病院",
        "url": "http://www.rinko-hp.com",
        "beds": "199",
        "address": "新潟市東区桃山町1-114-3",
        "tel": "025-274-5331",
        "lat": "37.945697",
        "lon": "139.07632"
    },
    {
        "id": "69",
        "type": "私立学校法人",
        "name": "日本歯科大学医科病院",
        "url": "http://www.ngt.ndu.ac.jp/hospital/medical/",
        "beds": "50",
        "address": "新潟市中央区浜浦町1-8",
        "tel": "025-267-1500",
        "lat": "37.911526",
        "lon": "139.010461"
    },
    {
        "id": "70",
        "type": "私立学校法人",
        "name": "日本歯科大学新潟病院",
        "url": "https://www.ngt.ndu.ac.jp/hospital/dental/",
        "beds": "42",
        "address": "新潟市中央区浜浦町1-8",
        "tel": "025-267-1500",
        "lat": "37.911526",
        "lon": "139.010461"
    },
    {
        "id": "71",
        "type": "社会福祉法人",
        "name": "信楽園病院",
        "url": "http://www.shinrakuen.com/",
        "beds": "325",
        "address": "新潟市西区新通南3-3-11",
        "tel": "025-260-8200",
        "lat": "37.857716",
        "lon": "138.956505"
    },
    {
        "id": "72",
        "type": "社会福祉法人",
        "name": "長岡療育園",
        "url": "http://www.nagaryo.or.jp/",
        "beds": "145",
        "address": "長岡市深沢町字高寺2278-8",
        "tel": "0258-46-6611",
        "lat": "37.424908",
        "lon": "138.772736"
    },
    {
        "id": "73",
        "type": "医療生協",
        "name": "木戸病院",
        "url": "http://kido.iryo-coop.com/",
        "beds": "312",
        "address": "新潟市東区竹尾4-13-3",
        "tel": "025-273-2151",
        "lat": "37.915158",
        "lon": "139.099001"
    },
    {
        "id": "74",
        "type": "医療生協",
        "name": "新潟白根総合病院",
        "url": "http://www.healthcoop-shirone.or.jp/",
        "beds": "179",
        "address": "新潟市南区上下諏訪木770-1",
        "tel": "025-372-2191",
        "lat": "37.760051",
        "lon": "139.020673"
    },
    {
        "id": "75",
        "type": "その他法人",
        "name": "岩室リハビリテーション病院",
        "url": "http://iwamurohp.jp/",
        "beds": "190",
        "address": "新潟市西蒲区岩室温泉772-1",
        "tel": "0256-82-4100",
        "lat": "37.732503",
        "lon": "138.839071"
    }
]