[
    {
        "id": "1",
        "type": "独立行政法人地域医療機能推進機構",
        "name": "高岡ふしき病院",
        "url": "http://takaoka.jcho.go.jp/",
        "beds": "199",
        "address": "高岡市伏木古府元町8-5",
        "tel": "0766-44-1181",
        "lat": "36.790261",
        "lon": "137.045844"
    },
    {
        "id": "2",
        "type": "都道府県",
        "name": "富山県立中央病院",
        "url": "http://www.tch.pref.toyama.jp/",
        "beds": "733",
        "address": "富山市西長江2-2-78",
        "tel": "076-424-1531",
        "lat": "36.692586",
        "lon": "137.23794"
    },
    {
        "id": "3",
        "type": "市町村",
        "name": "射水市民病院",
        "url": "http://hosp.city.imizu.toyama.jp/",
        "beds": "199",
        "address": "射水市朴木20",
        "tel": "0766-82-8100",
        "lat": "36.759642",
        "lon": "137.081948"
    },
    {
        "id": "4",
        "type": "市町村",
        "name": "金沢医科大学氷見市民病院",
        "url": "http://www.kanazawa-med.ac.jp/~himi/",
        "beds": "250",
        "address": "氷見市鞍川1130",
        "tel": "0766-74-1900",
        "lat": "36.85523",
        "lon": "136.968046"
    },
    {
        "id": "5",
        "type": "市町村",
        "name": "かみいち総合病院",
        "url": "http://www.kamiichi-hosp.jp/",
        "beds": "199",
        "address": "中新川郡上市町法音寺51",
        "tel": "076-472-1212",
        "lat": "36.702248",
        "lon": "137.36105"
    },
    {
        "id": "6",
        "type": "市町村",
        "name": "黒部市民病院",
        "url": "https://med-kurobe.jp/",
        "beds": "414",
        "address": "黒部市三日市1108番地1",
        "tel": "0765-54-2211",
        "lat": "36.871323",
        "lon": "137.440951"
    },
    {
        "id": "7",
        "type": "市町村",
        "name": "市立砺波総合病院",
        "url": "http://www.city.tonami.toyama.jp/tgh/",
        "beds": "514",
        "address": "砺波市新富町1-61",
        "tel": "0763-32-3320",
        "lat": "36.640179",
        "lon": "136.950806"
    },
    {
        "id": "8",
        "type": "市町村",
        "name": "高岡市民病院",
        "url": "http://www.med-takaoka.jp/",
        "beds": "401",
        "address": "高岡市宝町4-1",
        "tel": "0766-23-0204",
        "lat": "36.756108",
        "lon": "137.028769"
    },
    {
        "id": "9",
        "type": "市町村",
        "name": "富山市民病院",
        "url": "http://www.tch.toyama.toyama.jp/",
        "beds": "595",
        "address": "富山市今泉北部町2-1",
        "tel": "076-422-1112",
        "lat": "36.672714",
        "lon": "137.212754"
    },
    {
        "id": "10",
        "type": "市町村",
        "name": "富山市立富山まちなか病院",
        "url": "https://www.tch.toyama.toyama.jp/tmh/",
        "beds": "50",
        "address": "富山市鹿島町2-2-29",
        "tel": "076-423-7727",
        "lat": "36.689943",
        "lon": "137.204303"
    },
    {
        "id": "11",
        "type": "市町村",
        "name": "南砺市民病院",
        "url": "http://shiminhp.city.nanto.toyama.jp/www/index.jsp",
        "beds": "175",
        "address": "南砺市井波938",
        "tel": "0763-82-1475",
        "lat": "36.569872",
        "lon": "136.973819"
    },
    {
        "id": "12",
        "type": "日赤",
        "name": "富山赤十字病院",
        "url": "http://www.toyama-med.jrc.or.jp/",
        "beds": "401",
        "address": "富山市牛島本町2-1-58",
        "tel": "076-433-2222",
        "lat": "36.7083",
        "lon": "137.209237"
    },
    {
        "id": "13",
        "type": "済生会",
        "name": "富山県済生会高岡病院",
        "url": "http://www.takaoka-saiseikai.jp/",
        "beds": "251",
        "address": "高岡市二塚387-1",
        "tel": "0766-21-0570",
        "lat": "36.721315",
        "lon": "137.015437"
    },
    {
        "id": "14",
        "type": "済生会",
        "name": "富山県済生会富山病院",
        "url": "http://saiseikai-toyama.jp/",
        "beds": "250",
        "address": "富山市楠木33-1",
        "tel": "076-437-1111",
        "lat": "36.737775",
        "lon": "137.255003"
    },
    {
        "id": "15",
        "type": "厚生連",
        "name": "厚生連高岡病院",
        "url": "http://www.kouseiren-ta.or.jp/",
        "beds": "533",
        "address": "高岡市永楽町5-10",
        "tel": "0766-21-3930",
        "lat": "36.743555",
        "lon": "136.996621"
    },
    {
        "id": "16",
        "type": "厚生連",
        "name": "滑川病院",
        "url": "http://www.kouseiren-namerikawa.jp",
        "beds": "279",
        "address": "滑川市常盤町119",
        "tel": "076-475-1000",
        "lat": "36.769994",
        "lon": "137.345418"
    },
    {
        "id": "17",
        "type": "共済組合及び連合会",
        "name": "北陸中央病院",
        "url": "http://hokuriku-ctr-hsp.jp/",
        "beds": "193",
        "address": "小矢部市野寺123",
        "tel": "0766-67-1150",
        "lat": "36.665042",
        "lon": "136.889864"
    },
    {
        "id": "18",
        "type": "医療法人",
        "name": "坂本記念病院",
        "url": "http://jinkei.main.jp/",
        "beds": "120",
        "address": "下新川郡入善町入膳3345-2",
        "tel": "0765-72-5555",
        "lat": "36.933137",
        "lon": "137.501015"
    },
    {
        "id": "19",
        "type": "医療法人",
        "name": "サンバリー福岡病院",
        "url": "http://sunvery-group.com",
        "beds": "118",
        "address": "高岡市福岡町大野150",
        "tel": "0766-64-3535",
        "lat": "36.71935",
        "lon": "136.93526"
    },
    {
        "id": "20",
        "type": "医療法人",
        "name": "真生会富山病院",
        "url": "http://www.shinseikai.jp",
        "beds": "99",
        "address": "射水市下若89-10",
        "tel": "0766-52-2156",
        "lat": "36.716821",
        "lon": "137.076782"
    },
    {
        "id": "21",
        "type": "医療法人",
        "name": "富山西総合病院",
        "url": "http://toyama-nishi.jp",
        "beds": "154",
        "address": "富山市婦中町下轡田1019",
        "tel": "076-461-7700",
        "lat": "36.659797",
        "lon": "137.17453"
    },
    {
        "id": "22",
        "type": "医療法人",
        "name": "長谷川病院",
        "url": "http://www.h-uro.com/",
        "beds": "40",
        "address": "富山市星井町2-7-40",
        "tel": "076-422-3040",
        "lat": "36.684207",
        "lon": "137.21223"
    },
    {
        "id": "23",
        "type": "医療法人",
        "name": "藤木病院",
        "url": "http://www.keijinkai-f.or.jp",
        "beds": "60",
        "address": "中新川郡立山町大石原225",
        "tel": "076-463-1301",
        "lat": "36.665243",
        "lon": "137.297969"
    },
    {
        "id": "24",
        "type": "特定医療法人",
        "name": "西能病院",
        "url": "http://www.sainouhp.or.jp/sainou/",
        "beds": "97",
        "address": "富山市高田70",
        "tel": "076-422-2211",
        "lat": "36.684852",
        "lon": "137.184836"
    }
]