[
    {
        "id": "1",
        "type": "独立行政法人地域医療機能推進機構",
        "name": "金沢病院",
        "url": "http://kanazawa.jcho.go.jp/",
        "beds": "248",
        "address": "金沢市沖町ハ-15",
        "tel": "076-252-2200",
        "lat": "36.592503",
        "lon": "136.65322"
    },
    {
        "id": "2",
        "type": "都道府県",
        "name": "石川県立高松病院",
        "url": "http://www.pref.ishikawa.jp/takabyo/",
        "beds": "400",
        "address": "かほく市内高松ヤ36",
        "tel": "076-281-1125",
        "lat": "36.766756",
        "lon": "136.737404"
    },
    {
        "id": "3",
        "type": "都道府県",
        "name": "石川県立中央病院",
        "url": "http://www.pref.ishikawa.jp/ipch/",
        "beds": "662",
        "address": "金沢市鞍月東2-1",
        "tel": "076-237-8211",
        "lat": "36.596398",
        "lon": "136.629821"
    },
    {
        "id": "4",
        "type": "市町村",
        "name": "公立能登総合病院",
        "url": "http://www.noto-hospital.nanao.ishikawa.jp/",
        "beds": "434",
        "address": "七尾市藤橋町ア部6-4",
        "tel": "0767-52-6611",
        "lat": "37.045062",
        "lon": "136.946592"
    },
    {
        "id": "5",
        "type": "市町村",
        "name": "公立松任石川中央病院",
        "url": "http://www.mattohp.jp/",
        "beds": "305",
        "address": "白山市倉光3-8",
        "tel": "076-275-2222",
        "lat": "36.510865",
        "lon": "136.5665"
    },
    {
        "id": "6",
        "type": "市町村",
        "name": "津幡町国民健康保険直営　河北中央病院",
        "url": "http://kahoku-hp.jp/",
        "beds": "60",
        "address": "河北郡津幡町字津幡口51-2",
        "tel": "076-289-3123",
        "lat": "36.670182",
        "lon": "136.736973"
    },
    {
        "id": "7",
        "type": "日赤",
        "name": "金沢赤十字病院",
        "url": "http://www.kanazawa-rc-hosp.jp",
        "beds": "262",
        "address": "金沢市三馬2-251",
        "tel": "076-242-8131",
        "lat": "36.530331",
        "lon": "136.636178"
    },
    {
        "id": "8",
        "type": "済生会",
        "name": "石川県済生会金沢病院",
        "url": "http://www.saiseikaikanazawa.jp/",
        "beds": "260",
        "address": "金沢市赤土町二13-6",
        "tel": "076-266-1060",
        "lat": "36.584323",
        "lon": "136.595736"
    },
    {
        "id": "9",
        "type": "共済組合及び連合会",
        "name": "北陸病院",
        "url": "http://www.hokuriku-hosp.jp",
        "beds": "125",
        "address": "金沢市泉が丘2-13-43",
        "tel": "076-243-1191",
        "lat": "36.542806",
        "lon": "136.644927"
    },
    {
        "id": "10",
        "type": "公益法人",
        "name": "城北病院",
        "url": "http://jouhoku-hosp.com/",
        "beds": "314",
        "address": "金沢市京町20-3",
        "tel": "076-251-6111",
        "lat": "36.581921",
        "lon": "136.656695"
    },
    {
        "id": "11",
        "type": "医療法人",
        "name": "浅ノ川総合病院",
        "url": "http://www.asanogawa-gh.or.jp",
        "beds": "499",
        "address": "金沢市小坂町中83",
        "tel": "076-252-2101",
        "lat": "36.593105",
        "lon": "136.677499"
    },
    {
        "id": "12",
        "type": "医療法人",
        "name": "金沢有松病院",
        "url": "http://www.k-arimatsu.jp",
        "beds": "140",
        "address": "金沢市有松5-1-7",
        "tel": "076-242-2111",
        "lat": "36.539456",
        "lon": "136.639015"
    },
    {
        "id": "13",
        "type": "医療法人",
        "name": "金沢西病院",
        "url": "http://www.knh.or.jp/",
        "beds": "166",
        "address": "金沢市駅西本町6-15-41",
        "tel": "076-233-1811",
        "lat": "36.585938",
        "lon": "136.625345"
    },
    {
        "id": "14",
        "type": "医療法人",
        "name": "金沢脳神経外科病院",
        "url": "http://www.nouge.net/",
        "beds": "220",
        "address": "野々市市郷町262-2",
        "tel": "076-246-5600",
        "lat": "36.526481",
        "lon": "136.588084"
    },
    {
        "id": "15",
        "type": "医療法人",
        "name": "整形外科米澤病院",
        "url": "http://www.yonezawa-hospital.jp",
        "beds": "72",
        "address": "金沢市京町1-30",
        "tel": "076-252-3281",
        "lat": "36.580722",
        "lon": "136.655555"
    },
    {
        "id": "16",
        "type": "医療法人",
        "name": "芳珠記念病院",
        "url": "http://www.houju.or.jp/",
        "beds": "320",
        "address": "能美市緑が丘11-71",
        "tel": "0761-51-5551",
        "lat": "36.441912",
        "lon": "136.535887"
    },
    {
        "id": "17",
        "type": "医療法人",
        "name": "みらい病院",
        "url": "http://eijukai.jp/",
        "beds": "150",
        "address": "金沢市鞍月東1-9",
        "tel": "076-237-8000",
        "lat": "36.593811",
        "lon": "136.629999"
    },
    {
        "id": "18",
        "type": "特定医療法人",
        "name": "南ヶ丘病院",
        "url": "http://www.minamigaoka-hp.or.jp",
        "beds": "120",
        "address": "金沢市馬替2-125",
        "tel": "076-298-3366",
        "lat": "36.521118",
        "lon": "136.619977"
    },
    {
        "id": "19",
        "type": "特定医療法人",
        "name": "やわたメディカルセンター",
        "url": "http://www.yawatamedical.com/",
        "beds": "208",
        "address": "小松市八幡イ12-7",
        "tel": "0761-47-1212",
        "lat": "36.392207",
        "lon": "136.490772"
    },
    {
        "id": "20",
        "type": "社会医療法人",
        "name": "恵寿総合病院",
        "url": "http://www.keiju.co.jp/",
        "beds": "426",
        "address": "七尾市富岡町94",
        "tel": "0767-52-3211",
        "lat": "37.050426",
        "lon": "136.960972"
    }
]