[
    {
        "id": "1",
        "type": "独立行政法人国立病院機構",
        "name": "あわら病院",
        "url": "http://www.awara-hosp.jp/",
        "beds": "172",
        "address": "あわら市北潟238-1",
        "tel": "0776-79-1211",
        "lat": "36.255879",
        "lon": "136.211912"
    },
    {
        "id": "2",
        "type": "独立行政法人国立病院機構",
        "name": "敦賀医療センター",
        "url": "http://www.fukui-hosp.jp/",
        "beds": "275",
        "address": "敦賀市桜ヶ丘町33-1",
        "tel": "0770-25-1600",
        "lat": "35.622589",
        "lon": "136.034793"
    },
    {
        "id": "3",
        "type": "独立行政法人地域医療機能推進機構",
        "name": "福井勝山総合病院",
        "url": "http://fukui.jcho.go.jp/",
        "beds": "199",
        "address": "勝山市長山町2-6-21",
        "tel": "0779-88-0350",
        "lat": "36.070869",
        "lon": "136.506244"
    },
    {
        "id": "4",
        "type": "独立行政法人地域医療機能推進機構",
        "name": "若狭高浜病院",
        "url": "http://takahama.jcho.go.jp",
        "beds": "115",
        "address": "大飯郡高浜町宮崎87-14-2",
        "tel": "0770-72-0880",
        "lat": "35.489298",
        "lon": "135.547382"
    },
    {
        "id": "5",
        "type": "都道府県",
        "name": "福井県立病院",
        "url": "http://fph.pref.fukui.lg.jp/",
        "beds": "872",
        "address": "福井市四ツ井2-8-1",
        "tel": "0776-54-5151",
        "lat": "36.068779",
        "lon": "136.239091"
    },
    {
        "id": "6",
        "type": "市町村",
        "name": "越前町国民健康保険織田病院",
        "url": "http://ota.jadecom.or.jp",
        "beds": "55",
        "address": "丹生郡越前町織田106-44-1",
        "tel": "0778-36-1000",
        "lat": "35.95731",
        "lon": "136.047127"
    },
    {
        "id": "7",
        "type": "市町村",
        "name": "公立丹南病院",
        "url": "http://www.jadecom.or.jp/jadecomhp/tannan/html/",
        "beds": "179",
        "address": "鯖江市三六町1-2-31",
        "tel": "0778-51-2260",
        "lat": "35.970102",
        "lon": "136.177977"
    },
    {
        "id": "8",
        "type": "市町村",
        "name": "市立敦賀病院",
        "url": "http://tsuruga-hp.jp/",
        "beds": "332",
        "address": "敦賀市三島町1-6-60",
        "tel": "0770-22-3611",
        "lat": "35.652314",
        "lon": "136.064145"
    },
    {
        "id": "9",
        "type": "市町村",
        "name": "杉田玄白記念公立小浜病院",
        "url": "http://www.obamahp-wakasa.jp/hospital/",
        "beds": "456",
        "address": "小浜市大手町2-2",
        "tel": "0770-52-0990",
        "lat": "35.494288",
        "lon": "135.746075"
    },
    {
        "id": "10",
        "type": "市町村",
        "name": "レイクヒルズ美方病院",
        "url": "http://www.obamahp-wakasa.jp/reiku/",
        "beds": "100",
        "address": "三方上中郡若狭町気山315-1-9",
        "tel": "0770-45-1131",
        "lat": "35.584651",
        "lon": "135.913062"
    },
    {
        "id": "11",
        "type": "日赤",
        "name": "福井赤十字病院",
        "url": "http://www.fukui-med.jrc.or.jp/",
        "beds": "600",
        "address": "福井市月見2-4-1",
        "tel": "0776-36-3630",
        "lat": "36.047141",
        "lon": "136.213004"
    },
    {
        "id": "12",
        "type": "済生会",
        "name": "福井県済生会病院",
        "url": "http://www.fukui-saiseikai.com/",
        "beds": "460",
        "address": "福井市和田中町舟橋7-1",
        "tel": "0776-23-1111",
        "lat": "36.047253",
        "lon": "136.252308"
    },
    {
        "id": "13",
        "type": "公益法人",
        "name": "松原病院",
        "url": "http://www.fmatsubara.com/",
        "beds": "260",
        "address": "福井市文京2-9-1",
        "tel": "0776-22-3717",
        "lat": "36.078127",
        "lon": "136.219589"
    },
    {
        "id": "14",
        "type": "医療法人",
        "name": "池端病院",
        "url": "http://www.ikebata.jp/",
        "beds": "30",
        "address": "越前市今宿町8-1",
        "tel": "0778-23-0150",
        "lat": "35.865334",
        "lon": "136.170002"
    },
    {
        "id": "15",
        "type": "医療法人",
        "name": "大滝病院",
        "url": "http://www.otaki-hp.or.jp/otaki/",
        "beds": "110",
        "address": "福井市日光1-2-1",
        "tel": "0776-23-3215",
        "lat": "36.071356",
        "lon": "136.203343"
    },
    {
        "id": "16",
        "type": "医療法人",
        "name": "笠原病院",
        "url": "http://www.kasahara-hosp.or.jp/",
        "beds": "103",
        "address": "越前市塚町214",
        "tel": "0778-23-1155",
        "lat": "35.916049",
        "lon": "136.191854"
    },
    {
        "id": "17",
        "type": "医療法人",
        "name": "木村病院",
        "url": "http://www.kimura-hospital.jp/",
        "beds": "133",
        "address": "あわら市北金津57-25",
        "tel": "0776-73-3323",
        "lat": "36.216645",
        "lon": "136.217595"
    },
    {
        "id": "18",
        "type": "医療法人",
        "name": "田中病院",
        "url": "http://www.tanaka-hosp.jp",
        "beds": "148",
        "address": "福井市大手2-3-1",
        "tel": "0776-22-8500",
        "lat": "36.064224",
        "lon": "136.223978"
    },
    {
        "id": "19",
        "type": "医療法人",
        "name": "中村病院",
        "url": "http://www.nakamura-hp.or.jp/",
        "beds": "199",
        "address": "越前市天王町4-28",
        "tel": "0778-22-0618",
        "lat": "35.900516",
        "lon": "136.166775"
    },
    {
        "id": "20",
        "type": "医療法人",
        "name": "林病院",
        "url": "http://www.hayashi-hospital.or.jp",
        "beds": "206",
        "address": "越前市府中1-3-5",
        "tel": "0778-22-0336",
        "lat": "35.9026",
        "lon": "136.169862"
    },
    {
        "id": "21",
        "type": "医療法人",
        "name": "福井厚生病院",
        "url": "http://www.koseikaigroup.jp/hospital/",
        "beds": "199",
        "address": "福井市下六条町201番地",
        "tel": "0776-41-3377",
        "lat": "36.036463",
        "lon": "136.233339"
    },
    {
        "id": "22",
        "type": "医療法人",
        "name": "藤田記念病院",
        "url": "http://www.fujita-mhp.jp",
        "beds": "59",
        "address": "福井市宝永4-15-7",
        "tel": "0776-21-1277",
        "lat": "36.069651",
        "lon": "136.220133"
    },
    {
        "id": "23",
        "type": "特定医療法人",
        "name": "春江病院",
        "url": "http://www.harue-hp.org",
        "beds": "137",
        "address": "坂井市春江町針原65-7",
        "tel": "0776-51-0029",
        "lat": "36.123826",
        "lon": "136.212916"
    },
    {
        "id": "24",
        "type": "特定医療法人",
        "name": "福井循環器病院",
        "url": "http://www.fcvc.or.jp",
        "beds": "199",
        "address": "福井市新保2-228",
        "tel": "0776-54-5660",
        "lat": "36.077846",
        "lon": "136.25025"
    },
    {
        "id": "25",
        "type": "特定医療法人",
        "name": "安川病院",
        "url": "http://www.yasukawa-hospital.jp",
        "beds": "80",
        "address": "福井市大和田2-108",
        "tel": "0776-52-2800",
        "lat": "36.09515",
        "lon": "136.247039"
    },
    {
        "id": "26",
        "type": "医療生協",
        "name": "光陽生協病院",
        "url": "http://hospital.koyo-gr.jp/",
        "beds": "57",
        "address": "福井市光陽3-10-24",
        "tel": "0776-24-5009",
        "lat": "36.0655",
        "lon": "136.195336"
    },
    {
        "id": "27",
        "type": "その他法人",
        "name": "福井総合病院",
        "url": "http://www.f-gh.jp/",
        "beds": "315",
        "address": "福井市江上町第58号16-1",
        "tel": "0776-59-2508",
        "lat": "36.132529",
        "lon": "136.165244"
    }
]