[
    {
        "id": "1",
        "type": "独立行政法人地域医療機能推進機構",
        "name": "山梨病院",
        "url": "http://yamanashi.jcho.go.jp",
        "beds": "168",
        "address": "甲府市朝日3-11-16",
        "tel": "055-252-8831",
        "lat": "35.672045",
        "lon": "138.563224"
    },
    {
        "id": "2",
        "type": "市町村",
        "name": "国民健康保険富士吉田市立病院",
        "url": "http://www.fymh.jp/forms/top/top.aspx",
        "beds": "310",
        "address": "富士吉田市上吉田東7-11-1",
        "tel": "0555-22-4111",
        "lat": "35.474092",
        "lon": "138.802026"
    },
    {
        "id": "3",
        "type": "地方独立行政法人",
        "name": "山梨県立北病院",
        "url": "http://www.ych.pref.yamanashi.jp/kitabyo/",
        "beds": "192",
        "address": "韮崎市旭町上條南割3314-13",
        "tel": "0551-22-1621",
        "lat": "35.666508",
        "lon": "138.43669"
    },
    {
        "id": "4",
        "type": "地方独立行政法人",
        "name": "山梨県立中央病院",
        "url": "https://www.ych.pref.yamanashi.jp",
        "beds": "644",
        "address": "甲府市富士見1-1-1",
        "tel": "055-253-7111",
        "lat": "35.670919",
        "lon": "138.550807"
    },
    {
        "id": "5",
        "type": "日赤",
        "name": "山梨赤十字病院",
        "url": "http://www.yamanashi-med.jrc.or.jp/",
        "beds": "269",
        "address": "南都留郡富士河口湖町船津6663-1",
        "tel": "0555-72-2222",
        "lat": "35.485111",
        "lon": "138.767555"
    },
    {
        "id": "6",
        "type": "公益法人",
        "name": "塩山市民病院",
        "url": "http://www.kosei.jp/enzan/",
        "beds": "179",
        "address": "甲州市塩山西広門田433-1",
        "tel": "0553-32-5111",
        "lat": "35.694986",
        "lon": "138.721103"
    },
    {
        "id": "7",
        "type": "公益法人",
        "name": "山梨厚生病院",
        "url": "http://www.kosei.jp/",
        "beds": "497",
        "address": "山梨市落合860",
        "tel": "0553-23-1311",
        "lat": "35.686356",
        "lon": "138.665246"
    },
    {
        "id": "8",
        "type": "医療法人",
        "name": "赤坂台病院",
        "url": "http://akasakadai.com/",
        "beds": "100",
        "address": "甲斐市竜王新町2150",
        "tel": "055-279-0111",
        "lat": "35.678427",
        "lon": "138.5076"
    },
    {
        "id": "9",
        "type": "医療法人",
        "name": "石和温泉病院",
        "url": "http://www.isawa-hsp.or.jp/",
        "beds": "193",
        "address": "笛吹市石和町八田330-5",
        "tel": "055-263-0111",
        "lat": "35.65601",
        "lon": "138.641159"
    },
    {
        "id": "10",
        "type": "医療法人",
        "name": "一宮温泉病院",
        "url": "http://1nomiya.or.jp",
        "beds": "123",
        "address": "笛吹市一宮町坪井1745",
        "tel": "0553-47-3131",
        "lat": "35.653173",
        "lon": "138.662699"
    },
    {
        "id": "11",
        "type": "医療法人",
        "name": "峡南病院",
        "url": "http://www9.plala.or.jp/yamanashi-ha/hospital/h09.html",
        "beds": "40",
        "address": "南巨摩郡富士川町鰍沢1806",
        "tel": "0556-22-4411",
        "lat": "35.544051",
        "lon": "138.458401"
    },
    {
        "id": "12",
        "type": "医療法人",
        "name": "恵信韮崎相互病院",
        "url": "http://nirasakisougo.com/",
        "beds": "64",
        "address": "韮崎市一ツ谷1865-1",
        "tel": "0551-22-2521",
        "lat": "35.717253",
        "lon": "138.436019"
    },
    {
        "id": "13",
        "type": "医療法人",
        "name": "甲府城南病院",
        "url": "http://www.kofujonan.or.jp/",
        "beds": "298",
        "address": "甲府市上町753-1",
        "tel": "055-241-5811",
        "lat": "35.629419",
        "lon": "138.595226"
    },
    {
        "id": "14",
        "type": "医療法人",
        "name": "笛吹中央病院",
        "url": "http://www.fch.or.jp",
        "beds": "150",
        "address": "笛吹市石和町四日市場47-1",
        "tel": "055-262-2185",
        "lat": "35.641174",
        "lon": "138.635207"
    },
    {
        "id": "15",
        "type": "医療法人",
        "name": "宮川病院",
        "url": "http://www.miyagawa-hospital.com/",
        "beds": "41",
        "address": "南アルプス市上今諏訪1750",
        "tel": "055-282-1107",
        "lat": "35.634103",
        "lon": "138.495808"
    },
    {
        "id": "16",
        "type": "特定医療法人",
        "name": "甲州リハビリテーション病院",
        "url": "http://www.krg.ne.jp/rehabili/",
        "beds": "180",
        "address": "笛吹市石和町四日市場2031-25",
        "tel": "055-262-3121",
        "lat": "35.645714",
        "lon": "138.625282"
    },
    {
        "id": "17",
        "type": "社会医療法人",
        "name": "加納岩総合病院",
        "url": "http://www.kanoiwa-hospital.or.jp/",
        "beds": "160",
        "address": "山梨市上神内川1309",
        "tel": "0553-22-2511",
        "lat": "35.689895",
        "lon": "138.683625"
    }
]