[
    {
        "id": "1",
        "type": "独立行政法人地域医療機能推進機構",
        "name": "可児とうのう病院",
        "url": "http://kani.jcho.go.jp/",
        "beds": "250",
        "address": "可児市土田1221-5",
        "tel": "0574-25-3113",
        "lat": "35.417771",
        "lon": "137.01701"
    },
    {
        "id": "2",
        "type": "市町村",
        "name": "大垣市民病院",
        "url": "http://www.ogaki-mh.jp/",
        "beds": "903",
        "address": "大垣市南頬町4-86",
        "tel": "0584-81-3341",
        "lat": "35.35225",
        "lon": "136.621839"
    },
    {
        "id": "3",
        "type": "市町村",
        "name": "岐阜市民病院",
        "url": "http://gmhosp.jp/",
        "beds": "609",
        "address": "岐阜市鹿島町7-1",
        "tel": "058-251-1101",
        "lat": "35.414566",
        "lon": "136.733532"
    },
    {
        "id": "4",
        "type": "市町村",
        "name": "郡上市民病院",
        "url": "http://www.gujo-hospital.jp/",
        "beds": "150",
        "address": "郡上市八幡町島谷1261",
        "tel": "0575-67-1611",
        "lat": "35.747276",
        "lon": "136.951445"
    },
    {
        "id": "5",
        "type": "市町村",
        "name": "総合病院中津川市民病院",
        "url": "http://nakatsugawa-hp.jp/",
        "beds": "360",
        "address": "中津川市駒場1522-1",
        "tel": "0573-66-1251",
        "lat": "35.489576",
        "lon": "137.479652"
    },
    {
        "id": "6",
        "type": "市町村",
        "name": "多治見市民病院",
        "url": "http://www.kouseikai-tajimi-shimin.jp",
        "beds": "250",
        "address": "多治見市前畑町3-43",
        "tel": "0572-22-5211",
        "lat": "35.330724",
        "lon": "137.118121"
    },
    {
        "id": "7",
        "type": "市町村",
        "name": "羽島市民病院",
        "url": "http://www.hashima-hp.jp",
        "beds": "281",
        "address": "羽島市新生町3-246",
        "tel": "058-393-0111",
        "lat": "35.328686",
        "lon": "136.709054"
    },
    {
        "id": "8",
        "type": "市町村",
        "name": "美濃市立美濃病院",
        "url": "http://minohospital.jp/",
        "beds": "122",
        "address": "美濃市中央4-3",
        "tel": "0575-33-1221",
        "lat": "35.538898",
        "lon": "136.901281"
    },
    {
        "id": "9",
        "type": "地方独立行政法人",
        "name": "岐阜県総合医療センター",
        "url": "https://www.gifu-hp.jp/",
        "beds": "604",
        "address": "岐阜市野一色4-6-1",
        "tel": "058-246-1111",
        "lat": "35.410625",
        "lon": "136.798871"
    },
    {
        "id": "10",
        "type": "地方独立行政法人",
        "name": "岐阜県立下呂温泉病院",
        "url": "http://www.gero-hp.jp",
        "beds": "206",
        "address": "下呂市森2211",
        "tel": "0576-23-2222",
        "lat": "35.807979",
        "lon": "137.252843"
    },
    {
        "id": "11",
        "type": "地方独立行政法人",
        "name": "岐阜県立多治見病院",
        "url": "http://www.tajimi-hospital.jp",
        "beds": "575",
        "address": "多治見市前畑町5-161",
        "tel": "0572-22-5311",
        "lat": "35.328153",
        "lon": "137.111777"
    },
    {
        "id": "12",
        "type": "日赤",
        "name": "岐阜赤十字病院",
        "url": "http://www.gifu-med.jrc.or.jp/",
        "beds": "311",
        "address": "岐阜市岩倉町3-36",
        "tel": "058-231-2266",
        "lat": "35.433792",
        "lon": "136.755329"
    },
    {
        "id": "13",
        "type": "日赤",
        "name": "高山赤十字病院",
        "url": "http://www.takayama.jrc.or.jp/",
        "beds": "472",
        "address": "高山市天満町3-11",
        "tel": "0577-32-1111",
        "lat": "36.13693",
        "lon": "137.254542"
    },
    {
        "id": "14",
        "type": "厚生連",
        "name": "岐阜・西濃医療センター揖斐厚生病院",
        "url": "http://www.ibi.gfkosei.or.jp/",
        "beds": "281",
        "address": "揖斐郡揖斐川町三輪2547-4",
        "tel": "0585-21-1111",
        "lat": "35.483631",
        "lon": "136.573204"
    },
    {
        "id": "15",
        "type": "厚生連",
        "name": "岐阜・西濃医療センター　岐北厚生病院",
        "url": "http://www.gihoku.gfkosei.or.jp/",
        "beds": "316",
        "address": "山県市高富1187-3",
        "tel": "0581-22-1811",
        "lat": "35.492252",
        "lon": "136.787456"
    },
    {
        "id": "16",
        "type": "厚生連",
        "name": "岐阜・西濃医療センタ－　西美濃厚生病院",
        "url": "http://www.nishimino.gfkosei.or.jp",
        "beds": "315",
        "address": "養老郡養老町押越986",
        "tel": "0584-32-1161",
        "lat": "35.30522",
        "lon": "136.558044"
    },
    {
        "id": "17",
        "type": "厚生連",
        "name": "飛騨医療センター　久美愛厚生病院",
        "url": "http://www.kumiai.gfkosei.or.jp/",
        "beds": "300",
        "address": "高山市中切町1-1",
        "tel": "0577-32-1115",
        "lat": "36.166948",
        "lon": "137.237246"
    },
    {
        "id": "18",
        "type": "厚生連",
        "name": "中濃厚生病院",
        "url": "http://www.chuno.gfkosei.or.jp/",
        "beds": "495",
        "address": "関市若草通5-1",
        "tel": "0575-22-2211",
        "lat": "35.494672",
        "lon": "136.921259"
    },
    {
        "id": "19",
        "type": "厚生連",
        "name": "東濃厚生病院",
        "url": "http://www.tohno.gfkosei.or.jp/",
        "beds": "270",
        "address": "瑞浪市土岐町76-1",
        "tel": "0572-68-4111",
        "lat": "35.365118",
        "lon": "137.25559"
    },
    {
        "id": "20",
        "type": "共済組合及び連合会",
        "name": "東海中央病院",
        "url": "http://www.tokaihp.jp",
        "beds": "332",
        "address": "各務原市蘇原東島町4-6-2",
        "tel": "058-382-3101",
        "lat": "35.409955",
        "lon": "136.87518"
    },
    {
        "id": "21",
        "type": "医療法人",
        "name": "岩砂病院・岩砂マタニティ",
        "url": "https://iwasa-gifu.or.jp/",
        "beds": "132",
        "address": "岐阜市八代1-7-1",
        "tel": "058-231-2631",
        "lat": "35.458231",
        "lon": "136.774149"
    },
    {
        "id": "22",
        "type": "医療法人",
        "name": "大垣徳洲会病院",
        "url": "http://www.ogaki.tokushukai.or.jp",
        "beds": "283",
        "address": "大垣市林町6-85-1",
        "tel": "0584-77-6110",
        "lat": "35.372434",
        "lon": "136.617675"
    },
    {
        "id": "23",
        "type": "医療法人",
        "name": "笠松病院",
        "url": "http://www.seiyuukai.or.jp",
        "beds": "88",
        "address": "岐阜市中鶉3-11",
        "tel": "058-276-2881",
        "lat": "35.383592",
        "lon": "136.734308"
    },
    {
        "id": "24",
        "type": "医療法人",
        "name": "河村病院",
        "url": "http://kawamuramedical.or.jp/",
        "beds": "315",
        "address": "岐阜市芥見大般若1-84",
        "tel": "058-241-3311",
        "lat": "35.439033",
        "lon": "136.844064"
    },
    {
        "id": "25",
        "type": "医療法人",
        "name": "岐阜清流病院",
        "url": "http://www.skhosp.or.jp/",
        "beds": "372",
        "address": "岐阜市川部3-25",
        "tel": "058-239-8111",
        "lat": "35.43544",
        "lon": "136.707556"
    },
    {
        "id": "26",
        "type": "医療法人",
        "name": "澤田病院",
        "url": "http://www.sawada-hp.or.jp",
        "beds": "229",
        "address": "岐阜市野一色7-2-5",
        "tel": "058-247-3355",
        "lat": "35.417279",
        "lon": "136.805528"
    },
    {
        "id": "27",
        "type": "医療法人",
        "name": "白川病院",
        "url": "http://www.shirakawahp.com",
        "beds": "124",
        "address": "加茂郡白川町坂ノ東5770",
        "tel": "0574-72-2222",
        "lat": "35.603722",
        "lon": "137.164937"
    },
    {
        "id": "28",
        "type": "医療法人",
        "name": "関中央病院",
        "url": "http://www.sekichuo.jp",
        "beds": "150",
        "address": "関市平成通2-6-18",
        "tel": "0575-22-0012",
        "lat": "35.470559",
        "lon": "136.936046"
    },
    {
        "id": "29",
        "type": "医療法人",
        "name": "八幡病院",
        "url": "http://hachiman-hosp.jp/",
        "beds": "71",
        "address": "郡上市八幡町桜町278",
        "tel": "0575-65-2151",
        "lat": "35.750703",
        "lon": "136.960721"
    },
    {
        "id": "30",
        "type": "医療法人",
        "name": "平野総合病院",
        "url": "http://www.hiranogh.com/hiraindex.html",
        "beds": "189",
        "address": "岐阜市黒野176-5",
        "tel": "058-239-2325",
        "lat": "35.458513",
        "lon": "136.726991"
    },
    {
        "id": "31",
        "type": "医療法人",
        "name": "山内ホスピタル",
        "url": "http://www.kanamekai.com",
        "beds": "129",
        "address": "岐阜市市橋3-7-22",
        "tel": "058-276-2131",
        "lat": "35.399203",
        "lon": "136.725356"
    },
    {
        "id": "32",
        "type": "特定医療法人",
        "name": "太田病院",
        "url": "http://www.ohta-hospital.jp/hospital/index.html",
        "beds": "89",
        "address": "美濃加茂市太田町2855-1",
        "tel": "0574-26-1251",
        "lat": "35.439896",
        "lon": "137.014795"
    },
    {
        "id": "33",
        "type": "特定医療法人",
        "name": "新生病院",
        "url": "https://www.shinsei-hospital.jp/",
        "beds": "96",
        "address": "揖斐郡池田町本郷1551-1",
        "tel": "0585-45-3161",
        "lat": "35.442998",
        "lon": "136.575717"
    },
    {
        "id": "34",
        "type": "特定医療法人",
        "name": "のぞみの丘ホスピタル",
        "url": "http://www.minokamo.or.jp",
        "beds": "310",
        "address": "美濃加茂市蜂屋町上蜂屋3555",
        "tel": "0574-25-3188",
        "lat": "35.454078",
        "lon": "137.012972"
    },
    {
        "id": "35",
        "type": "特定医療法人",
        "name": "博愛会病院",
        "url": "http://www.hakuaikai.jp",
        "beds": "281",
        "address": "不破郡垂井町2210-42",
        "tel": "0584-23-1251",
        "lat": "35.373334",
        "lon": "136.537876"
    },
    {
        "id": "36",
        "type": "社会医療法人",
        "name": "木沢記念病院",
        "url": "http://kizawa-memorial-hospital.jp",
        "beds": "452",
        "address": "美濃加茂市古井町下古井590",
        "tel": "0574-25-2181",
        "lat": "35.440652",
        "lon": "137.023428"
    },
    {
        "id": "37",
        "type": "社会医療法人",
        "name": "鷲見病院",
        "url": "http://sumihosp.or.jp/",
        "beds": "149",
        "address": "郡上市白鳥町白鳥2-1",
        "tel": "0575-82-3151",
        "lat": "35.880103",
        "lon": "136.857761"
    },
    {
        "id": "38",
        "type": "社会医療法人",
        "name": "松波総合病院",
        "url": "http://www.matsunami-hsp.or.jp/",
        "beds": "501",
        "address": "羽島郡笠松町田代185-1",
        "tel": "058-388-0111",
        "lat": "35.364532",
        "lon": "136.757091"
    },
    {
        "id": "39",
        "type": "私立学校法人",
        "name": "朝日大学病院",
        "url": "http://www.murakami.asahi-u.ac.jp",
        "beds": "381",
        "address": "岐阜市橋本町3-23",
        "tel": "058-253-8001",
        "lat": "35.410641",
        "lon": "136.749838"
    },
    {
        "id": "40",
        "type": "その他法人",
        "name": "海津市医師会病院",
        "url": "http://www.kaizu.gifu.med.or.jp/byouin/top_a.html",
        "beds": "136",
        "address": "海津市海津町福江656-16",
        "tel": "0584-53-7111",
        "lat": "35.172384",
        "lon": "136.661255"
    },
    {
        "id": "41",
        "type": "個人",
        "name": "藤掛第一病院",
        "url": "http://www.fujikake-hosp.jp",
        "beds": "119",
        "address": "岐阜市一番町1",
        "tel": "058-265-5255",
        "lat": "35.418451",
        "lon": "136.761811"
    }
]