[
    {
        "id": "1",
        "type": "独立行政法人国立病院機構",
        "name": "静岡医療センター",
        "url": "https://shizuoka-mc.hosp.go.jp/",
        "beds": "450",
        "address": "駿東郡清水町長沢762-1",
        "tel": "055-975-2000",
        "lat": "35.0999",
        "lon": "138.889892"
    },
    {
        "id": "2",
        "type": "独立行政法人国立病院機構",
        "name": "静岡てんかん・神経医療センター",
        "url": "http://www.shizuokamind.org/",
        "beds": "410",
        "address": "静岡市葵区漆山886",
        "tel": "054-245-5446",
        "lat": "35.019419",
        "lon": "138.397724"
    },
    {
        "id": "3",
        "type": "独立行政法人労働者健康安全機構",
        "name": "浜松労災病院",
        "url": "http://www.hamamatsuh.johas.go.jp/",
        "beds": "312",
        "address": "浜松市東区将監町25",
        "tel": "053-462-1211",
        "lat": "34.717212",
        "lon": "137.756009"
    },
    {
        "id": "4",
        "type": "独立行政法人地域医療機能推進機構",
        "name": "桜ヶ丘病院",
        "url": "http://sakuragaoka.jcho.go.jp/",
        "beds": "199",
        "address": "静岡市清水区桜が丘町13-23",
        "tel": "054-353-5311",
        "lat": "35.009154",
        "lon": "138.479607"
    },
    {
        "id": "5",
        "type": "独立行政法人地域医療機能推進機構",
        "name": "三島総合病院",
        "url": "http://mishima.jcho.go.jp",
        "beds": "181",
        "address": "三島市谷田字藤久保2276",
        "tel": "055-975-3031",
        "lat": "35.124065",
        "lon": "138.951745"
    },
    {
        "id": "6",
        "type": "都道府県",
        "name": "静岡県立静岡がんセンター",
        "url": "http://www.scchr.jp/",
        "beds": "615",
        "address": "駿東郡長泉町下長窪1007番地",
        "tel": "055-989-5222",
        "lat": "35.157143",
        "lon": "138.882554"
    },
    {
        "id": "7",
        "type": "市町村",
        "name": "磐田市立総合病院",
        "url": "http://www.hospital.iwata.shizuoka.jp/",
        "beds": "500",
        "address": "磐田市大久保512-3",
        "tel": "0538-38-5000",
        "lat": "34.768963",
        "lon": "137.857029"
    },
    {
        "id": "8",
        "type": "市町村",
        "name": "菊川市立総合病院",
        "url": "http://www.kikugawa-hosp.jp",
        "beds": "260",
        "address": "菊川市東横地1632",
        "tel": "0537-35-2135",
        "lat": "34.733336",
        "lon": "138.099504"
    },
    {
        "id": "9",
        "type": "市町村",
        "name": "共立蒲原総合病院",
        "url": "http://www.kanbarahp.com/",
        "beds": "267",
        "address": "富士市中之郷2500-1",
        "tel": "0545-81-2211",
        "lat": "35.133609",
        "lon": "138.616376"
    },
    {
        "id": "10",
        "type": "市町村",
        "name": "公立森町病院",
        "url": "http://hospital.town.morimachi.shizuoka.jp",
        "beds": "131",
        "address": "周智郡森町草ケ谷391-1",
        "tel": "0538-85-2181",
        "lat": "34.824792",
        "lon": "137.918033"
    },
    {
        "id": "11",
        "type": "市町村",
        "name": "静岡市立清水病院",
        "url": "http://www.shimizuhospital.com/",
        "beds": "463",
        "address": "静岡市清水区宮加三1231",
        "tel": "054-336-1111",
        "lat": "34.982884",
        "lon": "138.490215"
    },
    {
        "id": "12",
        "type": "市町村",
        "name": "市立御前崎総合病院",
        "url": "https://omaezaki-hospital.jp/",
        "beds": "199",
        "address": "御前崎市池新田2060",
        "tel": "0537-86-8511",
        "lat": "34.64575",
        "lon": "138.119051"
    },
    {
        "id": "13",
        "type": "市町村",
        "name": "市立湖西病院",
        "url": "https://www.hospital.kosai.shizuoka.jp/",
        "beds": "196",
        "address": "湖西市鷲津2259-1",
        "tel": "053-576-1231",
        "lat": "34.712482",
        "lon": "137.549105"
    },
    {
        "id": "14",
        "type": "市町村",
        "name": "市立島田市民病院",
        "url": "http://www.municipal-hospital.shimada.shizuoka.jp/",
        "beds": "536",
        "address": "島田市野田1200-5",
        "tel": "0547-35-2111",
        "lat": "34.846005",
        "lon": "138.18321"
    },
    {
        "id": "15",
        "type": "市町村",
        "name": "中東遠総合医療センター",
        "url": "http://www.chutoen-hp.shizuoka.jp",
        "beds": "500",
        "address": "掛川市菖蒲ヶ池1-1",
        "tel": "0537-28-9501",
        "lat": "34.75645",
        "lon": "137.998087"
    },
    {
        "id": "16",
        "type": "市町村",
        "name": "沼津市立病院",
        "url": "http://www.numazu-hospital.shizuoka.jp/",
        "beds": "387",
        "address": "沼津市東椎路字春ノ木550",
        "tel": "055-924-5100",
        "lat": "35.119769",
        "lon": "138.835208"
    },
    {
        "id": "17",
        "type": "市町村",
        "name": "浜松医療センター",
        "url": "http://www.hmedc.or.jp/",
        "beds": "606",
        "address": "浜松市中区富塚町328",
        "tel": "053-453-7111",
        "lat": "34.716209",
        "lon": "137.701268"
    },
    {
        "id": "18",
        "type": "市町村",
        "name": "浜松市リハビリテーション病院",
        "url": "http://www.hriha.jp/",
        "beds": "225",
        "address": "浜松市中区和合北1-6-1",
        "tel": "053-471-8331",
        "lat": "34.737761",
        "lon": "137.719515"
    },
    {
        "id": "19",
        "type": "市町村",
        "name": "藤枝市立総合病院",
        "url": "http://www.hospital.fujieda.shizuoka.jp/",
        "beds": "564",
        "address": "藤枝市駿河台4-1-11",
        "tel": "054-646-1111",
        "lat": "34.861287",
        "lon": "138.229896"
    },
    {
        "id": "20",
        "type": "市町村",
        "name": "富士市立中央病院",
        "url": "http://byoin.city.fuji.shizuoka.jp/",
        "beds": "520",
        "address": "富士市高島町50",
        "tel": "0545-52-1131",
        "lat": "35.158269",
        "lon": "138.670788"
    },
    {
        "id": "21",
        "type": "市町村",
        "name": "富士宮市立病院",
        "url": "http://fujinomiya-hp.jp",
        "beds": "380",
        "address": "富士宮市錦町3-1",
        "tel": "0544-27-3151",
        "lat": "35.219554",
        "lon": "138.615319"
    },
    {
        "id": "22",
        "type": "市町村",
        "name": "焼津市立総合病院",
        "url": "http://www.hospital.yaizu.shizuoka.jp/",
        "beds": "471",
        "address": "焼津市道原1000",
        "tel": "054-623-3111",
        "lat": "34.83772",
        "lon": "138.305564"
    },
    {
        "id": "23",
        "type": "地方独立行政法人",
        "name": "静岡県立総合病院",
        "url": "http://www.shizuoka-pho.jp/sogo/",
        "beds": "712",
        "address": "静岡市葵区北安東4-27-1",
        "tel": "054-247-6111",
        "lat": "35.003136",
        "lon": "138.386272"
    },
    {
        "id": "24",
        "type": "地方独立行政法人",
        "name": "静岡市立静岡病院",
        "url": "https://www.shizuokahospital.jp",
        "beds": "506",
        "address": "静岡市葵区追手町10-93",
        "tel": "054-253-3125",
        "lat": "34.978432",
        "lon": "138.380185"
    },
    {
        "id": "25",
        "type": "日赤",
        "name": "伊豆赤十字病院",
        "url": "http://izurc.jp",
        "beds": "94",
        "address": "伊豆市小立野100",
        "tel": "0558-72-2148",
        "lat": "34.97566",
        "lon": "138.94524"
    },
    {
        "id": "26",
        "type": "日赤",
        "name": "引佐赤十字病院",
        "url": "http://www.inasa.jrc.or.jp/",
        "beds": "99",
        "address": "浜松市北区引佐町金指1020",
        "tel": "053-542-0115",
        "lat": "34.819396",
        "lon": "137.681945"
    },
    {
        "id": "27",
        "type": "日赤",
        "name": "静岡赤十字病院",
        "url": "http://www.shizuoka-med.jrc.or.jp/",
        "beds": "465",
        "address": "静岡市葵区追手町8-2",
        "tel": "054-254-4311",
        "lat": "34.976412",
        "lon": "138.380497"
    },
    {
        "id": "28",
        "type": "日赤",
        "name": "裾野赤十字病院",
        "url": "http://www.susono-jrc.jp/",
        "beds": "104",
        "address": "裾野市佐野713",
        "tel": "055-992-0008",
        "lat": "35.179311",
        "lon": "138.911966"
    },
    {
        "id": "29",
        "type": "日赤",
        "name": "浜松赤十字病院",
        "url": "http://www.hamamatsu.jrc.or.jp",
        "beds": "312",
        "address": "浜松市浜北区小林1088-1",
        "tel": "053-401-1111",
        "lat": "34.806124",
        "lon": "137.79006"
    },
    {
        "id": "30",
        "type": "済生会",
        "name": "静岡済生会総合病院",
        "url": "http://www.siz.saiseikai.or.jp/hosp/",
        "beds": "521",
        "address": "静岡市駿河区小鹿1-1-1",
        "tel": "054-285-6171",
        "lat": "34.975457",
        "lon": "138.41309"
    },
    {
        "id": "31",
        "type": "厚生連",
        "name": "ＪＡ静岡厚生連遠州病院",
        "url": "http://k-enshu.ja-shizuoka.or.jp",
        "beds": "400",
        "address": "浜松市中区中央1-1-1",
        "tel": "053-453-1111",
        "lat": "34.71293",
        "lon": "137.734718"
    },
    {
        "id": "32",
        "type": "厚生連",
        "name": "ＪＡ静岡厚生連清水厚生病院",
        "url": "http://www.ja-shizuoka.or.jp/k-shimizu/",
        "beds": "154",
        "address": "静岡市清水区庵原町578-1",
        "tel": "054-366-3333",
        "lat": "35.045223",
        "lon": "138.474947"
    },
    {
        "id": "33",
        "type": "厚生連",
        "name": "静岡厚生病院",
        "url": "http://www.ja-shizuoka.or.jp/szkosei-hosp/",
        "beds": "265",
        "address": "静岡市葵区北番町23",
        "tel": "054-271-7177",
        "lat": "34.978829",
        "lon": "138.370236"
    },
    {
        "id": "34",
        "type": "厚生連",
        "name": "リハビリテーション中伊豆温泉病院",
        "url": "http://www.k-nakaizu.jp/",
        "beds": "285",
        "address": "伊豆市上白岩1000",
        "tel": "0558-83-3333",
        "lat": "34.960026",
        "lon": "138.98244"
    },
    {
        "id": "35",
        "type": "公益法人",
        "name": "公益社団法人有隣厚生会富士病院",
        "url": "http://www.yuurinkouseikai.or.jp/",
        "beds": "160",
        "address": "御殿場市新橋1784",
        "tel": "0550-83-3333",
        "lat": "35.298351",
        "lon": "138.935582"
    },
    {
        "id": "36",
        "type": "公益法人",
        "name": "東部病院",
        "url": "http://www.toububyouin.org/",
        "beds": "60",
        "address": "御殿場市茱萸沢1180-2",
        "tel": "0550-89-8000",
        "lat": "35.306193",
        "lon": "138.921031"
    },
    {
        "id": "37",
        "type": "公益法人",
        "name": "沼津リハビリテーション病院",
        "url": "http://www.fukkou-kai.jp/nrh/",
        "beds": "106",
        "address": "沼津市上香貫蔓陀ケ原2510-22",
        "tel": "055-931-1911",
        "lat": "35.074913",
        "lon": "138.863726"
    },
    {
        "id": "38",
        "type": "医療法人",
        "name": "熱川温泉病院",
        "url": "http://www.atagawa.gr.jp",
        "beds": "199",
        "address": "賀茂郡東伊豆町白田424",
        "tel": "0557-23-0843",
        "lat": "34.80697",
        "lon": "139.052933"
    },
    {
        "id": "39",
        "type": "医療法人",
        "name": "熱海所記念病院",
        "url": "http://atami-tokoro.jp/",
        "beds": "144",
        "address": "熱海市昭和町20-20",
        "tel": "0557-82-3000",
        "lat": "35.091503",
        "lon": "139.06853"
    },
    {
        "id": "40",
        "type": "医療法人",
        "name": "池田病院",
        "url": "http://www.ikeda-hp-g.or.jp",
        "beds": "88",
        "address": "駿東郡長泉町本宿411-5",
        "tel": "055-986-1212",
        "lat": "35.120475",
        "lon": "138.890461"
    },
    {
        "id": "41",
        "type": "医療法人",
        "name": "伊豆平和病院",
        "url": "http://www.shinkohkai.jp/heiwa/",
        "beds": "169",
        "address": "田方郡函南町平井1690-13",
        "tel": "055-974-1355",
        "lat": "35.106757",
        "lon": "138.987424"
    },
    {
        "id": "42",
        "type": "医療法人",
        "name": "岡本石井病院",
        "url": "http://www.seishinkai-med.or.jp/",
        "beds": "197",
        "address": "焼津市小川新町5-2-3",
        "tel": "054-627-5585",
        "lat": "34.853323",
        "lon": "138.317899"
    },
    {
        "id": "43",
        "type": "医療法人",
        "name": "御殿場かいせい病院",
        "url": "http://www.gotenba-kaisei.jp",
        "beds": "120",
        "address": "御殿場市大坂57-8",
        "tel": "0550-87-3737",
        "lat": "35.245336",
        "lon": "138.925084"
    },
    {
        "id": "44",
        "type": "医療法人",
        "name": "湖山リハビリテーション病院",
        "url": "http://www.momoha.or.jp",
        "beds": "192",
        "address": "富士市大渕405-25",
        "tel": "0545-36-2000",
        "lat": "35.196312",
        "lon": "138.696868"
    },
    {
        "id": "45",
        "type": "医療法人",
        "name": "十全記念病院",
        "url": "http://www.jyuzen-byouin.com/",
        "beds": "299",
        "address": "浜松市浜北区小松1700",
        "tel": "053-586-1115",
        "lat": "34.792356",
        "lon": "137.764086"
    },
    {
        "id": "46",
        "type": "医療法人",
        "name": "杉山病院",
        "url": "http://sugiyamahospital.com/",
        "beds": "50",
        "address": "沼津市錦町3-5",
        "tel": "055-963-4114",
        "lat": "35.100644",
        "lon": "138.849752"
    },
    {
        "id": "47",
        "type": "医療法人",
        "name": "静清リハビリテーション病院",
        "url": "http://seiseiriha.com/",
        "beds": "250",
        "address": "静岡市葵区春日2-12-25",
        "tel": "054-653-5858",
        "lat": "34.979143",
        "lon": "138.403633"
    },
    {
        "id": "48",
        "type": "医療法人",
        "name": "芹沢病院",
        "url": "http://serizawa-hp.com/wp/",
        "beds": "105",
        "address": "三島市幸原町2-3-1",
        "tel": "055-986-1075",
        "lat": "35.138005",
        "lon": "138.912294"
    },
    {
        "id": "49",
        "type": "医療法人",
        "name": "天竜すずかけ病院",
        "url": "http://www.suzukake.or.jp/tenryu/",
        "beds": "165",
        "address": "浜松市天竜区二俣町二俣2396-56",
        "tel": "053-925-8111",
        "lat": "34.857156",
        "lon": "137.813846"
    },
    {
        "id": "50",
        "type": "医療法人",
        "name": "東名裾野病院",
        "url": "http://www.eikikai.or.jp/susono/",
        "beds": "142",
        "address": "裾野市御宿1472",
        "tel": "055-997-0200",
        "lat": "35.212544",
        "lon": "138.910642"
    },
    {
        "id": "51",
        "type": "医療法人",
        "name": "長岡リハビリテーション病院",
        "url": "http://www.naga-reha.or.jp",
        "beds": "54",
        "address": "伊豆の国市長岡946",
        "tel": "055-948-0555",
        "lat": "35.037123",
        "lon": "138.930792"
    },
    {
        "id": "52",
        "type": "医療法人",
        "name": "西伊豆健育会病院",
        "url": "http://www.nishiizu.gr.jp",
        "beds": "78",
        "address": "賀茂郡西伊豆町仁科138-2",
        "tel": "0558-52-2366",
        "lat": "34.770273",
        "lon": "138.780325"
    },
    {
        "id": "53",
        "type": "医療法人",
        "name": "榛原総合病院",
        "url": "http://www.hospital.haibara.shizuoka.jp/",
        "beds": "450",
        "address": "牧之原市細江2887-1",
        "tel": "0548-22-1131",
        "lat": "34.755743",
        "lon": "138.237583"
    },
    {
        "id": "54",
        "type": "医療法人",
        "name": "浜松南病院",
        "url": "http://www.hamamatsu-minami.com/",
        "beds": "150",
        "address": "浜松市南区白羽町26",
        "tel": "053-443-2111",
        "lat": "34.684479",
        "lon": "137.739188"
    },
    {
        "id": "55",
        "type": "医療法人",
        "name": "藤枝平成記念病院",
        "url": "http://wwww.heiseihp.com/",
        "beds": "199",
        "address": "藤枝市水上123-1",
        "tel": "054-643-1230",
        "lat": "34.854022",
        "lon": "138.243007"
    },
    {
        "id": "56",
        "type": "医療法人",
        "name": "富士山麓病院",
        "url": "http://www.ninchisyo.jp/",
        "beds": "168",
        "address": "御殿場市中畑1932",
        "tel": "0550-89-5671",
        "lat": "35.314127",
        "lon": "138.885779"
    },
    {
        "id": "57",
        "type": "医療法人",
        "name": "富士整形外科病院",
        "url": "http://www.fujiseikei.com",
        "beds": "106",
        "address": "富士市錦町1-4-23",
        "tel": "0545-51-3751",
        "lat": "35.159525",
        "lon": "138.679275"
    },
    {
        "id": "58",
        "type": "医療法人",
        "name": "フジ虎ノ門整形外科病院",
        "url": "http://toranomon.or.jp/",
        "beds": "211",
        "address": "御殿場市川島田1067-1",
        "tel": "0550-89-7872",
        "lat": "35.295221",
        "lon": "138.919378"
    },
    {
        "id": "59",
        "type": "医療法人",
        "name": "三島中央病院",
        "url": "http://mchp.or.jp/",
        "beds": "196",
        "address": "三島市緑町1-3",
        "tel": "055-971-4133",
        "lat": "35.117262",
        "lon": "138.912476"
    },
    {
        "id": "60",
        "type": "医療法人",
        "name": "三島東海病院",
        "url": "http://www.mishimatohkaihp.or.jp",
        "beds": "99",
        "address": "三島市川原ケ谷264-12",
        "tel": "055-972-9111",
        "lat": "35.123244",
        "lon": "138.933574"
    },
    {
        "id": "61",
        "type": "医療法人",
        "name": "三島森田病院",
        "url": "",
        "beds": "203",
        "address": "三島市徳倉1195-793",
        "tel": "055-986-3337",
        "lat": "35.155753",
        "lon": "138.922545"
    },
    {
        "id": "62",
        "type": "医療法人",
        "name": "山の上病院",
        "url": "http://www.yamanoue-hospital.jp",
        "beds": "401",
        "address": "静岡市清水区草ケ谷651-7",
        "tel": "054-363-1023",
        "lat": "35.052504",
        "lon": "138.489995"
    },
    {
        "id": "63",
        "type": "特定医療法人",
        "name": "松田病院",
        "url": "http://www.matsuda-hp.or.jp/index.php",
        "beds": "60",
        "address": "浜松市西区入野町753",
        "tel": "053-448-5121",
        "lat": "34.697772",
        "lon": "137.698583"
    },
    {
        "id": "64",
        "type": "社会医療法人",
        "name": "コミュニティーホスピタル甲賀病院",
        "url": "http://www.sunkohkai.or.jp",
        "beds": "407",
        "address": "焼津市大覚寺2-30-1",
        "tel": "054-628-5515",
        "lat": "34.875644",
        "lon": "138.300071"
    },
    {
        "id": "65",
        "type": "私立学校法人",
        "name": "国際医療福祉大学熱海病院",
        "url": "http://atami.iuhw.ac.jp/",
        "beds": "269",
        "address": "熱海市東海岸町13-1",
        "tel": "0557-81-9171",
        "lat": "35.103533",
        "lon": "139.08337"
    },
    {
        "id": "66",
        "type": "私立学校法人",
        "name": "順天堂大学医学部附属静岡病院",
        "url": "http://www.hosp-shizuoka.juntendo.ac.jp/",
        "beds": "577",
        "address": "伊豆の国市長岡1129",
        "tel": "055-948-3111",
        "lat": "35.02935",
        "lon": "138.935796"
    },
    {
        "id": "67",
        "type": "社会福祉法人",
        "name": "中伊豆リハビリテーションセンター",
        "url": "http://www.janrc.or.jp/",
        "beds": "140",
        "address": "伊豆市冷川1523-108",
        "tel": "0558-83-2111",
        "lat": "34.923897",
        "lon": "139.019839"
    },
    {
        "id": "68",
        "type": "社会福祉法人",
        "name": "聖隷浜松病院",
        "url": "http://www.seirei.or.jp/hamamatsu",
        "beds": "750",
        "address": "浜松市中区住吉2-12-12",
        "tel": "053-474-2222",
        "lat": "34.730519",
        "lon": "137.725833"
    },
    {
        "id": "69",
        "type": "社会福祉法人",
        "name": "総合病院聖隷三方原病院",
        "url": "http://www.seirei.or.jp/mikatahara/",
        "beds": "934",
        "address": "浜松市北区三方原町3453",
        "tel": "053-436-1251",
        "lat": "34.792371",
        "lon": "137.691012"
    },
    {
        "id": "70",
        "type": "会社",
        "name": "ＮＴＴ東日本伊豆病院",
        "url": "http://www.ntt-east.co.jp/izu_mhc/",
        "beds": "196",
        "address": "田方郡函南町平井750",
        "tel": "055-978-2320",
        "lat": "35.088708",
        "lon": "138.954887"
    },
    {
        "id": "71",
        "type": "その他法人",
        "name": "聖隷沼津病院",
        "url": "http://www.seirei.or.jp/numazu-hp/",
        "beds": "246",
        "address": "沼津市本字松下七反田902-6",
        "tel": "055-952-1000",
        "lat": "35.094563",
        "lon": "138.85051"
    },
    {
        "id": "72",
        "type": "その他法人",
        "name": "聖隷富士病院",
        "url": "http://www.seirei.or.jp/rel/fuji/",
        "beds": "151",
        "address": "富士市南町3-1",
        "tel": "0545-52-0780",
        "lat": "35.16037",
        "lon": "138.687636"
    }
]