[
    {
        "id": "1",
        "type": "独立行政法人国立病院機構",
        "name": "豊橋医療センター",
        "url": "http://www.toyohashi-hosp.jp/",
        "beds": "414",
        "address": "豊橋市飯村町字浜道上50",
        "tel": "0532-62-0301",
        "lat": "34.746315",
        "lon": "137.43425"
    },
    {
        "id": "2",
        "type": "独立行政法人国立病院機構",
        "name": "名古屋医療センター",
        "url": "http://www.nnh.go.jp/",
        "beds": "728",
        "address": "名古屋市中区三の丸4-1-1",
        "tel": "052-951-1111",
        "lat": "35.184366",
        "lon": "136.905539"
    },
    {
        "id": "3",
        "type": "独立行政法人国立病院機構",
        "name": "東名古屋病院",
        "url": "https://higashinagoya.hosp.go.jp/",
        "beds": "370",
        "address": "名古屋市名東区梅森坂5-101",
        "tel": "052-801-1151",
        "lat": "35.140179",
        "lon": "137.017379"
    },
    {
        "id": "4",
        "type": "独立行政法人労働者健康安全機構",
        "name": "旭労災病院",
        "url": "http://www.asahih.johas.go.jp",
        "beds": "250",
        "address": "尾張旭市平子町北61",
        "tel": "0561-54-3131",
        "lat": "35.223623",
        "lon": "137.016619"
    },
    {
        "id": "5",
        "type": "独立行政法人労働者健康安全機構",
        "name": "中部労災病院",
        "url": "http://www.chubuh.johas.go.jp",
        "beds": "556",
        "address": "名古屋市港区港明1-10-6",
        "tel": "052-652-5511",
        "lat": "35.108258",
        "lon": "136.889353"
    },
    {
        "id": "6",
        "type": "独立行政法人地域医療機能推進機構",
        "name": "中京病院",
        "url": "https://chukyo.jcho.go.jp/",
        "beds": "661",
        "address": "名古屋市南区三条1-1-10",
        "tel": "052-691-7151",
        "lat": "35.109881",
        "lon": "136.901974"
    },
    {
        "id": "7",
        "type": "都道府県",
        "name": "愛知県医療療育総合センター中央病院",
        "url": "http://www.aichi-colony.jp/",
        "beds": "267",
        "address": "春日井市神屋町713-8",
        "tel": "0568-88-0811",
        "lat": "35.303501",
        "lon": "137.038171"
    },
    {
        "id": "8",
        "type": "都道府県",
        "name": "愛知県がんセンター",
        "url": "http://www.pref.aichi.jp/cancer-center/hosp/",
        "beds": "500",
        "address": "名古屋市千種区鹿子殿1-1",
        "tel": "052-762-6111",
        "lat": "35.175783",
        "lon": "136.971823"
    },
    {
        "id": "9",
        "type": "都道府県",
        "name": "愛知県精神医療センター",
        "url": "http://www.pref.aichi.jp/seishiniryo-center",
        "beds": "273",
        "address": "名古屋市千種区徳川山町4-1-7",
        "tel": "052-763-1511",
        "lat": "35.172502",
        "lon": "136.968681"
    },
    {
        "id": "10",
        "type": "都道府県",
        "name": "あいち小児保健医療総合センター",
        "url": "http://www.achmc.pref.aichi.jp/",
        "beds": "200",
        "address": "大府市森岡町7-426",
        "tel": "0562-43-0500",
        "lat": "34.998586",
        "lon": "136.954122"
    },
    {
        "id": "11",
        "type": "市町村",
        "name": "あま市民病院",
        "url": "http://www.city-ama-hosp.jp",
        "beds": "180",
        "address": "あま市甚目寺畦田1番地",
        "tel": "052-444-0050",
        "lat": "35.19997",
        "lon": "136.825897"
    },
    {
        "id": "12",
        "type": "市町村",
        "name": "一宮市立市民病院",
        "url": "https://www.municipal-hospital.ichinomiya.aichi.jp",
        "beds": "594",
        "address": "一宮市文京2-2-22",
        "tel": "0586-71-1911",
        "lat": "35.312744",
        "lon": "136.805846"
    },
    {
        "id": "13",
        "type": "市町村",
        "name": "稲沢市民病院",
        "url": "http://www.inazawa-hospital.jp/",
        "beds": "320",
        "address": "稲沢市長束町沼100",
        "tel": "0587-32-2111",
        "lat": "35.241315",
        "lon": "136.809101"
    },
    {
        "id": "14",
        "type": "市町村",
        "name": "岡崎市民病院",
        "url": "http://www.okazakihospital.jp",
        "beds": "715",
        "address": "岡崎市高隆寺町字五所合3-1",
        "tel": "0564-21-8111",
        "lat": "34.949532",
        "lon": "137.203769"
    },
    {
        "id": "15",
        "type": "市町村",
        "name": "岡崎市立愛知病院",
        "url": "http://aichihospital.okazakihospital.jp/",
        "beds": "151",
        "address": "岡崎市欠町字栗宿18-1",
        "tel": "0564-21-6251",
        "lat": "34.951748",
        "lon": "137.194415"
    },
    {
        "id": "16",
        "type": "市町村",
        "name": "春日井市民病院",
        "url": "http://www.hospital.kasugai.aichi.jp/",
        "beds": "558",
        "address": "春日井市鷹来町1-1-1",
        "tel": "0568-57-0057",
        "lat": "35.271883",
        "lon": "136.969325"
    },
    {
        "id": "17",
        "type": "市町村",
        "name": "蒲郡市民病院",
        "url": "http://gamagori-hospital.com/",
        "beds": "382",
        "address": "蒲郡市平田町向田1-1",
        "tel": "0533-66-2200",
        "lat": "34.832075",
        "lon": "137.241931"
    },
    {
        "id": "18",
        "type": "市町村",
        "name": "公立陶生病院",
        "url": "http://www.tosei.or.jp/",
        "beds": "633",
        "address": "瀬戸市西追分町160番地",
        "tel": "0561-82-5101",
        "lat": "35.225845",
        "lon": "137.0818"
    },
    {
        "id": "19",
        "type": "市町村",
        "name": "公立西知多総合病院",
        "url": "http://www.nishichita-hp.aichi.jp/",
        "beds": "468",
        "address": "東海市中ノ池3-1-1",
        "tel": "0562-33-5500",
        "lat": "34.999141",
        "lon": "136.89912"
    },
    {
        "id": "20",
        "type": "市町村",
        "name": "小牧市民病院",
        "url": "http://www.komakihp.gr.jp/",
        "beds": "558",
        "address": "小牧市常普請1-20",
        "tel": "0568-76-4131",
        "lat": "35.287345",
        "lon": "136.917165"
    },
    {
        "id": "21",
        "type": "市町村",
        "name": "新城市民病院",
        "url": "http://www.hospital.shinshiro.aichi.jp/",
        "beds": "199",
        "address": "新城市字北畑32-1",
        "tel": "0536-22-2171",
        "lat": "34.898333",
        "lon": "137.48969"
    },
    {
        "id": "22",
        "type": "市町村",
        "name": "津島市民病院",
        "url": "http://www.tsushimacity-hp.jp",
        "beds": "440",
        "address": "津島市橘町3-73",
        "tel": "0567-28-5151",
        "lat": "35.173791",
        "lon": "136.737593"
    },
    {
        "id": "23",
        "type": "市町村",
        "name": "常滑市民病院",
        "url": "http://www.tokonamecityhospital.jp/",
        "beds": "267",
        "address": "常滑市飛香台3-3-3",
        "tel": "0569-35-3170",
        "lat": "34.895044",
        "lon": "136.85335"
    },
    {
        "id": "24",
        "type": "市町村",
        "name": "豊川市民病院",
        "url": "http://www.toyokawa-ch-aichi.jp/",
        "beds": "527",
        "address": "豊川市八幡町野路23",
        "tel": "0533-86-1111",
        "lat": "34.828382",
        "lon": "137.351527"
    },
    {
        "id": "25",
        "type": "市町村",
        "name": "豊橋市民病院",
        "url": "http://www.municipal-hospital.toyohashi.aichi.jp/",
        "beds": "800",
        "address": "豊橋市青竹町字八間西50",
        "tel": "0532-33-6111",
        "lat": "34.760904",
        "lon": "137.34882"
    },
    {
        "id": "26",
        "type": "市町村",
        "name": "西尾市民病院",
        "url": "http://nishio-shimin-byouin.jp/",
        "beds": "372",
        "address": "西尾市熊味町上泡原6",
        "tel": "0563-56-3171",
        "lat": "34.873711",
        "lon": "137.068205"
    },
    {
        "id": "27",
        "type": "市町村",
        "name": "半田市立半田病院",
        "url": "http://www.handa-city-hospital.jp/",
        "beds": "499",
        "address": "半田市東洋町2-29",
        "tel": "0569-22-9881",
        "lat": "34.89216",
        "lon": "136.939763"
    },
    {
        "id": "28",
        "type": "市町村",
        "name": "碧南市民病院",
        "url": "http://www.city.hekinan.aichi.jp/HOSPITAL/",
        "beds": "319",
        "address": "碧南市平和町3-6",
        "tel": "0566-48-5050",
        "lat": "34.901792",
        "lon": "137.012981"
    },
    {
        "id": "29",
        "type": "市町村",
        "name": "みよし市民病院",
        "url": "http://www.hospital-miyoshi.jp/",
        "beds": "122",
        "address": "みよし市三好町八和田山15",
        "tel": "0561-33-3300",
        "lat": "35.07937",
        "lon": "137.07745"
    },
    {
        "id": "30",
        "type": "地方独立行政法人",
        "name": "名古屋市立大学病院",
        "url": "https://w3hosp.med.nagoya-cu.ac.jp/",
        "beds": "800",
        "address": "名古屋市瑞穂区瑞穂町字川澄1",
        "tel": "052-851-5511",
        "lat": "35.138728",
        "lon": "136.934926"
    },
    {
        "id": "31",
        "type": "日赤",
        "name": "名古屋第一赤十字病院",
        "url": "http://www.nagoya-1st.jrc.or.jp/",
        "beds": "852",
        "address": "名古屋市中村区道下町3-35",
        "tel": "052-481-5111",
        "lat": "35.171762",
        "lon": "136.862529"
    },
    {
        "id": "32",
        "type": "日赤",
        "name": "名古屋第二赤十字病院",
        "url": "http://www.nagoya2.jrc.or.jp/",
        "beds": "812",
        "address": "名古屋市昭和区妙見町2-9",
        "tel": "052-832-1121",
        "lat": "35.145111",
        "lon": "136.966278"
    },
    {
        "id": "33",
        "type": "済生会",
        "name": "愛知県済生会リハビリテーション病院",
        "url": "http://www.aichi.saiseikai.or.jp/",
        "beds": "199",
        "address": "名古屋市西区栄生1-1-18",
        "tel": "052-571-5251",
        "lat": "35.186587",
        "lon": "136.878688"
    },
    {
        "id": "34",
        "type": "厚生連",
        "name": "足助病院",
        "url": "http://www.jaaikosei.or.jp/asuke/",
        "beds": "148",
        "address": "豊田市岩神町仲田20",
        "tel": "0565-62-1211",
        "lat": "35.130326",
        "lon": "137.305658"
    },
    {
        "id": "35",
        "type": "厚生連",
        "name": "渥美病院",
        "url": "http://www.jaaikosei.or.jp/atsumi/",
        "beds": "316",
        "address": "田原市神戸町赤石1-1",
        "tel": "0531-22-2131",
        "lat": "34.659705",
        "lon": "137.274006"
    },
    {
        "id": "36",
        "type": "厚生連",
        "name": "安城更生病院",
        "url": "http://www.kosei.anjo.aichi.jp/top/index.cfm",
        "beds": "749",
        "address": "安城市安城町東広畔28",
        "tel": "0566-75-2111",
        "lat": "34.940152",
        "lon": "137.077616"
    },
    {
        "id": "37",
        "type": "厚生連",
        "name": "稲沢厚生病院",
        "url": "http://www.jaaikosei.or.jp/inazawa/",
        "beds": "300",
        "address": "稲沢市祖父江町本甲拾町野7",
        "tel": "0587-97-2131",
        "lat": "35.252244",
        "lon": "136.732183"
    },
    {
        "id": "38",
        "type": "厚生連",
        "name": "海南病院",
        "url": "http://www.kainan.jaaikosei.or.jp/",
        "beds": "540",
        "address": "弥富市前ケ須町南本田396",
        "tel": "0567-65-2511",
        "lat": "35.108682",
        "lon": "136.723355"
    },
    {
        "id": "39",
        "type": "厚生連",
        "name": "江南厚生病院",
        "url": "http://www.jaaikosei.or.jp/konan/",
        "beds": "684",
        "address": "江南市高屋町大松原137",
        "tel": "0587-51-3333",
        "lat": "35.356558",
        "lon": "136.878097"
    },
    {
        "id": "40",
        "type": "厚生連",
        "name": "知多厚生病院",
        "url": "http://www.jaaikosei.or.jp/chitakosei/",
        "beds": "259",
        "address": "知多郡美浜町河和字西谷81-6",
        "tel": "0569-82-0395",
        "lat": "34.775557",
        "lon": "136.906015"
    },
    {
        "id": "41",
        "type": "厚生連",
        "name": "豊田厚生病院",
        "url": "http://toyota.jaaikosei.or.jp/",
        "beds": "606",
        "address": "豊田市浄水町伊保原500-1",
        "tel": "0565-43-5000",
        "lat": "35.120317",
        "lon": "137.134703"
    },
    {
        "id": "42",
        "type": "健康保険組合及び連合会",
        "name": "中日病院",
        "url": "http://www.chunichi-hp.jp",
        "beds": "93",
        "address": "名古屋市中区丸の内3-12-3",
        "tel": "052-961-2491",
        "lat": "35.176361",
        "lon": "136.902081"
    },
    {
        "id": "43",
        "type": "健康保険組合及び連合会",
        "name": "ブラザー記念病院",
        "url": "http://www.brother-kinen-hp.jp",
        "beds": "59",
        "address": "名古屋市瑞穂区塩入町11-8",
        "tel": "052-824-2871",
        "lat": "35.118324",
        "lon": "136.920961"
    },
    {
        "id": "44",
        "type": "健康保険組合及び連合会",
        "name": "名鉄病院",
        "url": "http://www.meitetsu-hospital.jp/",
        "beds": "373",
        "address": "名古屋市西区栄生2-26-11",
        "tel": "052-551-6121",
        "lat": "35.184831",
        "lon": "136.872563"
    },
    {
        "id": "45",
        "type": "共済組合及び連合会",
        "name": "東海病院",
        "url": "http://www.toukaihosp.jp",
        "beds": "176",
        "address": "名古屋市千種区千代田橋1-1-1",
        "tel": "052-711-6131",
        "lat": "35.186283",
        "lon": "136.966542"
    },
    {
        "id": "46",
        "type": "共済組合及び連合会",
        "name": "名城病院",
        "url": "http://www.meijohosp.jp",
        "beds": "326",
        "address": "名古屋市中区三の丸1-3-1",
        "tel": "052-201-5311",
        "lat": "35.180493",
        "lon": "136.899674"
    },
    {
        "id": "47",
        "type": "公益法人",
        "name": "豊田地域医療センター",
        "url": "http://www.toyotachiiki-mc.or.jp",
        "beds": "150",
        "address": "豊田市西山町3-30-1",
        "tel": "0565-34-3000",
        "lat": "35.107848",
        "lon": "137.154369"
    },
    {
        "id": "48",
        "type": "公益法人",
        "name": "臨港病院",
        "url": "http://www1.ocn.ne.jp/~rinkouhp/",
        "beds": "186",
        "address": "名古屋市港区名港2-9-43",
        "tel": "052-661-1691",
        "lat": "35.095343",
        "lon": "136.883698"
    },
    {
        "id": "49",
        "type": "医療法人",
        "name": "相生山病院",
        "url": "http://www.aioiyama.or.jp/",
        "beds": "162",
        "address": "名古屋市緑区藤塚3-2704",
        "tel": "052-878-3711",
        "lat": "35.095098",
        "lon": "137.019101"
    },
    {
        "id": "50",
        "type": "医療法人",
        "name": "愛知国際病院",
        "url": "http://aisen-kai.jp/",
        "beds": "72",
        "address": "日進市米野木町南山987-31",
        "tel": "0561-73-7721",
        "lat": "35.133523",
        "lon": "137.086818"
    },
    {
        "id": "51",
        "type": "医療法人",
        "name": "青山病院",
        "url": "http://www.seto-aoyama.jp/",
        "beds": "89",
        "address": "瀬戸市南山町1-53",
        "tel": "0561-82-1118",
        "lat": "35.224362",
        "lon": "137.066476"
    },
    {
        "id": "52",
        "type": "医療法人",
        "name": "秋田病院",
        "url": "http://www.akitahospital.or.jp/",
        "beds": "150",
        "address": "知立市宝2-6-12",
        "tel": "0566-81-2763",
        "lat": "35.006585",
        "lon": "137.035331"
    },
    {
        "id": "53",
        "type": "医療法人",
        "name": "石川病院",
        "url": "http://www.japan-net.ne.jp/~isikawa1/",
        "beds": "60",
        "address": "知多郡武豊町ヒジリ田23",
        "tel": "0569-72-2345",
        "lat": "34.857216",
        "lon": "136.922351"
    },
    {
        "id": "54",
        "type": "医療法人",
        "name": "犬山病院",
        "url": "http://www.okeikai.or.jp",
        "beds": "409",
        "address": "犬山市塔野地字大畔10",
        "tel": "0568-61-1505",
        "lat": "35.370783",
        "lon": "136.974902"
    },
    {
        "id": "55",
        "type": "医療法人",
        "name": "鵜飼病院",
        "url": "http://ukaihp.kzan.jp/",
        "beds": "120",
        "address": "名古屋市中村区寿町30",
        "tel": "052-461-3131",
        "lat": "35.171444",
        "lon": "136.866633"
    },
    {
        "id": "56",
        "type": "医療法人",
        "name": "宇野病院",
        "url": "http://www.uno.or.jp",
        "beds": "180",
        "address": "岡崎市中岡崎町1-10",
        "tel": "0564-24-2211",
        "lat": "34.958075",
        "lon": "137.154833"
    },
    {
        "id": "57",
        "type": "医療法人",
        "name": "笠寺病院",
        "url": "http://www.kasadera.or.jp/",
        "beds": "128",
        "address": "名古屋市南区松池町3-19",
        "tel": "052-811-1151",
        "lat": "35.098762",
        "lon": "136.930627"
    },
    {
        "id": "58",
        "type": "医療法人",
        "name": "勝又病院",
        "url": "http://www.katsumata-hospital.or.jp",
        "beds": "118",
        "address": "名古屋市中区新栄1-32-22",
        "tel": "052-241-0408",
        "lat": "35.16401",
        "lon": "136.91862"
    },
    {
        "id": "59",
        "type": "医療法人",
        "name": "刈谷豊田総合病院",
        "url": "http://www.toyota-kai.or.jp/",
        "beds": "672",
        "address": "刈谷市住吉町5-15",
        "tel": "0566-21-2450",
        "lat": "34.983521",
        "lon": "137.005947"
    },
    {
        "id": "60",
        "type": "医療法人",
        "name": "木村病院",
        "url": "http://www.keimeikai.or.jp",
        "beds": "58",
        "address": "名古屋市名東区名東本通2-22-1",
        "tel": "052-781-1119",
        "lat": "35.160424",
        "lon": "136.991469"
    },
    {
        "id": "61",
        "type": "医療法人",
        "name": "肛門科胃腸科家田病院",
        "url": "http://ieda-hospital.jp/",
        "beds": "84",
        "address": "豊田市畝部西町城ケ堀11-1",
        "tel": "0565-21-0500",
        "lat": "35.008861",
        "lon": "137.145949"
    },
    {
        "id": "62",
        "type": "医療法人",
        "name": "小嶋病院",
        "url": "http://www.kojima-hosp.jp",
        "beds": "240",
        "address": "東海市大田町後田97",
        "tel": "0562-32-2145",
        "lat": "35.020651",
        "lon": "136.893431"
    },
    {
        "id": "63",
        "type": "医療法人",
        "name": "小林記念病院",
        "url": "http://www.aiseikan.or.jp/kobayashi/",
        "beds": "196",
        "address": "碧南市新川町3-88",
        "tel": "0566-41-0004",
        "lat": "34.897362",
        "lon": "136.989525"
    },
    {
        "id": "64",
        "type": "医療法人",
        "name": "済衆館病院",
        "url": "http://www.saishukan.com",
        "beds": "369",
        "address": "北名古屋市鹿田西村前111",
        "tel": "0568-21-0811",
        "lat": "35.242372",
        "lon": "136.87727"
    },
    {
        "id": "65",
        "type": "医療法人",
        "name": "さくら総合病院",
        "url": "http://www.ijinkai.or.jp",
        "beds": "390",
        "address": "丹羽郡大口町新宮1-129",
        "tel": "0587-95-6711",
        "lat": "35.329535",
        "lon": "136.920766"
    },
    {
        "id": "66",
        "type": "医療法人",
        "name": "三九朗病院",
        "url": "http://www.sankuro.or.jp",
        "beds": "140",
        "address": "豊田市小坂町7-80",
        "tel": "0565-32-0282",
        "lat": "35.086859",
        "lon": "137.143804"
    },
    {
        "id": "67",
        "type": "医療法人",
        "name": "重工記念病院",
        "url": "http://inf1nasw.mhi.co.jp/",
        "beds": "113",
        "address": "名古屋市熱田区外土居町7-8",
        "tel": "052-671-5161",
        "lat": "35.136582",
        "lon": "136.906393"
    },
    {
        "id": "68",
        "type": "医療法人",
        "name": "杉石病院",
        "url": "http://www.sugiishi.or.jp",
        "beds": "140",
        "address": "知多郡武豊町向陽1-117",
        "tel": "0569-72-1155",
        "lat": "34.848262",
        "lon": "136.91161"
    },
    {
        "id": "69",
        "type": "医療法人",
        "name": "すぎやま病院",
        "url": "http://www.sugiyamahp.com/",
        "beds": "55",
        "address": "名古屋市名東区社台3-10",
        "tel": "052-774-8222",
        "lat": "35.174877",
        "lon": "137.002047"
    },
    {
        "id": "70",
        "type": "医療法人",
        "name": "善常会リハビリテーション病院",
        "url": "http://www.zenjokai.jp/top.html",
        "beds": "95",
        "address": "名古屋市南区松池町1-11",
        "tel": "052-811-9101",
        "lat": "35.100274",
        "lon": "136.929758"
    },
    {
        "id": "71",
        "type": "医療法人",
        "name": "髙木病院",
        "url": "http://www.daijinkai.jp/takagi/",
        "beds": "67",
        "address": "名古屋市瑞穂区瑞穂通5-1",
        "tel": "052-852-5211",
        "lat": "35.127274",
        "lon": "136.934784"
    },
    {
        "id": "72",
        "type": "医療法人",
        "name": "高須病院",
        "url": "http://www.takasu-hp.or.jp/",
        "beds": "105",
        "address": "西尾市一色町赤羽上郷中113-1",
        "tel": "0563-72-1701",
        "lat": "34.818941",
        "lon": "137.019005"
    },
    {
        "id": "73",
        "type": "医療法人",
        "name": "東海記念病院",
        "url": "http://www.t-m-h.jp/",
        "beds": "199",
        "address": "春日井市廻間町字大洞681-47",
        "tel": "0568-88-0568",
        "lat": "35.292344",
        "lon": "137.030978"
    },
    {
        "id": "74",
        "type": "医療法人",
        "name": "豊橋元町病院",
        "url": "http://www.toyookakai.or.jp/hospital/motomachi.php",
        "beds": "165",
        "address": "豊橋市南大清水町字元町205",
        "tel": "0532-26-1000",
        "lat": "34.694203",
        "lon": "137.363599"
    },
    {
        "id": "75",
        "type": "医療法人",
        "name": "中野胃腸病院",
        "url": "http://hospital.nakanohp.com/",
        "beds": "67",
        "address": "豊田市駒新町金山1-12",
        "tel": "0565-57-1611",
        "lat": "35.018534",
        "lon": "137.04711"
    },
    {
        "id": "76",
        "type": "医療法人",
        "name": "名古屋共立病院",
        "url": "http://www.kaikou.or.jp/kyouritsu/",
        "beds": "156",
        "address": "名古屋市中川区法華1-172",
        "tel": "052-362-5151",
        "lat": "35.127332",
        "lon": "136.848178"
    },
    {
        "id": "77",
        "type": "医療法人",
        "name": "名古屋徳洲会総合病院",
        "url": "http://www.nagoya.tokushukai.or.jp",
        "beds": "350",
        "address": "春日井市高蔵寺町北2-52",
        "tel": "0568-51-8711",
        "lat": "35.2652",
        "lon": "137.039795"
    },
    {
        "id": "78",
        "type": "医療法人",
        "name": "野垣病院",
        "url": "http://www.nogaki-hp.or.jp/",
        "beds": "99",
        "address": "名古屋市瑞穂区川澄町1-12",
        "tel": "052-852-1211",
        "lat": "35.138258",
        "lon": "136.93696"
    },
    {
        "id": "79",
        "type": "医療法人",
        "name": "はるひ呼吸器病院",
        "url": "http://www.kiyosu-kokyu",
        "beds": "120",
        "address": "清須市春日流8-1",
        "tel": "052-400-1777",
        "lat": "35.238651",
        "lon": "136.849121"
    },
    {
        "id": "80",
        "type": "医療法人",
        "name": "樋口病院",
        "url": "http://seishunkai.or.jp/higuchi-hp/",
        "beds": "43",
        "address": "豊川市諏訪2-145",
        "tel": "0533-86-8131",
        "lat": "34.824999",
        "lon": "137.371443"
    },
    {
        "id": "81",
        "type": "医療法人",
        "name": "平岩病院",
        "url": "",
        "beds": "60",
        "address": "名古屋市緑区鳴海町字相原町26",
        "tel": "052-621-0002",
        "lat": "35.078883",
        "lon": "136.952289"
    },
    {
        "id": "82",
        "type": "医療法人",
        "name": "南豊田病院",
        "url": "http://www.minamitoyota-hp.or.jp",
        "beds": "240",
        "address": "豊田市広美町郷西80",
        "tel": "0565-21-0331",
        "lat": "35.006641",
        "lon": "137.117179"
    },
    {
        "id": "83",
        "type": "医療法人",
        "name": "メイトウホスピタル",
        "url": "http://www.meitoh-hsp.or.jp/",
        "beds": "101",
        "address": "名古屋市名東区上社3-1911",
        "tel": "052-701-7000",
        "lat": "35.172507",
        "lon": "137.007527"
    },
    {
        "id": "84",
        "type": "医療法人",
        "name": "守山友愛病院",
        "url": "http://www.yuujinkai.or.jp/",
        "beds": "20",
        "address": "名古屋市守山区瀬古東2-411",
        "tel": "052-793-7655",
        "lat": "35.20929",
        "lon": "136.942685"
    },
    {
        "id": "85",
        "type": "医療法人",
        "name": "山下病院",
        "url": "http://www.yamashita-hp.jp",
        "beds": "102",
        "address": "一宮市中町1-3-5",
        "tel": "0586-45-4511",
        "lat": "35.295697",
        "lon": "136.798548"
    },
    {
        "id": "86",
        "type": "医療法人",
        "name": "弥生病院",
        "url": "http://www.yayoi-hp.or.jp/",
        "beds": "130",
        "address": "豊橋市弥生町字東豊和96",
        "tel": "0532-48-2211",
        "lat": "34.733821",
        "lon": "137.39237"
    },
    {
        "id": "87",
        "type": "医療法人",
        "name": "横山記念病院",
        "url": "http://www.yokoyama-hospital.or.jp",
        "beds": "56",
        "address": "名古屋市中区千代田3-11-20",
        "tel": "052-332-1811",
        "lat": "35.15536",
        "lon": "136.915728"
    },
    {
        "id": "88",
        "type": "医療法人",
        "name": "吉田病院",
        "url": "http://www.yoshidahp.jp/",
        "beds": "108",
        "address": "名古屋市千種区大久手町５－１９",
        "tel": "052-741-4187",
        "lat": "35.161514",
        "lon": "136.937241"
    },
    {
        "id": "89",
        "type": "医療法人",
        "name": "和田内科病院",
        "url": "http://www.wada-hospital.or.jp",
        "beds": "78",
        "address": "名古屋市千種区今池南25-5",
        "tel": "052-732-1118",
        "lat": "35.163269",
        "lon": "136.940287"
    },
    {
        "id": "90",
        "type": "特定医療法人",
        "name": "あいちリハビリテーション病院",
        "url": "http://www.jhn.or.jp/aichi-riha-hp/",
        "beds": "145",
        "address": "西尾市江原町西柄1-1",
        "tel": "0563-52-9001",
        "lat": "34.868543",
        "lon": "137.091689"
    },
    {
        "id": "91",
        "type": "特定医療法人",
        "name": "熱田リハビリテーション病院",
        "url": "https://www.kyoenkai.or.jp",
        "beds": "160",
        "address": "名古屋市熱田区六番一丁目1番19号",
        "tel": "052-682-3077",
        "lat": "35.126339",
        "lon": "136.889175"
    },
    {
        "id": "92",
        "type": "特定医療法人",
        "name": "眼科杉田病院",
        "url": "http://www.sugita.or.jp/",
        "beds": "60",
        "address": "名古屋市中区栄5-1-30",
        "tel": "052-251-6571",
        "lat": "35.165372",
        "lon": "136.910088"
    },
    {
        "id": "93",
        "type": "特定医療法人",
        "name": "第一なるみ病院",
        "url": "www.narumikai.or.jp/hospital/",
        "beds": "130",
        "address": "名古屋市緑区細口一丁目210番地",
        "tel": "052-876-8361",
        "lat": "35.087447",
        "lon": "136.987431"
    },
    {
        "id": "94",
        "type": "特定医療法人",
        "name": "泰玄会病院",
        "url": "https://www.taigenkai.or.jp/hospital/taigenkai/index.php",
        "beds": "133",
        "address": "一宮市東五城字備前1-1",
        "tel": "0586-61-2121",
        "lat": "35.309027",
        "lon": "136.75255"
    },
    {
        "id": "95",
        "type": "特定医療法人",
        "name": "二川病院",
        "url": "http://futagawa-hp.or.jp",
        "beds": "99",
        "address": "豊橋市大岩町字北元屋敷36-3",
        "tel": "0532-41-0011",
        "lat": "34.726793",
        "lon": "137.440647"
    },
    {
        "id": "96",
        "type": "特定医療法人",
        "name": "増子記念病院",
        "url": "http://www.syusaikai.com/",
        "beds": "102",
        "address": "名古屋市中村区竹橋町35-28",
        "tel": "052-451-1307",
        "lat": "35.168435",
        "lon": "136.873612"
    },
    {
        "id": "97",
        "type": "社会医療法人",
        "name": "一宮西病院",
        "url": "http://www.anzu.or.jp/ichinomiyanishi/",
        "beds": "440",
        "address": "一宮市開明字平1",
        "tel": "0586-48-0077",
        "lat": "35.313517",
        "lon": "136.777932"
    },
    {
        "id": "98",
        "type": "社会医療法人",
        "name": "いまいせ心療センター",
        "url": "http://www.anzu.or.jp",
        "beds": "156",
        "address": "一宮市今伊勢町宮後字郷中茶原30",
        "tel": "0586-45-2531",
        "lat": "35.319204",
        "lon": "136.785001"
    },
    {
        "id": "99",
        "type": "社会医療法人",
        "name": "大隈病院",
        "url": "https://www.ookuma-hospital.or.jp/",
        "beds": "157",
        "address": "名古屋市北区大曽根2-9-34",
        "tel": "052-991-2111",
        "lat": "35.190814",
        "lon": "136.932691"
    },
    {
        "id": "100",
        "type": "社会医療法人",
        "name": "上飯田リハビリテーション病院",
        "url": "http://www.kami2-hp.jp",
        "beds": "98",
        "address": "名古屋市北区上飯田北町3-57",
        "tel": "052-916-3681",
        "lat": "35.206258",
        "lon": "136.931616"
    },
    {
        "id": "101",
        "type": "社会医療法人",
        "name": "上林記念病院",
        "url": "http://www.anzu.or.jp/kamibayashikinen/",
        "beds": "451",
        "address": "一宮市奥町字下口西89-1",
        "tel": "0586-61-0110",
        "lat": "35.32759",
        "lon": "136.757144"
    },
    {
        "id": "102",
        "type": "社会医療法人",
        "name": "総合犬山中央病院",
        "url": "http://www.inuyamachuohospital.or.jp",
        "beds": "306",
        "address": "犬山市大字五郎丸字二タ子塚6",
        "tel": "0568-62-8111",
        "lat": "35.36386",
        "lon": "136.946989"
    },
    {
        "id": "103",
        "type": "社会医療法人",
        "name": "総合上飯田第一病院",
        "url": "http://www.kamiiida-hp.jp",
        "beds": "236",
        "address": "名古屋市北区上飯田北町2-70",
        "tel": "052-991-3111",
        "lat": "35.205401",
        "lon": "136.931499"
    },
    {
        "id": "104",
        "type": "社会医療法人",
        "name": "総合大雄会病院",
        "url": "http://www.daiyukai.or.jp/daiyukai/organization/medical_treatment/general_hospital.php",
        "beds": "379",
        "address": "一宮市桜1-9-9",
        "tel": "0586-72-1211",
        "lat": "35.30572",
        "lon": "136.806292"
    },
    {
        "id": "105",
        "type": "社会医療法人",
        "name": "大同病院",
        "url": "http://www.daidohp.or.jp/",
        "beds": "404",
        "address": "名古屋市南区白水町9",
        "tel": "052-611-6261",
        "lat": "35.074677",
        "lon": "136.907151"
    },
    {
        "id": "106",
        "type": "社会医療法人",
        "name": "大雄会第一病院",
        "url": "http://www.daiyukai.or.jp/daiyukai/organization/medical_treatment/daiichi_hospital.php",
        "beds": "132",
        "address": "一宮市羽衣1-6-12",
        "tel": "0586-72-1211",
        "lat": "35.305262",
        "lon": "136.809129"
    },
    {
        "id": "107",
        "type": "社会医療法人",
        "name": "東栄病院",
        "url": "http://toei-hos.sakura.ne.jp/",
        "beds": "40",
        "address": "北設楽郡東栄町大字三輪字上栗5",
        "tel": "0536-79-3311",
        "lat": "35.031136",
        "lon": "137.716601"
    },
    {
        "id": "108",
        "type": "社会医療法人",
        "name": "名古屋記念病院",
        "url": "http://www.hospy.or.jp/",
        "beds": "416",
        "address": "名古屋市天白区平針4-305",
        "tel": "052-804-1111",
        "lat": "35.121841",
        "lon": "137.00648"
    },
    {
        "id": "109",
        "type": "社会医療法人",
        "name": "成田記念病院",
        "url": "http://www.meiyokai.or.jp/narita/",
        "beds": "284",
        "address": "豊橋市羽根井本町134",
        "tel": "0532-31-2167",
        "lat": "34.758953",
        "lon": "137.378419"
    },
    {
        "id": "110",
        "type": "社会医療法人",
        "name": "尾西記念病院",
        "url": "http://www.anzu.or.jp/bisaikinen/",
        "beds": "137",
        "address": "一宮市冨田字宮東1718-1",
        "tel": "0586-62-2221",
        "lat": "35.294499",
        "lon": "136.741036"
    },
    {
        "id": "111",
        "type": "社会医療法人",
        "name": "八千代病院",
        "url": "http://www.yachiyo-hosp.or.jp/",
        "beds": "420",
        "address": "安城市住吉町2-2-7",
        "tel": "0566-97-8111",
        "lat": "34.986667",
        "lon": "137.07993"
    },
    {
        "id": "112",
        "type": "私立学校法人",
        "name": "愛知医科大学病院",
        "url": "http://www.aichi-med-u.ac.jp/hospital/index.html",
        "beds": "900",
        "address": "長久手市岩作雁又1-1",
        "tel": "0561-62-3311",
        "lat": "35.191466",
        "lon": "137.049613"
    },
    {
        "id": "113",
        "type": "私立学校法人",
        "name": "藤田医科大学病院",
        "url": "http://www.fujita-hu.ac.jp/HOSPITAL1/",
        "beds": "1435",
        "address": "豊明市沓掛町田楽ヶ窪1-98",
        "tel": "0562-93-2111",
        "lat": "35.069486",
        "lon": "137.001306"
    },
    {
        "id": "114",
        "type": "社会福祉法人",
        "name": "聖霊病院",
        "url": "http://www.seirei-hospital.org/",
        "beds": "198",
        "address": "名古屋市昭和区川名山町56",
        "tel": "052-832-1181",
        "lat": "35.144902",
        "lon": "136.955536"
    },
    {
        "id": "115",
        "type": "医療生協",
        "name": "総合病院南生協病院",
        "url": "http://www.minami.or.jp",
        "beds": "313",
        "address": "名古屋市緑区南大高2-204",
        "tel": "052-625-0373",
        "lat": "35.055696",
        "lon": "136.946154"
    },
    {
        "id": "116",
        "type": "会社",
        "name": "ＮＴＴ西日本東海病院",
        "url": "http://www.ntt-west.co.jp/tokai-hosp/",
        "beds": "150",
        "address": "名古屋市中区松原2-17-5",
        "tel": "052-291-6322",
        "lat": "35.155561",
        "lon": "136.894878"
    },
    {
        "id": "117",
        "type": "会社",
        "name": "トヨタ記念病院",
        "url": "http://www.toyota-mh.jp/",
        "beds": "527",
        "address": "豊田市平和町1-1",
        "tel": "0565-28-0100",
        "lat": "35.057668",
        "lon": "137.175591"
    },
    {
        "id": "118",
        "type": "会社",
        "name": "名古屋セントラル病院",
        "url": "http://nagoya-central-hospital.com/",
        "beds": "198",
        "address": "名古屋市中村区太閤3-7-7",
        "tel": "052-452-3165",
        "lat": "35.165624",
        "lon": "136.879461"
    },
    {
        "id": "119",
        "type": "その他法人",
        "name": "足立病院",
        "url": "http://www.adachi-hp.or.jp/",
        "beds": "60",
        "address": "春日井市若草通1-1",
        "tel": "0568-31-2195",
        "lat": "35.233975",
        "lon": "136.954976"
    },
    {
        "id": "120",
        "type": "その他法人",
        "name": "名古屋掖済会病院",
        "url": "http://nagoya-ekisaikaihosp.jp",
        "beds": "602",
        "address": "名古屋市中川区松年町4-66",
        "tel": "052-652-7711",
        "lat": "35.120343",
        "lon": "136.87269"
    }
]