[
    {
        "id": "1",
        "type": "独立行政法人国立病院機構",
        "name": "三重中央医療センター",
        "url": "http://www.miechuo-hosp.jp",
        "beds": "486",
        "address": "津市久居明神町2158-5",
        "tel": "059-259-1211",
        "lat": "34.686",
        "lon": "136.465001"
    },
    {
        "id": "2",
        "type": "独立行政法人地域医療機能推進機構",
        "name": "四日市羽津医療センター",
        "url": "http://yokkaichi.jcho.go.jp/",
        "beds": "226",
        "address": "四日市市羽津山町10-8",
        "tel": "059-331-2000",
        "lat": "34.989232",
        "lon": "136.626228"
    },
    {
        "id": "3",
        "type": "市町村",
        "name": "伊賀市立上野総合市民病院",
        "url": "http://www.cgh-iga.jp/",
        "beds": "281",
        "address": "伊賀市四十九町831",
        "tel": "0595-24-1111",
        "lat": "34.746061",
        "lon": "136.132417"
    },
    {
        "id": "4",
        "type": "市町村",
        "name": "尾鷲総合病院",
        "url": "http://owasehp.jp/",
        "beds": "255",
        "address": "尾鷲市上野町5-25",
        "tel": "0597-22-3111",
        "lat": "34.069817",
        "lon": "136.188455"
    },
    {
        "id": "5",
        "type": "市町村",
        "name": "市立伊勢総合病院",
        "url": "http://hospital.city.ise.mie.jp/",
        "beds": "300",
        "address": "伊勢市楠部町3038",
        "tel": "0596-23-5111",
        "lat": "34.482906",
        "lon": "136.726703"
    },
    {
        "id": "6",
        "type": "市町村",
        "name": "市立四日市病院",
        "url": "http://www.city.yokkaichi.mie.jp/hospital/",
        "beds": "568",
        "address": "四日市市芝田2-2-37",
        "tel": "059-354-1111",
        "lat": "34.971969",
        "lon": "136.607718"
    },
    {
        "id": "7",
        "type": "市町村",
        "name": "松阪市民病院",
        "url": "http://www.city.matsusaka.mie.jp/site/hosannai/",
        "beds": "328",
        "address": "松阪市殿町1550",
        "tel": "0598-23-1515",
        "lat": "34.577508",
        "lon": "136.525965"
    },
    {
        "id": "8",
        "type": "地方独立行政法人",
        "name": "桑名市総合医療センター",
        "url": "https://www.kuwanacmc.or.jp",
        "beds": "400",
        "address": "桑名市寿町3-11",
        "tel": "0594-22-1211",
        "lat": "35.065277",
        "lon": "136.686908"
    },
    {
        "id": "9",
        "type": "日赤",
        "name": "伊勢赤十字病院",
        "url": "http://www.ise.jrc.or.jp",
        "beds": "655",
        "address": "伊勢市船江1-471-2",
        "tel": "0596-28-2171",
        "lat": "34.500738",
        "lon": "136.713405"
    },
    {
        "id": "10",
        "type": "済生会",
        "name": "済生会松阪総合病院",
        "url": "http://www.matsusaka.saiseikai.or.jp",
        "beds": "430",
        "address": "松阪市朝日町1区15-6",
        "tel": "0598-51-2626",
        "lat": "34.579709",
        "lon": "136.537039"
    },
    {
        "id": "11",
        "type": "済生会",
        "name": "三重県済生会明和病院",
        "url": "http://www.meiwa-saiseikai.jp/",
        "beds": "264",
        "address": "多気郡明和町大字上野435",
        "tel": "0596-52-0131",
        "lat": "34.531512",
        "lon": "136.629986"
    },
    {
        "id": "12",
        "type": "厚生連",
        "name": "大台厚生病院",
        "url": "http://www.miekosei.or.jp/5_okh/",
        "beds": "110",
        "address": "多気郡大台町上三瀬663-2",
        "tel": "0598-82-1313",
        "lat": "34.397573",
        "lon": "136.417729"
    },
    {
        "id": "13",
        "type": "厚生連",
        "name": "鈴鹿厚生病院",
        "url": "http://www.miekosei.or.jp/7_skh/",
        "beds": "320",
        "address": "鈴鹿市岸岡町589-2",
        "tel": "059-382-1401",
        "lat": "34.856995",
        "lon": "136.601889"
    },
    {
        "id": "14",
        "type": "厚生連",
        "name": "鈴鹿中央総合病院",
        "url": "http://www.miekosei.or.jp/2_sch/",
        "beds": "460",
        "address": "鈴鹿市安塚町山之花1275-53",
        "tel": "059-382-1311",
        "lat": "34.865847",
        "lon": "136.56998"
    },
    {
        "id": "15",
        "type": "厚生連",
        "name": "松阪中央総合病院",
        "url": "http://www.miekosei.or.jp/1_mch/",
        "beds": "440",
        "address": "松阪市川井町字小望102",
        "tel": "0598-21-5252",
        "lat": "34.582102",
        "lon": "136.511623"
    },
    {
        "id": "16",
        "type": "厚生連",
        "name": "三重北医療センター　いなべ総合病院",
        "url": "http://www.miekosei.or.jp/4_ish/",
        "beds": "220",
        "address": "いなべ市北勢町阿下喜771",
        "tel": "0594-72-2000",
        "lat": "35.146552",
        "lon": "136.514382"
    },
    {
        "id": "17",
        "type": "厚生連",
        "name": "三重北医療センター　菰野厚生病院",
        "url": "http://www.miekosei.or.jp/3_kkh/",
        "beds": "230",
        "address": "三重郡菰野町大字福村75",
        "tel": "059-393-1212",
        "lat": "35.008656",
        "lon": "136.520848"
    },
    {
        "id": "18",
        "type": "医療法人",
        "name": "伊勢田中病院",
        "url": "http://www.isetanaka.jp/",
        "beds": "83",
        "address": "伊勢市大世古4-6-47",
        "tel": "0596-25-3111",
        "lat": "34.500262",
        "lon": "136.702382"
    },
    {
        "id": "19",
        "type": "医療法人",
        "name": "岩崎病院",
        "url": "http://www.iwasaki-hosp.or.jp/",
        "beds": "47",
        "address": "津市一身田町333",
        "tel": "059-232-2216",
        "lat": "34.759076",
        "lon": "136.509298"
    },
    {
        "id": "20",
        "type": "医療法人",
        "name": "倉本内科病院",
        "url": "http://www.kuramotohospital.net",
        "beds": "50",
        "address": "津市下弁財町津興3040",
        "tel": "059-227-6712",
        "lat": "34.704722",
        "lon": "136.510727"
    },
    {
        "id": "21",
        "type": "医療法人",
        "name": "榊原白鳳病院",
        "url": "http://www.ohrin-mc.jp/hakuho",
        "beds": "201",
        "address": "津市榊原町5630",
        "tel": "059-252-2300",
        "lat": "34.700561",
        "lon": "136.368944"
    },
    {
        "id": "22",
        "type": "医療法人",
        "name": "富田浜病院",
        "url": "http://tomidahama.jp/index.php",
        "beds": "145",
        "address": "四日市市富田浜町26-14",
        "tel": "059-365-0023",
        "lat": "34.998049",
        "lon": "136.652384"
    },
    {
        "id": "23",
        "type": "医療法人",
        "name": "永井病院",
        "url": "http://www.nagai-hp.or.jp/",
        "beds": "199",
        "address": "津市西丸之内29-29",
        "tel": "059-228-5181",
        "lat": "34.719182",
        "lon": "136.501579"
    },
    {
        "id": "24",
        "type": "医療法人",
        "name": "花の丘病院",
        "url": "http://www.shoutoku.or.jp/hananooka/",
        "beds": "96",
        "address": "松阪市山室町707-3",
        "tel": "0598-29-8700",
        "lat": "34.530607",
        "lon": "136.502651"
    },
    {
        "id": "25",
        "type": "医療法人",
        "name": "みたき総合病院",
        "url": "http://mitakihp.jp/",
        "beds": "199",
        "address": "四日市市生桑町菰池458-1",
        "tel": "059-330-6000",
        "lat": "34.979927",
        "lon": "136.603497"
    },
    {
        "id": "26",
        "type": "医療法人",
        "name": "村瀬病院",
        "url": "http://www.murase.or.jp/hospital/",
        "beds": "218",
        "address": "鈴鹿市神戸3-12-10",
        "tel": "0593-82-0330",
        "lat": "34.878452",
        "lon": "136.584074"
    },
    {
        "id": "27",
        "type": "医療法人",
        "name": "ヨナハ総合病院",
        "url": "http://www.yonaha.jp",
        "beds": "147",
        "address": "桑名市和泉8-264-3",
        "tel": "0594-23-2415",
        "lat": "35.043321",
        "lon": "136.680956"
    },
    {
        "id": "28",
        "type": "医療法人",
        "name": "若葉病院",
        "url": "http://wakabahsp.jp/",
        "beds": "130",
        "address": "津市南中央28-13",
        "tel": "059-227-0207",
        "lat": "34.707832",
        "lon": "136.509673"
    },
    {
        "id": "29",
        "type": "特定医療法人",
        "name": "榊原温泉病院",
        "url": "http://www.sakaki-hosp.jp/",
        "beds": "297",
        "address": "津市榊原町1033-4",
        "tel": "059-252-1111",
        "lat": "34.702353",
        "lon": "136.383758"
    },
    {
        "id": "30",
        "type": "特定医療法人",
        "name": "武内病院",
        "url": "http://www.takeuchi-hosp.jp/",
        "beds": "147",
        "address": "津市北丸之内82",
        "tel": "059-226-1111",
        "lat": "34.72231",
        "lon": "136.509384"
    },
    {
        "id": "31",
        "type": "特定医療法人",
        "name": "遠山病院",
        "url": "http://www.toyama-hp.jp",
        "beds": "180",
        "address": "津市南新町17-22",
        "tel": "059-227-6171",
        "lat": "34.714335",
        "lon": "136.498438"
    },
    {
        "id": "32",
        "type": "特定医療法人",
        "name": "山中胃腸科病院",
        "url": "http://www.yamanaka-hsp.or.jp/",
        "beds": "93",
        "address": "四日市市小古曽3-5-33",
        "tel": "059-345-0511",
        "lat": "34.926214",
        "lon": "136.587383"
    },
    {
        "id": "33",
        "type": "社会医療法人",
        "name": "鈴鹿回生病院",
        "url": "http://www.kaiseihp.com/",
        "beds": "379",
        "address": "鈴鹿市国府町112-1",
        "tel": "0593-75-1212",
        "lat": "34.86044",
        "lon": "136.495282"
    },
    {
        "id": "34",
        "type": "医療生協",
        "name": "津生協病院",
        "url": "http://www.tsucoop.jp/",
        "beds": "149",
        "address": "津市船頭町1721",
        "tel": "059-225-2848",
        "lat": "34.710205",
        "lon": "136.514739"
    }
]