[
    {
        "id": "1",
        "type": "独立行政法人国立病院機構",
        "name": "紫香楽病院",
        "url": "http://nho-shigaraki.jp/",
        "beds": "180",
        "address": "甲賀市信楽町牧997",
        "tel": "0748-83-0101",
        "lat": "34.915842",
        "lon": "136.084595"
    },
    {
        "id": "2",
        "type": "独立行政法人国立病院機構",
        "name": "東近江総合医療センター",
        "url": "https://higashiomi.hosp.go.jp/",
        "beds": "320",
        "address": "東近江市五智町255",
        "tel": "0748-22-3030",
        "lat": "35.094205",
        "lon": "136.229246"
    },
    {
        "id": "3",
        "type": "独立行政法人地域医療機能推進機構",
        "name": "滋賀病院",
        "url": "https://shiga.jcho.go.jp/",
        "beds": "325",
        "address": "大津市富士見台１６－１",
        "tel": "077-537-3101",
        "lat": "34.985793",
        "lon": "135.884648"
    },
    {
        "id": "4",
        "type": "都道府県",
        "name": "滋賀県立総合病院",
        "url": "http://www.pref.shiga.lg.jp/kensou/index.html",
        "beds": "535",
        "address": "守山市守山5-4-30",
        "tel": "077-582-5031",
        "lat": "35.061822",
        "lon": "135.988149"
    },
    {
        "id": "5",
        "type": "市町村",
        "name": "近江八幡市立総合医療センター",
        "url": "http://www.kenkou1.com/",
        "beds": "407",
        "address": "近江八幡市土田町1379",
        "tel": "0748-33-3151",
        "lat": "35.124247",
        "lon": "136.087178"
    },
    {
        "id": "6",
        "type": "市町村",
        "name": "公立甲賀病院",
        "url": "http://www.kohka-hp.or.jp/",
        "beds": "413",
        "address": "甲賀市水口町松尾1256",
        "tel": "0748-62-0234",
        "lat": "34.982684",
        "lon": "136.177922"
    },
    {
        "id": "7",
        "type": "市町村",
        "name": "市立長浜病院",
        "url": "http://www.nagahama-hp.jp/",
        "beds": "600",
        "address": "長浜市大戌亥町313",
        "tel": "0749-68-2300",
        "lat": "35.369486",
        "lon": "136.286463"
    },
    {
        "id": "8",
        "type": "市町村",
        "name": "高島市民病院",
        "url": "http://www.city.takashima.shiga.jp/tmh/",
        "beds": "210",
        "address": "高島市勝野1667",
        "tel": "0740-36-0220",
        "lat": "35.29237",
        "lon": "136.011451"
    },
    {
        "id": "9",
        "type": "市町村",
        "name": "長浜市立湖北病院",
        "url": "http://www.ikbk.jp",
        "beds": "140",
        "address": "長浜市木之本町黒田1221",
        "tel": "0749-82-3315",
        "lat": "35.50492",
        "lon": "136.212369"
    },
    {
        "id": "10",
        "type": "市町村",
        "name": "彦根市立病院",
        "url": "http://www.municipal-hp.hikone.shiga.jp",
        "beds": "438",
        "address": "彦根市八坂町1882",
        "tel": "0749-22-6050",
        "lat": "35.262094",
        "lon": "136.225134"
    },
    {
        "id": "11",
        "type": "地方独立行政法人",
        "name": "市立大津市民病院",
        "url": "https://och.or.jp/",
        "beds": "439",
        "address": "大津市本宮2-9-9",
        "tel": "077-522-4607",
        "lat": "34.999992",
        "lon": "135.876261"
    },
    {
        "id": "12",
        "type": "日赤",
        "name": "大津赤十字志賀病院",
        "url": "https://www.otsu-shiga.jrc.or.jp/",
        "beds": "150",
        "address": "大津市和邇中298",
        "tel": "077-594-8777",
        "lat": "35.15731",
        "lon": "135.913837"
    },
    {
        "id": "13",
        "type": "日赤",
        "name": "大津赤十字病院",
        "url": "http://www.otsu.jrc.or.jp",
        "beds": "796",
        "address": "大津市長等1-1-35",
        "tel": "077-522-4131",
        "lat": "35.007238",
        "lon": "135.859906"
    },
    {
        "id": "14",
        "type": "日赤",
        "name": "長浜赤十字病院",
        "url": "http://www.nagahama.jrc.or.jp/",
        "beds": "504",
        "address": "長浜市宮前町14-7",
        "tel": "0749-63-2111",
        "lat": "35.383482",
        "lon": "136.273326"
    },
    {
        "id": "15",
        "type": "済生会",
        "name": "済生会滋賀県病院",
        "url": "http://www.saiseikai-shiga.jp/",
        "beds": "393",
        "address": "栗東市大橋2-4-1",
        "tel": "077-552-1221",
        "lat": "35.033106",
        "lon": "136.001198"
    },
    {
        "id": "16",
        "type": "公益法人",
        "name": "ヴォーリズ記念病院",
        "url": "http://www.vories.or.jp/",
        "beds": "168",
        "address": "近江八幡市北之庄町492",
        "tel": "0748-32-5211",
        "lat": "35.15244",
        "lon": "136.08952"
    },
    {
        "id": "17",
        "type": "公益法人",
        "name": "滋賀八幡病院",
        "url": "http://www.seijyukai.jp/",
        "beds": "350",
        "address": "近江八幡市鷹飼町744",
        "tel": "0748-33-7101",
        "lat": "35.124866",
        "lon": "136.104142"
    },
    {
        "id": "18",
        "type": "公益法人",
        "name": "豊郷病院",
        "url": "http://www.toyosato.or.jp/",
        "beds": "338",
        "address": "犬上郡豊郷町八目12",
        "tel": "0749-35-3001",
        "lat": "35.198803",
        "lon": "136.231134"
    },
    {
        "id": "19",
        "type": "医療法人",
        "name": "甲南病院",
        "url": "http://www.kohnan-shiga.or.jp",
        "beds": "199",
        "address": "甲賀市甲南町葛木958",
        "tel": "0748-86-3131",
        "lat": "34.929007",
        "lon": "136.175371"
    },
    {
        "id": "20",
        "type": "医療法人",
        "name": "琵琶湖大橋病院",
        "url": "http://www.boh.or.jp",
        "beds": "199",
        "address": "大津市真野5-1-29",
        "tel": "077-573-4321",
        "lat": "35.128302",
        "lon": "135.922867"
    },
    {
        "id": "21",
        "type": "医療法人",
        "name": "琵琶湖中央病院",
        "url": "http://www.biwako-chuo-byoin.jp/",
        "beds": "180",
        "address": "大津市御殿浜22-33",
        "tel": "077-526-2131",
        "lat": "34.989374",
        "lon": "135.896177"
    },
    {
        "id": "22",
        "type": "医療法人",
        "name": "マキノ病院",
        "url": "http://www.makino-hosp.or.jp",
        "beds": "120",
        "address": "高島市マキノ町新保1097",
        "tel": "0740-27-0099",
        "lat": "35.44572",
        "lon": "136.032903"
    },
    {
        "id": "23",
        "type": "医療法人",
        "name": "南草津病院",
        "url": "http://www.373932hp.jp",
        "beds": "137",
        "address": "草津市野路5-2-39",
        "tel": "077-562-0724",
        "lat": "35.002109",
        "lon": "135.951602"
    },
    {
        "id": "24",
        "type": "医療法人",
        "name": "友仁山崎病院",
        "url": "http://www.yujin-yamazaki.co.jp/",
        "beds": "157",
        "address": "彦根市竹ヶ鼻町80",
        "tel": "0749-23-1800",
        "lat": "35.24115",
        "lon": "136.247663"
    },
    {
        "id": "25",
        "type": "特定医療法人",
        "name": "東近江敬愛病院",
        "url": "http://www.keiaikai.or.jp/",
        "beds": "154",
        "address": "東近江市八日市東本町8-16",
        "tel": "0748-22-2222",
        "lat": "35.108804",
        "lon": "136.204147"
    },
    {
        "id": "26",
        "type": "社会医療法人",
        "name": "草津総合病院",
        "url": "http://kusatsu-gh.or.jp/ghk/",
        "beds": "619",
        "address": "草津市矢橋町1660",
        "tel": "077-563-8866",
        "lat": "35.011133",
        "lon": "135.927073"
    },
    {
        "id": "27",
        "type": "社会福祉法人",
        "name": "セフィロト病院",
        "url": "http://www.seishokai.jp/sephiroth/",
        "beds": "179",
        "address": "長浜市寺田町257",
        "tel": "0749-62-1652",
        "lat": "35.364138",
        "lon": "136.28656"
    },
    {
        "id": "28",
        "type": "その他法人",
        "name": "今津病院",
        "url": "http://www.oumiairinen.org/hospital/",
        "beds": "80",
        "address": "高島市今津町南新保87-1",
        "tel": "0740-22-2238",
        "lat": "35.406953",
        "lon": "136.043135"
    }
]