[
    {
        "id": "1",
        "type": "独立行政法人国立病院機構",
        "name": "大阪医療センター",
        "url": "https://osaka.hosp.go.jp/html/fip/index.html",
        "beds": "692",
        "address": "大阪市中央区法円坂2-1-14",
        "tel": "06-6942-1331",
        "lat": "34.680216",
        "lon": "135.520294"
    },
    {
        "id": "2",
        "type": "独立行政法人国立病院機構",
        "name": "大阪南医療センター",
        "url": "http://www.hosp.go.jp/~ommedc/",
        "beds": "430",
        "address": "河内長野市木戸東町2-1",
        "tel": "0721-53-5761",
        "lat": "34.472613",
        "lon": "135.571421"
    },
    {
        "id": "3",
        "type": "独立行政法人国立病院機構",
        "name": "近畿中央呼吸器センター",
        "url": "http://www.hosp.go.jp/~kch/",
        "beds": "385",
        "address": "堺市北区長曽根町1180",
        "tel": "072-252-3021",
        "lat": "34.57043",
        "lon": "135.503118"
    },
    {
        "id": "4",
        "type": "独立行政法人労働者健康安全機構",
        "name": "大阪労災病院",
        "url": "http://www.osakah.johas.go.jp/",
        "beds": "678",
        "address": "堺市北区長曽根町1179-3",
        "tel": "072-252-3561",
        "lat": "34.567793",
        "lon": "135.507174"
    },
    {
        "id": "5",
        "type": "国立研究開発法人",
        "name": "国立循環器病研究センター病院",
        "url": "http://www.ncvc.go.jp/hospital/",
        "beds": "612",
        "address": "吹田市岸部新町6-1",
        "tel": "06-6170-1070",
        "lat": "34.779362",
        "lon": "135.540822"
    },
    {
        "id": "6",
        "type": "独立行政法人地域医療機能推進機構",
        "name": "大阪病院",
        "url": "http://osaka.jcho.go.jp",
        "beds": "565",
        "address": "大阪市福島区福島4-2-78",
        "tel": "06-6441-5451",
        "lat": "34.69191",
        "lon": "135.483229"
    },
    {
        "id": "7",
        "type": "独立行政法人地域医療機能推進機構",
        "name": "大阪みなと中央病院",
        "url": "https://minato.jcho.go.jp/",
        "beds": "275",
        "address": "大阪市港区築港1-8-30",
        "tel": "06-6572-5721",
        "lat": "34.653915",
        "lon": "135.435695"
    },
    {
        "id": "8",
        "type": "独立行政法人地域医療機能推進機構",
        "name": "星ヶ丘医療センター",
        "url": "http://hoshigaoka.jcho.go.jp",
        "beds": "580",
        "address": "枚方市星丘4-8-1",
        "tel": "072-840-2641",
        "lat": "34.81141",
        "lon": "135.667675"
    },
    {
        "id": "9",
        "type": "市町村",
        "name": "和泉市立総合医療センター",
        "url": "https://izumi-tokushukai.or.jp/",
        "beds": "307",
        "address": "和泉市和気町4-5-1",
        "tel": "0725-41-1331",
        "lat": "34.477787",
        "lon": "135.431008"
    },
    {
        "id": "10",
        "type": "市町村",
        "name": "市立池田病院",
        "url": "http://www.hosp.ikeda.osaka.jp/",
        "beds": "364",
        "address": "池田市城南3-1-18",
        "tel": "072-751-2881",
        "lat": "34.820982",
        "lon": "135.433404"
    },
    {
        "id": "11",
        "type": "市町村",
        "name": "市立柏原病院",
        "url": "http://www.hospital-kashiwara-osaka.jp",
        "beds": "220",
        "address": "柏原市法善寺1-7-9",
        "tel": "072-972-0885",
        "lat": "34.592667",
        "lon": "135.624776"
    },
    {
        "id": "12",
        "type": "市町村",
        "name": "市立豊中病院",
        "url": "http://www.chp.toyonaka.osaka.jp/",
        "beds": "613",
        "address": "豊中市柴原町4-14-1",
        "tel": "06-6843-0101",
        "lat": "34.802063",
        "lon": "135.458089"
    },
    {
        "id": "13",
        "type": "市町村",
        "name": "市立ひらかた病院",
        "url": "http://hirakatacity-hp.osaka.jp/",
        "beds": "335",
        "address": "枚方市禁野本町2-14-1",
        "tel": "072-847-2821",
        "lat": "34.820278",
        "lon": "135.658294"
    },
    {
        "id": "14",
        "type": "市町村",
        "name": "阪南市民病院",
        "url": "https://www.seichokai.or.jp/hannan/",
        "beds": "185",
        "address": "阪南市下出17",
        "tel": "072-471-3321",
        "lat": "34.360766",
        "lon": "135.242305"
    },
    {
        "id": "15",
        "type": "市町村",
        "name": "箕面市立病院",
        "url": "http://minoh-hp.jp/",
        "beds": "317",
        "address": "箕面市萱野5-7-1",
        "tel": "072-728-2001",
        "lat": "34.823834",
        "lon": "135.484297"
    },
    {
        "id": "16",
        "type": "市町村",
        "name": "八尾市立病院",
        "url": "http://www.hospital.yao.osaka.jp/",
        "beds": "380",
        "address": "八尾市龍華町1-3-1",
        "tel": "072-922-0881",
        "lat": "34.620682",
        "lon": "135.587018"
    },
    {
        "id": "17",
        "type": "地方独立行政法人",
        "name": "大阪急性期・総合医療センター",
        "url": "http://www.gh.opho.jp/",
        "beds": "865",
        "address": "大阪市住吉区万代東3-1-56",
        "tel": "06-6692-1201",
        "lat": "34.61682",
        "lon": "135.504941"
    },
    {
        "id": "18",
        "type": "地方独立行政法人",
        "name": "大阪国際がんセンター",
        "url": "http://www.mc.pref.osaka.jp/",
        "beds": "500",
        "address": "大阪市中央区大手前3-1-69",
        "tel": "06-6945-1181",
        "lat": "34.68525",
        "lon": "135.519313"
    },
    {
        "id": "19",
        "type": "地方独立行政法人",
        "name": "大阪市立十三市民病院",
        "url": "http://www.osakacity-hp.or.jp/juso/",
        "beds": "263",
        "address": "大阪市淀川区野中北2-12-27",
        "tel": "06-6150-8000",
        "lat": "34.728322",
        "lon": "135.477301"
    },
    {
        "id": "20",
        "type": "地方独立行政法人",
        "name": "大阪市立総合医療センター",
        "url": "http://www.osakacity-hp.or.jp/ocgh/",
        "beds": "1063",
        "address": "大阪市都島区都島本通2-13-22",
        "tel": "06-6929-1221",
        "lat": "34.707713",
        "lon": "135.523822"
    },
    {
        "id": "21",
        "type": "地方独立行政法人",
        "name": "大阪市立大学医学部附属病院",
        "url": "http://www.hosp.med.osaka-cu.ac.jp/",
        "beds": "972",
        "address": "大阪市阿倍野区旭町1-5-7",
        "tel": "06-6645-2121",
        "lat": "34.646643",
        "lon": "135.508907"
    },
    {
        "id": "22",
        "type": "地方独立行政法人",
        "name": "大阪精神医療センター",
        "url": "http://pmc.opho.jp/",
        "beds": "473",
        "address": "枚方市宮之阪3-16-21",
        "tel": "072-847-3261",
        "lat": "34.814138",
        "lon": "135.661398"
    },
    {
        "id": "23",
        "type": "地方独立行政法人",
        "name": "堺市立総合医療センター",
        "url": "http://www.sakai-city-hospital.jp/",
        "beds": "487",
        "address": "堺市西区家原寺町1-1-1",
        "tel": "072-272-1199",
        "lat": "34.539513",
        "lon": "135.471491"
    },
    {
        "id": "24",
        "type": "地方独立行政法人",
        "name": "市立吹田市民病院",
        "url": "http://www.city.suita.osaka.jp/hospital",
        "beds": "431",
        "address": "吹田市岸部新町5-7",
        "tel": "06-6387-3311",
        "lat": "34.77646",
        "lon": "135.537643"
    },
    {
        "id": "25",
        "type": "日赤",
        "name": "大阪赤十字病院",
        "url": "http://www.osaka-med.jrc.or.jp",
        "beds": "964",
        "address": "大阪市天王寺区筆ケ崎町5-30",
        "tel": "06-6774-5111",
        "lat": "34.664658",
        "lon": "135.525494"
    },
    {
        "id": "26",
        "type": "日赤",
        "name": "高槻赤十字病院",
        "url": "http://www.takatsuki.jrc.or.jp/",
        "beds": "393",
        "address": "高槻市阿武野1-1-1",
        "tel": "072-696-0571",
        "lat": "34.855089",
        "lon": "135.577081"
    },
    {
        "id": "27",
        "type": "済生会",
        "name": "大阪府済生会泉尾病院",
        "url": "http://www.izuo-saiseikai.gr.jp/",
        "beds": "450",
        "address": "大阪市大正区北村3-4-5",
        "tel": "06-6552-0091",
        "lat": "34.64938",
        "lon": "135.46673"
    },
    {
        "id": "28",
        "type": "済生会",
        "name": "大阪府済生会茨木病院",
        "url": "http://www.ibaraki.saiseikai.or.jp/",
        "beds": "315",
        "address": "茨木市見付山2-1-45",
        "tel": "072-622-8651",
        "lat": "34.820939",
        "lon": "135.556126"
    },
    {
        "id": "29",
        "type": "済生会",
        "name": "大阪府済生会新泉南病院",
        "url": "http://www.saiseikaisennan.jp",
        "beds": "26",
        "address": "泉南市りんくう南浜3-7",
        "tel": "072-480-5611",
        "lat": "34.379199",
        "lon": "135.264861"
    },
    {
        "id": "30",
        "type": "済生会",
        "name": "大阪府済生会吹田病院",
        "url": "http://www.suita.saiseikai.or.jp/",
        "beds": "500",
        "address": "吹田市川園町1-2",
        "tel": "06-6382-1521",
        "lat": "34.761691",
        "lon": "135.534725"
    },
    {
        "id": "31",
        "type": "済生会",
        "name": "大阪府済生会千里病院",
        "url": "http://www.senri.saiseikai.or.jp",
        "beds": "343",
        "address": "吹田市津雲台1-1-6",
        "tel": "06-6871-0121",
        "lat": "34.79516",
        "lon": "135.510447"
    },
    {
        "id": "32",
        "type": "済生会",
        "name": "大阪府済生会中津病院",
        "url": "http://www.nakatsu.saiseikai.or.jp/",
        "beds": "712",
        "address": "大阪市北区芝田2-10-39",
        "tel": "06-6372-0333",
        "lat": "34.708176",
        "lon": "135.495931"
    },
    {
        "id": "33",
        "type": "済生会",
        "name": "社会福祉法人恩賜財団大阪府済生会富田林病院",
        "url": "http://www.tonbyo.org",
        "beds": "300",
        "address": "富田林市向陽台1-3-36",
        "tel": "0721-29-1121",
        "lat": "34.503165",
        "lon": "135.583371"
    },
    {
        "id": "34",
        "type": "済生会",
        "name": "野江病院",
        "url": "http://www.noe.saiseikai.or.jp/",
        "beds": "400",
        "address": "大阪市城東区古市1-3-25",
        "tel": "06-6932-0401",
        "lat": "34.706683",
        "lon": "135.554953"
    },
    {
        "id": "35",
        "type": "健康保険組合及び連合会",
        "name": "大阪中央病院",
        "url": "http://www.osaka-centralhp.jp/",
        "beds": "143",
        "address": "大阪市北区梅田3-3-30",
        "tel": "06-4795-5505",
        "lat": "34.699084",
        "lon": "135.491196"
    },
    {
        "id": "36",
        "type": "健康保険組合及び連合会",
        "name": "松下記念病院",
        "url": "http://phio.panasonic.co.jp/kinen/",
        "beds": "323",
        "address": "守口市外島町5-55",
        "tel": "06-6992-1231",
        "lat": "34.743629",
        "lon": "135.562553"
    },
    {
        "id": "37",
        "type": "共済組合及び連合会",
        "name": "大手前病院",
        "url": "http://www.otemae.gr.jp/",
        "beds": "401",
        "address": "大阪市中央区大手前1-5-34",
        "tel": "06-6941-0484",
        "lat": "34.689494",
        "lon": "135.519547"
    },
    {
        "id": "38",
        "type": "共済組合及び連合会",
        "name": "枚方公済病院",
        "url": "http://www.kkr-hirakoh.org",
        "beds": "313",
        "address": "枚方市藤阪東町1-2-1",
        "tel": "072-858-8233",
        "lat": "34.819524",
        "lon": "135.710512"
    },
    {
        "id": "39",
        "type": "公益法人",
        "name": "医学研究所 北野病院",
        "url": "http://www.kitano-hp.or.jp/",
        "beds": "699",
        "address": "大阪市北区扇町2-4-20",
        "tel": "06-6312-1221",
        "lat": "34.705128",
        "lon": "135.506838"
    },
    {
        "id": "40",
        "type": "公益法人",
        "name": "大阪病院",
        "url": "http://www.osaka-hospital.org/",
        "beds": "177",
        "address": "寝屋川市寝屋川公園2276-1",
        "tel": "072-821-4781",
        "lat": "34.763199",
        "lon": "135.656316"
    },
    {
        "id": "41",
        "type": "公益法人",
        "name": "大阪労働衛生センター第一病院",
        "url": "http://www.osaka-daiichi-hosp.org/",
        "beds": "213",
        "address": "大阪市西淀川区御幣島6-2-2",
        "tel": "06-6474-1201",
        "lat": "34.719275",
        "lon": "135.454622"
    },
    {
        "id": "42",
        "type": "公益法人",
        "name": "聖バルナバ病院",
        "url": "http://www.barnaba.or.jp",
        "beds": "73",
        "address": "大阪市天王寺区細工谷1-3-18",
        "tel": "06-6779-1600",
        "lat": "34.663054",
        "lon": "135.524332"
    },
    {
        "id": "43",
        "type": "公益法人",
        "name": "日本生命病院",
        "url": "http://www.nissay-hp.or.jp",
        "beds": "350",
        "address": "大阪市西区江之子島2-1-54",
        "tel": "06-6443-3446",
        "lat": "34.6818",
        "lon": "135.485072"
    },
    {
        "id": "44",
        "type": "医療法人",
        "name": "相生病院",
        "url": "http://www.aioi-hospital.jp/",
        "beds": "111",
        "address": "大阪市生野区生野西3-2-5",
        "tel": "06-6731-0201",
        "lat": "34.651681",
        "lon": "135.530337"
    },
    {
        "id": "45",
        "type": "医療法人",
        "name": "藍野病院",
        "url": "http://www.koshokai.or.jp/aino/",
        "beds": "969",
        "address": "茨木市高田町11-18",
        "tel": "072-627-7611",
        "lat": "34.844642",
        "lon": "135.580844"
    },
    {
        "id": "46",
        "type": "医療法人",
        "name": "青山病院",
        "url": "",
        "beds": "57",
        "address": "貝塚市新町11-5",
        "tel": "072-433-2526",
        "lat": "34.444323",
        "lon": "135.352764"
    },
    {
        "id": "47",
        "type": "医療法人",
        "name": "生野中央病院",
        "url": "http://www.ikuno-chuo.com/",
        "beds": "148",
        "address": "大阪市生野区中川5-4-2",
        "tel": "06-6751-3731",
        "lat": "34.65842",
        "lon": "135.545784"
    },
    {
        "id": "48",
        "type": "医療法人",
        "name": "育和会記念病院",
        "url": "http://www.ikuwakai.or.jp/ikuwakai/index.html",
        "beds": "265",
        "address": "大阪市生野区巽北3-20-29",
        "tel": "06-6758-8000",
        "lat": "34.655765",
        "lon": "135.555139"
    },
    {
        "id": "49",
        "type": "医療法人",
        "name": "石切生喜病院",
        "url": "http://www.ishikiriseiki.or.jp/",
        "beds": "331",
        "address": "東大阪市弥生町18-28",
        "tel": "072-988-3121",
        "lat": "34.678527",
        "lon": "135.63521"
    },
    {
        "id": "50",
        "type": "医療法人",
        "name": "医誠会病院",
        "url": "http://www.iseikaihp.or.jp/",
        "beds": "327",
        "address": "大阪市東淀川区菅原6-2-25",
        "tel": "06-6326-1121",
        "lat": "34.738653",
        "lon": "135.523301"
    },
    {
        "id": "51",
        "type": "医療法人",
        "name": "医療法人御殿山　福田総合病院",
        "url": "http://www.fukuda-hsp.jp/",
        "beds": "171",
        "address": "枚方市渚西1-18-11",
        "tel": "072-847-5752",
        "lat": "34.829315",
        "lon": "135.652964"
    },
    {
        "id": "52",
        "type": "医療法人",
        "name": "上田病院",
        "url": "http://www.z-uedahp.com",
        "beds": "94",
        "address": "豊中市庄内幸町4-28-12",
        "tel": "06-6334-0831",
        "lat": "34.746936",
        "lon": "135.469774"
    },
    {
        "id": "53",
        "type": "医療法人",
        "name": "榎坂病院",
        "url": "http://www.esakahp.or.jp",
        "beds": "360",
        "address": "吹田市江坂町4-32-1",
        "tel": "06-6384-3365",
        "lat": "34.770712",
        "lon": "135.493277"
    },
    {
        "id": "54",
        "type": "医療法人",
        "name": "大阪晴愛病院",
        "url": "http://koutokukai@osaka-seiai.or.jp",
        "beds": "69",
        "address": "泉南市新家3469-1",
        "tel": "072-482-7777",
        "lat": "34.374721",
        "lon": "135.29803"
    },
    {
        "id": "55",
        "type": "医療法人",
        "name": "葛城病院",
        "url": "http://www.katsuragi-hosp.or.jp",
        "beds": "243",
        "address": "岸和田市土生町2-33-1",
        "tel": "072-422-9909",
        "lat": "34.446703",
        "lon": "135.380357"
    },
    {
        "id": "56",
        "type": "医療法人",
        "name": "河北病院",
        "url": "http://www.kahoku.or.jp/",
        "beds": "170",
        "address": "寝屋川市河北東町19-1",
        "tel": "072-822-3663",
        "lat": "34.728997",
        "lon": "135.631404"
    },
    {
        "id": "57",
        "type": "医療法人",
        "name": "ガラシア病院",
        "url": "http://www.gratia.or.jp/",
        "beds": "104",
        "address": "箕面市粟生間谷西6-14-1",
        "tel": "072-729-2345",
        "lat": "34.850692",
        "lon": "135.507656"
    },
    {
        "id": "58",
        "type": "医療法人",
        "name": "かわい病院",
        "url": "http://www.kawai-hp.or.jp/",
        "beds": "46",
        "address": "泉大津市豊中町2-6-5",
        "tel": "0725-21-6222",
        "lat": "34.495039",
        "lon": "135.424414"
    },
    {
        "id": "59",
        "type": "医療法人",
        "name": "河内総合病院",
        "url": "http://www.kawati.or.jp",
        "beds": "350",
        "address": "東大阪市横枕1-31",
        "tel": "072-965-0731",
        "lat": "34.679251",
        "lon": "135.608147"
    },
    {
        "id": "60",
        "type": "医療法人",
        "name": "岸和田徳洲会病院",
        "url": "http://www.kishiwada.tokushukai.or.jp",
        "beds": "341",
        "address": "岸和田市加守町4-27-1",
        "tel": "072-445-9915",
        "lat": "34.471756",
        "lon": "135.392277"
    },
    {
        "id": "61",
        "type": "医療法人",
        "name": "北大阪ほうせんか病院",
        "url": "https://sfmc-h.org",
        "beds": "280",
        "address": "茨木市室山1-2-2",
        "tel": "072-643-6921",
        "lat": "34.842765",
        "lon": "135.547538"
    },
    {
        "id": "62",
        "type": "医療法人",
        "name": "喜馬病院",
        "url": "http://www.juzankai.com/",
        "beds": "123",
        "address": "東大阪市岩田町4-2-8",
        "tel": "072-961-6888",
        "lat": "34.664362",
        "lon": "135.609114"
    },
    {
        "id": "63",
        "type": "医療法人",
        "name": "久米田病院",
        "url": "http://kumeda-hp.or.jp",
        "beds": "494",
        "address": "岸和田市尾生町6-12-31",
        "tel": "072-445-3545",
        "lat": "34.447379",
        "lon": "135.417375"
    },
    {
        "id": "64",
        "type": "医療法人",
        "name": "光生病院",
        "url": "http://www.kouseihospital.net",
        "beds": "145",
        "address": "和泉市葛の葉町3-3-18",
        "tel": "0725-45-3381",
        "lat": "34.510753",
        "lon": "135.434985"
    },
    {
        "id": "65",
        "type": "医療法人",
        "name": "高津病院",
        "url": "www.koudu-hp.com",
        "beds": "53",
        "address": "大阪市中央区瓦屋町3-2-7",
        "tel": "06-6761-1421",
        "lat": "34.668503",
        "lon": "135.513201"
    },
    {
        "id": "66",
        "type": "医療法人",
        "name": "香里ヶ丘有恵会病院",
        "url": "http://www.kourigaoka.jp/",
        "beds": "171",
        "address": "枚方市香里ケ丘5丁目8番1",
        "tel": "072-853-1181",
        "lat": "34.794728",
        "lon": "135.648337"
    },
    {
        "id": "67",
        "type": "医療法人",
        "name": "小阪産病院",
        "url": "http://www.kosaka.or.jp/",
        "beds": "61",
        "address": "東大阪市菱屋西3-6-8",
        "tel": "06-6722-4771",
        "lat": "34.661376",
        "lon": "135.579036"
    },
    {
        "id": "68",
        "type": "医療法人",
        "name": "越宗整形外科病院",
        "url": "http://koshimune.jp/",
        "beds": "30",
        "address": "大阪市住吉区東粉浜3-26-6",
        "tel": "06-6672-2251",
        "lat": "34.615538",
        "lon": "135.491731"
    },
    {
        "id": "69",
        "type": "医療法人",
        "name": "小松病院",
        "url": "http://www.komatsu.or.jp",
        "beds": "190",
        "address": "寝屋川市川勝町11-6",
        "tel": "072-823-1521",
        "lat": "34.76745",
        "lon": "135.632551"
    },
    {
        "id": "70",
        "type": "医療法人",
        "name": "彩都リハビリテーション病院",
        "url": "http://www.saito-rh.jp/",
        "beds": "120",
        "address": "箕面市彩都粟生南1-1-20",
        "tel": "072-728-7770",
        "lat": "34.84561",
        "lon": "135.522142"
    },
    {
        "id": "71",
        "type": "医療法人",
        "name": "堺平成病院",
        "url": "http://www.onshinkai.jp",
        "beds": "189",
        "address": "堺市中区深井沢町6-13",
        "tel": "072-278-2461",
        "lat": "34.526608",
        "lon": "135.498841"
    },
    {
        "id": "72",
        "type": "医療法人",
        "name": "堺山口病院",
        "url": "http://sakaiyamaguchi.info/",
        "beds": "60",
        "address": "堺市堺区東湊町六丁383",
        "tel": "072-241-3945",
        "lat": "34.563096",
        "lon": "135.465731"
    },
    {
        "id": "73",
        "type": "医療法人",
        "name": "坂野病院",
        "url": "http://www.sakano.or.jp",
        "beds": "50",
        "address": "枚方市中宮本町4-5",
        "tel": "072-848-2000",
        "lat": "34.820581",
        "lon": "135.662654"
    },
    {
        "id": "74",
        "type": "医療法人",
        "name": "坂本病院",
        "url": "http://www.sakamoto-hospital.jp",
        "beds": "229",
        "address": "豊中市豊南町東1-6-1",
        "tel": "06-6332-0131",
        "lat": "34.752504",
        "lon": "135.483659"
    },
    {
        "id": "75",
        "type": "医療法人",
        "name": "阪本病院",
        "url": "http://www.smhc.or.jp/",
        "beds": "312",
        "address": "東大阪市西上小阪7-17",
        "tel": "06-6721-0344",
        "lat": "34.652549",
        "lon": "135.581999"
    },
    {
        "id": "76",
        "type": "医療法人",
        "name": "咲花病院",
        "url": "http://www.sakibana.or.jp/",
        "beds": "94",
        "address": "和泉市のぞみ野1-3-30",
        "tel": "0725-55-1919",
        "lat": "34.454845",
        "lon": "135.460217"
    },
    {
        "id": "77",
        "type": "医療法人",
        "name": "白井病院",
        "url": "http://www.shiraihp.or.jp/",
        "beds": "399",
        "address": "泉南市新家2776",
        "tel": "072-482-2011",
        "lat": "34.366547",
        "lon": "135.30738"
    },
    {
        "id": "78",
        "type": "医療法人",
        "name": "吹田徳洲会病院",
        "url": "http://www.suita.tokushukai.or.jp/",
        "beds": "365",
        "address": "吹田市千里丘西21-1",
        "tel": "06-6878-1110",
        "lat": "34.797416",
        "lon": "135.542017"
    },
    {
        "id": "79",
        "type": "医療法人",
        "name": "星光病院",
        "url": "",
        "beds": "107",
        "address": "寝屋川市豊野町14-5",
        "tel": "072-824-3333",
        "lat": "34.766637",
        "lon": "135.627237"
    },
    {
        "id": "80",
        "type": "医療法人",
        "name": "泉北陣内病院",
        "url": "http://www.koushinkaihp.jp/",
        "beds": "269",
        "address": "堺市南区豊田40",
        "tel": "072-299-2020",
        "lat": "34.495465",
        "lon": "135.490008"
    },
    {
        "id": "81",
        "type": "医療法人",
        "name": "千里リハビリテーション病院",
        "url": "http://www.senri-rehab.jp/",
        "beds": "172",
        "address": "箕面市小野原西4-6-1",
        "tel": "072-726-3300",
        "lat": "34.829368",
        "lon": "135.509233"
    },
    {
        "id": "82",
        "type": "医療法人",
        "name": "第一東和会病院",
        "url": "http://www.towa-med.or.jp/",
        "beds": "243",
        "address": "高槻市宮野町2-17",
        "tel": "072-671-1008",
        "lat": "34.854197",
        "lon": "135.637669"
    },
    {
        "id": "83",
        "type": "医療法人",
        "name": "大正病院",
        "url": "http://www.taisho-byoin.or.jp/",
        "beds": "173",
        "address": "大阪市大正区三軒家東5-5-16",
        "tel": "06-6552-0621",
        "lat": "34.660078",
        "lon": "135.475705"
    },
    {
        "id": "84",
        "type": "医療法人",
        "name": "第二大阪警察病院",
        "url": "http://www.ntt-west.co.jp/osaka-hosp/",
        "beds": "341",
        "address": "大阪市天王寺区烏ケ辻2-6-40",
        "tel": "06-6773-7111",
        "lat": "34.657095",
        "lon": "135.525071"
    },
    {
        "id": "85",
        "type": "医療法人",
        "name": "第二東和会病院",
        "url": "http://www.towa-med.or.jp",
        "beds": "93",
        "address": "高槻市大塚町5-20-3",
        "tel": "072-674-1008",
        "lat": "34.821527",
        "lon": "135.630896"
    },
    {
        "id": "86",
        "type": "医療法人",
        "name": "田仲北野田病院",
        "url": "http://www.kitanoda-hp.com",
        "beds": "100",
        "address": "堺市東区北野田707",
        "tel": "072-235-1055",
        "lat": "34.527912",
        "lon": "135.548324"
    },
    {
        "id": "87",
        "type": "医療法人",
        "name": "田中病院",
        "url": "http://www.mihara-tanaka.or.jp/",
        "beds": "180",
        "address": "堺市美原区黒山39-10",
        "tel": "0723-61-3555",
        "lat": "34.542026",
        "lon": "135.56205"
    },
    {
        "id": "88",
        "type": "医療法人",
        "name": "辻外科リハビリテーション病院",
        "url": "http://www.kankikai.com/",
        "beds": "71",
        "address": "大阪市天王寺区生玉前町3-24",
        "tel": "06-6771-0681",
        "lat": "34.664418",
        "lon": "135.515679"
    },
    {
        "id": "89",
        "type": "医療法人",
        "name": "津田病院",
        "url": "http://www.nakaya-kakushikai.com",
        "beds": "58",
        "address": "枚方市津田北町3-30-1",
        "tel": "072-858-8259",
        "lat": "34.813681",
        "lon": "135.712005"
    },
    {
        "id": "90",
        "type": "医療法人",
        "name": "ツヂ病院",
        "url": "http://www.tsuji-hospital.or.jp/",
        "beds": "99",
        "address": "大阪市都島区都島北通1-22-6",
        "tel": "06-6922-1236",
        "lat": "34.711853",
        "lon": "135.528528"
    },
    {
        "id": "91",
        "type": "医療法人",
        "name": "寺元記念病院",
        "url": "http://www.teramoto.or.jp/",
        "beds": "160",
        "address": "河内長野市古野町4-11",
        "tel": "0721-50-1111",
        "lat": "34.455913",
        "lon": "135.569651"
    },
    {
        "id": "92",
        "type": "医療法人",
        "name": "中村病院",
        "url": "http://midori.jpn.org",
        "beds": "206",
        "address": "枚方市長尾播磨谷1-2834-5",
        "tel": "072-868-2071",
        "lat": "34.828645",
        "lon": "135.715189"
    },
    {
        "id": "93",
        "type": "医療法人",
        "name": "中本病院",
        "url": "http://www.nakamoto.or.jp/",
        "beds": "115",
        "address": "大阪市東成区中道4-13-12",
        "tel": "06-6972-2121",
        "lat": "34.674342",
        "lon": "135.536668"
    },
    {
        "id": "94",
        "type": "医療法人",
        "name": "長吉総合病院",
        "url": "http://www.ngh.or.jp/",
        "beds": "333",
        "address": "大阪市平野区長吉長原1-2-34",
        "tel": "06-6709-0301",
        "lat": "34.606484",
        "lon": "135.56763"
    },
    {
        "id": "95",
        "type": "医療法人",
        "name": "名取病院",
        "url": "http://www.natorihp.org/",
        "beds": "83",
        "address": "大阪市西淀川区大野2-1-32",
        "tel": "06-6474-0506",
        "lat": "34.700842",
        "lon": "135.438683"
    },
    {
        "id": "96",
        "type": "医療法人",
        "name": "ねや川サナトリウム",
        "url": "http://nagaokai.com/neyasanato/",
        "beds": "267",
        "address": "寝屋川市寝屋川公園2370-6",
        "tel": "072-822-3561",
        "lat": "34.7622",
        "lon": "135.654678"
    },
    {
        "id": "97",
        "type": "医療法人",
        "name": "野崎徳洲会病院",
        "url": "http://nozaki.tokushukai.or.jp/",
        "beds": "218",
        "address": "大東市谷川2-10-50",
        "tel": "072-874-1641",
        "lat": "34.711293",
        "lon": "135.63321"
    },
    {
        "id": "98",
        "type": "医療法人",
        "name": "博愛茨木病院",
        "url": "http://hakuai-ibaraki.jp/",
        "beds": "144",
        "address": "茨木市中穂積3-2-41",
        "tel": "072-622-1515",
        "lat": "34.815779",
        "lon": "135.555402"
    },
    {
        "id": "99",
        "type": "医療法人",
        "name": "博愛城北病院",
        "url": "",
        "beds": "60",
        "address": "大阪市旭区生江3-11-11",
        "tel": "06-6922-6721",
        "lat": "34.727936",
        "lon": "135.5383"
    },
    {
        "id": "100",
        "type": "医療法人",
        "name": "羽原病院",
        "url": "http://www.habarahp.jp",
        "beds": "70",
        "address": "泉佐野市羽倉崎1-1-4",
        "tel": "072-466-3881",
        "lat": "34.400207",
        "lon": "135.300175"
    },
    {
        "id": "101",
        "type": "医療法人",
        "name": "早石病院",
        "url": "http://www.hayaishi.or.jp/",
        "beds": "155",
        "address": "大阪市天王寺区筆ケ崎町2-75",
        "tel": "06-6771-1227",
        "lat": "34.664062",
        "lon": "135.526986"
    },
    {
        "id": "102",
        "type": "医療法人",
        "name": "阪堺病院",
        "url": "http://www.hankai.or.jp/",
        "beds": "140",
        "address": "堺市堺区大浜北町一丁8番8号",
        "tel": "072-233-6745",
        "lat": "34.577598",
        "lon": "135.46485"
    },
    {
        "id": "103",
        "type": "医療法人",
        "name": "阪和住吉総合病院",
        "url": "https://www.kinshukai.or.jp/kinshukai/sumiyoshi/",
        "beds": "115",
        "address": "大阪市住吉区南住吉3-2-9",
        "tel": "06-6692-1001",
        "lat": "34.605378",
        "lon": "135.505314"
    },
    {
        "id": "104",
        "type": "医療法人",
        "name": "ＰＬ病院",
        "url": "http://www.plhospital.or.jp/",
        "beds": "370",
        "address": "富田林市新堂2204",
        "tel": "0721-24-3100",
        "lat": "34.510798",
        "lon": "135.587005"
    },
    {
        "id": "105",
        "type": "医療法人",
        "name": "東佐野病院",
        "url": "higashisano.com",
        "beds": "138",
        "address": "泉佐野市鶴原969-1",
        "tel": "072-464-8588",
        "lat": "34.419502",
        "lon": "135.346744"
    },
    {
        "id": "106",
        "type": "医療法人",
        "name": "東住吉森本病院",
        "url": "http://www.tachibana-med.or.jp/",
        "beds": "329",
        "address": "大阪市東住吉区鷹合3-2-66",
        "tel": "06-6606-0010",
        "lat": "34.611004",
        "lon": "135.527423"
    },
    {
        "id": "107",
        "type": "医療法人",
        "name": "福島病院",
        "url": "http://www.fukushima-hosp.or.jp/",
        "beds": "97",
        "address": "大阪市旭区千林2-4-22",
        "tel": "06-6953-2940",
        "lat": "34.724878",
        "lon": "135.550687"
    },
    {
        "id": "108",
        "type": "医療法人",
        "name": "藤井病院",
        "url": "http://www.ryoshukai.or.jp",
        "beds": "155",
        "address": "岸和田市西之内町3-1",
        "tel": "072-436-2201",
        "lat": "34.464529",
        "lon": "135.388307"
    },
    {
        "id": "109",
        "type": "医療法人",
        "name": "藤田胃腸科病院",
        "url": "http://www.fujita.or.jp/",
        "beds": "33",
        "address": "高槻市松原町17-36",
        "tel": "072-671-5916",
        "lat": "34.852187",
        "lon": "135.630138"
    },
    {
        "id": "110",
        "type": "医療法人",
        "name": "藤本病院",
        "url": "http://www.fujimoto-hp.com/",
        "beds": "150",
        "address": "寝屋川市八坂町2-3",
        "tel": "072-824-1212",
        "lat": "34.765391",
        "lon": "135.624225"
    },
    {
        "id": "111",
        "type": "医療法人",
        "name": "牧病院",
        "url": "http://www.maki-group.jp",
        "beds": "75",
        "address": "大阪市旭区新森7-10-28",
        "tel": "06-6953-0120",
        "lat": "34.719627",
        "lon": "135.562593"
    },
    {
        "id": "112",
        "type": "医療法人",
        "name": "まちだ胃腸病院",
        "url": "",
        "beds": "61",
        "address": "大阪市西成区山王1-１-15",
        "tel": "06-6649-1251",
        "lat": "34.648312",
        "lon": "135.507252"
    },
    {
        "id": "113",
        "type": "医療法人",
        "name": "松谷病院",
        "url": "http://www.matsutani.or.jp/",
        "beds": "40",
        "address": "枚方市津田西町1-29-8",
        "tel": "072-859-3618",
        "lat": "34.807636",
        "lon": "135.699285"
    },
    {
        "id": "114",
        "type": "医療法人",
        "name": "松本病院",
        "url": "http://matsumoto-hp.or.jp/",
        "beds": "199",
        "address": "大阪市福島区海老江2-1-36",
        "tel": "06-6458-7171",
        "lat": "34.695751",
        "lon": "135.474329"
    },
    {
        "id": "115",
        "type": "医療法人",
        "name": "弥刀中央病院",
        "url": "http://mitohp.jp/",
        "beds": "107",
        "address": "東大阪市友井3-2-13",
        "tel": "06-6721-2721",
        "lat": "34.642053",
        "lon": "135.584641"
    },
    {
        "id": "116",
        "type": "医療法人",
        "name": "向山病院",
        "url": "http://www.mukaiyama.or.jp",
        "beds": "85",
        "address": "枚方市招提元町1-36-6",
        "tel": "072-855-1246",
        "lat": "34.83926",
        "lon": "135.688567"
    },
    {
        "id": "117",
        "type": "医療法人",
        "name": "村田病院",
        "url": "http://www.muratahospital.jp/",
        "beds": "70",
        "address": "大阪市生野区田島4-2-1",
        "tel": "06-6757-0011",
        "lat": "34.647145",
        "lon": "135.540086"
    },
    {
        "id": "118",
        "type": "医療法人",
        "name": "八尾徳洲会総合病院",
        "url": "http://www.yao.tokushukai.or.jp",
        "beds": "415",
        "address": "八尾市若草町1-17",
        "tel": "072-993-8501",
        "lat": "34.626774",
        "lon": "135.610458"
    },
    {
        "id": "119",
        "type": "医療法人",
        "name": "山本第三病院",
        "url": "http://www.yamakikai.or.jp/third/",
        "beds": "347",
        "address": "大阪市西成区南津守4-5-20",
        "tel": "06-6658-6611",
        "lat": "34.628779",
        "lon": "135.481896"
    },
    {
        "id": "120",
        "type": "医療法人",
        "name": "吉栄会病院",
        "url": "http://www.yoshieikai.com/yoshieikaihospital/",
        "beds": "61",
        "address": "大阪市生野区小路2-14-5",
        "tel": "06-6752-7867",
        "lat": "34.661363",
        "lon": "135.554582"
    },
    {
        "id": "121",
        "type": "医療法人",
        "name": "緑水会病院",
        "url": "http://www.ryokusuikai.or.jp",
        "beds": "200",
        "address": "高槻市成合南の町3-1",
        "tel": "072-689-6311",
        "lat": "34.868376",
        "lon": "135.629099"
    },
    {
        "id": "122",
        "type": "特定医療法人",
        "name": "有澤総合病院",
        "url": "http://www.arisawahosp.jp/",
        "beds": "157",
        "address": "枚方市中宮東之町12-14",
        "tel": "072-847-2606",
        "lat": "34.820736",
        "lon": "135.664445"
    },
    {
        "id": "123",
        "type": "特定医療法人",
        "name": "うえだ下田部病院",
        "url": "http://www.ueda-simo.or.jp",
        "beds": "116",
        "address": "高槻市登町33-1",
        "tel": "072-673-7722",
        "lat": "34.824149",
        "lon": "135.619569"
    },
    {
        "id": "124",
        "type": "特定医療法人",
        "name": "運動器ケア　しまだ病院",
        "url": "http://www.heartful-health.or.jp",
        "beds": "88",
        "address": "羽曳野市樫山100-1",
        "tel": "072-953-1001",
        "lat": "34.558512",
        "lon": "135.579165"
    },
    {
        "id": "125",
        "type": "特定医療法人",
        "name": "白鷺病院",
        "url": "http://www.shirasagi-hp.or.jp/",
        "beds": "92",
        "address": "大阪市東住吉区杭全7-11-23",
        "tel": "06-6714-1661",
        "lat": "34.632302",
        "lon": "135.538725"
    },
    {
        "id": "126",
        "type": "特定医療法人",
        "name": "大和中央病院",
        "url": "http://www.daiwakai.or.jp/",
        "beds": "190",
        "address": "大阪市西成区長橋1-2-7",
        "tel": "06-6632-6181",
        "lat": "34.647951",
        "lon": "135.496958"
    },
    {
        "id": "127",
        "type": "特定医療法人",
        "name": "大和病院",
        "url": "http://www.daiwakai.or.jp/",
        "beds": "175",
        "address": "吹田市垂水町3-22-1",
        "tel": "06-6380-1981",
        "lat": "34.760678",
        "lon": "135.503452"
    },
    {
        "id": "128",
        "type": "特定医療法人",
        "name": "東香里病院",
        "url": "http://www.higashikouri-hp.com",
        "beds": "195",
        "address": "枚方市東香里1-24-34",
        "tel": "072-853-0501",
        "lat": "34.779951",
        "lon": "135.656649"
    },
    {
        "id": "129",
        "type": "社会医療法人",
        "name": "愛仁会リハビリテーション病院",
        "url": "http://www.aijinkai.or.jp/reha/",
        "beds": "264",
        "address": "高槻市白梅町5-7",
        "tel": "072-683-1212",
        "lat": "34.854817",
        "lon": "135.6209"
    },
    {
        "id": "130",
        "type": "社会医療法人",
        "name": "藍の都脳神経外科病院",
        "url": "http://www.ainomiyako.net/",
        "beds": "80",
        "address": "大阪市鶴見区放出東2-21-16",
        "tel": "06-6967-1800",
        "lat": "34.690619",
        "lon": "135.565896"
    },
    {
        "id": "131",
        "type": "社会医療法人",
        "name": "医真会八尾総合病院",
        "url": "http://www.ishinkai.or.jp/",
        "beds": "301",
        "address": "八尾市沼1-41",
        "tel": "072-948-2500",
        "lat": "34.588877",
        "lon": "135.600991"
    },
    {
        "id": "132",
        "type": "社会医療法人",
        "name": "井上病院",
        "url": "http://inoue.aijinkai.or.jp/",
        "beds": "127",
        "address": "吹田市江の木町16-17",
        "tel": "06-6385-8651",
        "lat": "34.754861",
        "lon": "135.49554"
    },
    {
        "id": "133",
        "type": "社会医療法人",
        "name": "大野記念病院",
        "url": "http://www.ohno.or.jp/",
        "beds": "250",
        "address": "大阪市西区南堀江1-26-10",
        "tel": "06-6531-1815",
        "lat": "34.670166",
        "lon": "135.493436"
    },
    {
        "id": "134",
        "type": "社会医療法人",
        "name": "交野病院",
        "url": "http://www.katano-hp.or.jp/",
        "beds": "173",
        "address": "交野市私部2-11-38",
        "tel": "072-891-0331",
        "lat": "34.787061",
        "lon": "135.677453"
    },
    {
        "id": "135",
        "type": "社会医療法人",
        "name": "加納総合病院",
        "url": "http://www.heartfull.or.jp/",
        "beds": "300",
        "address": "大阪市北区天神橋7-5-15",
        "tel": "06-6351-5381",
        "lat": "34.71235",
        "lon": "135.511508"
    },
    {
        "id": "136",
        "type": "社会医療法人",
        "name": "萱島生野病院",
        "url": "http://www.koudoukai.or.jp/kayashima-hp/",
        "beds": "162",
        "address": "門真市上島町22-11",
        "tel": "072-885-3000",
        "lat": "34.745255",
        "lon": "135.610403"
    },
    {
        "id": "137",
        "type": "社会医療法人",
        "name": "河崎病院",
        "url": "http://www.jikunnkai.or.jp/",
        "beds": "129",
        "address": "貝塚市水間244",
        "tel": "072-446-1105",
        "lat": "34.402829",
        "lon": "135.386252"
    },
    {
        "id": "138",
        "type": "社会医療法人",
        "name": "関西メディカル病院",
        "url": "https://kansaimedical-hp.jp/",
        "beds": "225",
        "address": "豊中市新千里西町1-1-7-2",
        "tel": "06-6836-1199",
        "lat": "34.808071",
        "lon": "135.491208"
    },
    {
        "id": "139",
        "type": "社会医療法人",
        "name": "さくら会病院",
        "url": "http://www.sakurak.jp/",
        "beds": "147",
        "address": "大阪狭山市半田5-2610-1",
        "tel": "072-366-5757",
        "lat": "34.498172",
        "lon": "135.55328"
    },
    {
        "id": "140",
        "type": "社会医療法人",
        "name": "佐藤病院",
        "url": "http://www.misugikai.jp",
        "beds": "120",
        "address": "枚方市養父東町65-1",
        "tel": "072-850-8711",
        "lat": "34.844356",
        "lon": "135.680236"
    },
    {
        "id": "141",
        "type": "社会医療法人",
        "name": "佐野記念病院",
        "url": "http://www.sanokinen.jp",
        "beds": "95",
        "address": "泉佐野市中町2-4-28",
        "tel": "072-464-2111",
        "lat": "34.400155",
        "lon": "135.316981"
    },
    {
        "id": "142",
        "type": "社会医療法人",
        "name": "しんあい病院",
        "url": "http://www.aijinkai.or.jp/shin-ai-hospital/",
        "beds": "21",
        "address": "高槻市芥川町2-3-5",
        "tel": "072-681-5533",
        "lat": "34.850652",
        "lon": "135.613688"
    },
    {
        "id": "143",
        "type": "社会医療法人",
        "name": "清恵会病院",
        "url": "http://seikeikai.or.jp/",
        "beds": "336",
        "address": "堺市堺区南安井町1-1-1",
        "tel": "072-223-8199",
        "lat": "34.570848",
        "lon": "135.474758"
    },
    {
        "id": "144",
        "type": "社会医療法人",
        "name": "高槻病院",
        "url": "http://www.takatsuki.aijinkai.or.jp/",
        "beds": "477",
        "address": "高槻市古曽部町1-3-13",
        "tel": "072-681-3801",
        "lat": "34.855935",
        "lon": "135.620664"
    },
    {
        "id": "145",
        "type": "社会医療法人",
        "name": "多根記念眼科病院",
        "url": "http://www.tanemem.com/",
        "beds": "58",
        "address": "大阪市西区境川1-1-39",
        "tel": "06-6581-5800",
        "lat": "34.668987",
        "lon": "135.473143"
    },
    {
        "id": "146",
        "type": "社会医療法人",
        "name": "多根総合病院",
        "url": "http://www.tane.or.jp",
        "beds": "304",
        "address": "大阪市西区九条南1-12-21",
        "tel": "06-6581-1071",
        "lat": "34.668775",
        "lon": "135.474451"
    },
    {
        "id": "147",
        "type": "社会医療法人",
        "name": "多根第二病院",
        "url": "http://daini.tane.or.jp",
        "beds": "216",
        "address": "大阪市港区築港3-4-25",
        "tel": "06-6599-1212",
        "lat": "34.655192",
        "lon": "135.434999"
    },
    {
        "id": "148",
        "type": "社会医療法人",
        "name": "多根脳神経リハビリテーション病院",
        "url": "http://info.tnr@tane.or.jp",
        "beds": "50",
        "address": "大阪市港区南市岡1-1-45",
        "tel": "06-6585-2743",
        "lat": "34.668423",
        "lon": "135.472343"
    },
    {
        "id": "149",
        "type": "社会医療法人",
        "name": "千船病院",
        "url": "http://www.aijinkai.or.jp/",
        "beds": "292",
        "address": "大阪市西淀川区福町3-2-39",
        "tel": "06-6471-9541",
        "lat": "34.700555",
        "lon": "135.443464"
    },
    {
        "id": "150",
        "type": "社会医療法人",
        "name": "中野こども病院",
        "url": "http://www.nakano-kodomo.or.jp/",
        "beds": "79",
        "address": "大阪市旭区新森4-13-17",
        "tel": "06-6952-4771",
        "lat": "34.716692",
        "lon": "135.55963"
    },
    {
        "id": "151",
        "type": "社会医療法人",
        "name": "永山病院",
        "url": "http://www.nagayama.or.jp/",
        "beds": "230",
        "address": "泉南郡熊取町大久保東1-1-10",
        "tel": "072-453-1122",
        "lat": "34.404087",
        "lon": "135.345974"
    },
    {
        "id": "152",
        "type": "社会医療法人",
        "name": "なにわ生野病院",
        "url": "http://www.koudoukai.or.jp/naniwa-hp/",
        "beds": "173",
        "address": "大阪市浪速区大国1-10-3",
        "tel": "06-6632-9915",
        "lat": "34.652721",
        "lon": "135.497163"
    },
    {
        "id": "153",
        "type": "社会医療法人",
        "name": "寝屋川生野病院",
        "url": "",
        "beds": "103",
        "address": "寝屋川市日新町2-8",
        "tel": "072-834-9000",
        "lat": "34.782403",
        "lon": "135.62429"
    },
    {
        "id": "154",
        "type": "社会医療法人",
        "name": "馬場記念病院",
        "url": "http://www.pegasus.or.jp/",
        "beds": "300",
        "address": "堺市西区浜寺船尾町東4-244",
        "tel": "072-265-5558",
        "lat": "34.546955",
        "lon": "135.462723"
    },
    {
        "id": "155",
        "type": "社会医療法人",
        "name": "東大阪病院",
        "url": "http://yurin.or.jp",
        "beds": "265",
        "address": "大阪市城東区中央1-7-22",
        "tel": "06-6939-1125",
        "lat": "34.701044",
        "lon": "135.54371"
    },
    {
        "id": "156",
        "type": "社会医療法人",
        "name": "日野病院",
        "url": "http://www.syo.or.jp",
        "beds": "199",
        "address": "堺市東区北野田626",
        "tel": "072-235-0090",
        "lat": "34.530666",
        "lon": "135.548467"
    },
    {
        "id": "157",
        "type": "社会医療法人",
        "name": "府中病院",
        "url": "http://www.seichokai.or.jp/fuchu/",
        "beds": "380",
        "address": "和泉市肥子町1-10-17",
        "tel": "0725-43-1234",
        "lat": "34.486901",
        "lon": "135.422522"
    },
    {
        "id": "158",
        "type": "社会医療法人",
        "name": "ベルピアノ病院",
        "url": "https://www.seichokai.or.jp/bellpiano/",
        "beds": "192",
        "address": "堺市西区菱木1-2343-11",
        "tel": "072-349-6700",
        "lat": "34.512553",
        "lon": "135.477586"
    },
    {
        "id": "159",
        "type": "社会医療法人",
        "name": "ベルランド総合病院",
        "url": "https://www.seichokai.or.jp/bell/",
        "beds": "477",
        "address": "堺市中区東山500-3",
        "tel": "072-234-2001",
        "lat": "34.517972",
        "lon": "135.508253"
    },
    {
        "id": "160",
        "type": "社会医療法人",
        "name": "北摂総合病院",
        "url": "http://www.hokusetsu-hp.jp",
        "beds": "217",
        "address": "高槻市北柳川町6-24",
        "tel": "072-696-2121",
        "lat": "34.826295",
        "lon": "135.592342"
    },
    {
        "id": "161",
        "type": "社会医療法人",
        "name": "ボバース記念病院",
        "url": "http://www.omichikai.or.jp/bobath/",
        "beds": "98",
        "address": "大阪市城東区東中浜1-6-5",
        "tel": "06-6962-3131",
        "lat": "34.68723",
        "lon": "135.546621"
    },
    {
        "id": "162",
        "type": "社会医療法人",
        "name": "本田病院",
        "url": "http://www.hondahp.or.jp",
        "beds": "100",
        "address": "大阪市鶴見区鶴見4-1-30",
        "tel": "06-6939-6251",
        "lat": "34.70245",
        "lon": "135.560657"
    },
    {
        "id": "163",
        "type": "社会医療法人",
        "name": "南大阪病院",
        "url": "http://www.minamiosaka.com/",
        "beds": "400",
        "address": "大阪市住之江区東加賀屋1-18-18",
        "tel": "06-6685-0221",
        "lat": "34.618958",
        "lon": "135.48287"
    },
    {
        "id": "164",
        "type": "社会医療法人",
        "name": "耳原総合病院",
        "url": "http://www.mimihara.or.jp/sogo/",
        "beds": "386",
        "address": "堺市堺区協和町4-465",
        "tel": "072-241-0501",
        "lat": "34.560775",
        "lon": "135.470284"
    },
    {
        "id": "165",
        "type": "社会医療法人",
        "name": "明治橋病院",
        "url": "http://www.meijibashi.or.jp/",
        "beds": "396",
        "address": "松原市三宅西1-358-3",
        "tel": "072-334-8558",
        "lat": "34.584646",
        "lon": "135.55001"
    },
    {
        "id": "166",
        "type": "社会医療法人",
        "name": "守口生野記念病院",
        "url": "http://www.koudoukai.or.jp/moriguchi-hp/",
        "beds": "199",
        "address": "守口市佐太中町6-17-33",
        "tel": "06-6906-1100",
        "lat": "34.760111",
        "lon": "135.590031"
    },
    {
        "id": "167",
        "type": "社会医療法人",
        "name": "森之宮病院",
        "url": "http://www.omichikai.or.jp",
        "beds": "355",
        "address": "大阪市城東区森之宮2-1-88",
        "tel": "06-6969-0111",
        "lat": "34.682952",
        "lon": "135.538715"
    },
    {
        "id": "168",
        "type": "社会医療法人",
        "name": "行岡病院",
        "url": "http://www.yukioka.or.jp/",
        "beds": "347",
        "address": "大阪市北区浮田2-2-3",
        "tel": "06-6371-9921",
        "lat": "34.709914",
        "lon": "135.508888"
    },
    {
        "id": "169",
        "type": "社会医療法人",
        "name": "若草第一病院",
        "url": "http://www.wakakoukai.or.jp",
        "beds": "230",
        "address": "東大阪市若草町1-6",
        "tel": "072-988-1409",
        "lat": "34.661149",
        "lon": "135.634372"
    },
    {
        "id": "170",
        "type": "社会医療法人",
        "name": "わかくさ竜間リハビリテーション病院",
        "url": "http://www.wakakoukai.or.jp/",
        "beds": "500",
        "address": "大東市大字龍間1580",
        "tel": "072-869-0116",
        "lat": "34.709426",
        "lon": "135.657609"
    },
    {
        "id": "171",
        "type": "私立学校法人",
        "name": "大阪医科大学附属病院",
        "url": "http://hospital.osaka-med.ac.jp/",
        "beds": "882",
        "address": "高槻市大学町2-7",
        "tel": "072-683-1221",
        "lat": "34.852096",
        "lon": "135.624481"
    },
    {
        "id": "172",
        "type": "私立学校法人",
        "name": "大阪歯科大学附属病院",
        "url": "http://www.osaka-dent.ac.jp/hospital/",
        "beds": "35",
        "address": "大阪市中央区大手前1-5-17",
        "tel": "06-6910-1111",
        "lat": "34.690063",
        "lon": "135.519581"
    },
    {
        "id": "173",
        "type": "私立学校法人",
        "name": "関西医科大学総合医療センター",
        "url": "http://www.kmu.ac.jp/takii",
        "beds": "477",
        "address": "守口市文園町10-15",
        "tel": "06-6992-1001",
        "lat": "34.728696",
        "lon": "135.556329"
    },
    {
        "id": "174",
        "type": "私立学校法人",
        "name": "関西医科大学附属病院",
        "url": "http://www.kmu.ac.jp/hirakata/",
        "beds": "751",
        "address": "枚方市新町2-3-1",
        "tel": "072-804-0101",
        "lat": "34.817462",
        "lon": "135.645013"
    },
    {
        "id": "175",
        "type": "私立学校法人",
        "name": "近畿大学病院",
        "url": "http://www.med.kindai.ac.jp/huzoku/",
        "beds": "929",
        "address": "大阪狭山市大野東377-2",
        "tel": "072-366-0221",
        "lat": "34.476585",
        "lon": "135.548931"
    },
    {
        "id": "176",
        "type": "社会福祉法人",
        "name": "愛染橋病院",
        "url": "http://www.aizenen.or.jp/byouin/",
        "beds": "253",
        "address": "大阪市浪速区日本橋5-16-15",
        "tel": "06-6633-2801",
        "lat": "34.657632",
        "lon": "135.504966"
    },
    {
        "id": "177",
        "type": "社会福祉法人",
        "name": "四天王寺病院",
        "url": "http://www.shitennoji-fukushi.jp/shitennoji-hospital/",
        "beds": "197",
        "address": "大阪市天王寺区大道1-4-41",
        "tel": "06-6779-1401",
        "lat": "34.653226",
        "lon": "135.51449"
    },
    {
        "id": "178",
        "type": "社会福祉法人",
        "name": "すみれ病院",
        "url": "http://www.sumire-hosp.com",
        "beds": "32",
        "address": "大阪市城東区古市1-20-85",
        "tel": "06-6934-5611",
        "lat": "34.708388",
        "lon": "135.557311"
    },
    {
        "id": "179",
        "type": "社会福祉法人",
        "name": "寺田萬寿病院",
        "url": "https://www.terada-manju.jp/",
        "beds": "250",
        "address": "岸和田市南上町1-48-5",
        "tel": "072-422-4466",
        "lat": "34.453303",
        "lon": "135.371102"
    },
    {
        "id": "180",
        "type": "医療生協",
        "name": "コープおおさか病院",
        "url": "http://www.osh.coop/pub/",
        "beds": "166",
        "address": "大阪市鶴見区鶴見3-6-22",
        "tel": "06-6914-1100",
        "lat": "34.702189",
        "lon": "135.563027"
    },
    {
        "id": "181",
        "type": "医療生協",
        "name": "十三病院",
        "url": "http://www.kitaiseikyo.com/",
        "beds": "108",
        "address": "大阪市淀川区木川西3-4-15",
        "tel": "06-6303-8731",
        "lat": "34.72596",
        "lon": "135.486331"
    },
    {
        "id": "182",
        "type": "医療生協",
        "name": "照葉の里　箕面病院",
        "url": "http://www.kitaiseikyo.com/hospital/minoo/",
        "beds": "199",
        "address": "箕面市下止々呂美561",
        "tel": "072-739-0501",
        "lat": "34.885098",
        "lon": "135.462757"
    },
    {
        "id": "183",
        "type": "会社",
        "name": "大阪回生病院",
        "url": "http://www.kaisei-hp.co.jp",
        "beds": "300",
        "address": "大阪市淀川区宮原1-6-10",
        "tel": "06-6393-6234",
        "lat": "34.735352",
        "lon": "135.499148"
    },
    {
        "id": "184",
        "type": "会社",
        "name": "大阪鉄道病院",
        "url": "http://www.jrosakahosp.jp",
        "beds": "303",
        "address": "大阪市阿倍野区松崎町1-2-22",
        "tel": "06-6628-2221",
        "lat": "34.645105",
        "lon": "135.517316"
    },
    {
        "id": "185",
        "type": "会社",
        "name": "関西電力病院",
        "url": "http://kanden-hsp.jp/",
        "beds": "400",
        "address": "大阪市福島区福島2-1-7",
        "tel": "06-6458-5821",
        "lat": "34.693095",
        "lon": "135.487525"
    },
    {
        "id": "186",
        "type": "その他法人",
        "name": "大阪掖済会病院",
        "url": "http://www.osaka-ekisaikai.jp/index.html",
        "beds": "135",
        "address": "大阪市西区本田2-1-10",
        "tel": "06-6581-2881",
        "lat": "34.678451",
        "lon": "135.479265"
    },
    {
        "id": "187",
        "type": "その他法人",
        "name": "大阪警察病院",
        "url": "http://www.oph.gr.jp/",
        "beds": "580",
        "address": "大阪市天王寺区北山町10-31",
        "tel": "06-6771-6051",
        "lat": "34.658967",
        "lon": "135.521289"
    },
    {
        "id": "188",
        "type": "その他法人",
        "name": "住友病院",
        "url": "http://www.sumitomo-hp.or.jp/",
        "beds": "499",
        "address": "大阪市北区中之島5-3-20",
        "tel": "06-6443-1261",
        "lat": "34.689078",
        "lon": "135.487135"
    },
    {
        "id": "189",
        "type": "その他法人",
        "name": "西淀病院",
        "url": "http://nishiyodo.org/",
        "beds": "218",
        "address": "大阪市西淀川区野里3-5-22",
        "tel": "06-6472-1141",
        "lat": "34.711401",
        "lon": "135.458915"
    },
    {
        "id": "190",
        "type": "その他法人",
        "name": "淀川キリスト教病院",
        "url": "http://www.ych.or.jp/",
        "beds": "581",
        "address": "大阪市東淀川区柴島1-7-50",
        "tel": "06-6322-2250",
        "lat": "34.729683",
        "lon": "135.511747"
    },
    {
        "id": "191",
        "type": "個人",
        "name": "生野病院",
        "url": "http://ikuno-hospital.com",
        "beds": "90",
        "address": "大阪市生野区中川西3-4-7",
        "tel": "06-6712-3451",
        "lat": "34.657011",
        "lon": "135.540952"
    },
    {
        "id": "192",
        "type": "個人",
        "name": "東和病院",
        "url": "http://www.towahospital.jp",
        "beds": "155",
        "address": "大阪市東住吉区田辺4-13-15",
        "tel": "06-6621-2211",
        "lat": "34.62322",
        "lon": "135.526281"
    },
    {
        "id": "193",
        "type": "個人",
        "name": "友紘会総合病院",
        "url": "http://www.yukoukai.com",
        "beds": "278",
        "address": "茨木市西豊川町25-1",
        "tel": "072-641-2488",
        "lat": "34.827943",
        "lon": "135.526623"
    }
]