[
    {
        "id": "1",
        "type": "独立行政法人国立病院機構",
        "name": "神戸医療センター",
        "url": "https://kobe.hosp.go.jp/",
        "beds": "304",
        "address": "神戸市須磨区西落合3-1-1",
        "tel": "078-791-0111",
        "lat": "34.681575",
        "lon": "135.085384"
    },
    {
        "id": "2",
        "type": "独立行政法人国立病院機構",
        "name": "姫路医療センター",
        "url": "http://www.hosp.go.jp/~hmj/",
        "beds": "411",
        "address": "姫路市本町68",
        "tel": "079-225-3211",
        "lat": "34.833766",
        "lon": "134.692804"
    },
    {
        "id": "3",
        "type": "独立行政法人国立病院機構",
        "name": "兵庫あおの病院",
        "url": "http://www.hosp.go.jp/~aono/",
        "beds": "250",
        "address": "小野市市場町926-453",
        "tel": "0794-62-5533",
        "lat": "34.829418",
        "lon": "134.95192"
    },
    {
        "id": "4",
        "type": "独立行政法人国立病院機構",
        "name": "兵庫中央病院",
        "url": "http://www.hyogo-chuo-hosp.jp/",
        "beds": "500",
        "address": "三田市大原1314",
        "tel": "079-563-2121",
        "lat": "34.909956",
        "lon": "135.228989"
    },
    {
        "id": "5",
        "type": "独立行政法人労働者健康安全機構",
        "name": "関西労災病院",
        "url": "http://www.kansaih.johas.go.jp/",
        "beds": "642",
        "address": "尼崎市稲葉荘3-1-69",
        "tel": "06-6416-1221",
        "lat": "34.736899",
        "lon": "135.384443"
    },
    {
        "id": "6",
        "type": "独立行政法人労働者健康安全機構",
        "name": "神戸労災病院",
        "url": "http://www.kobeh.johas.go.jp/",
        "beds": "360",
        "address": "神戸市中央区籠池通4-1-23",
        "tel": "078-231-5901",
        "lat": "34.710581",
        "lon": "135.207001"
    },
    {
        "id": "7",
        "type": "独立行政法人地域医療機能推進機構",
        "name": "神戸中央病院",
        "url": "http://kobe.jcho.go.jp/",
        "beds": "424",
        "address": "神戸市北区惣山町2-1-1",
        "tel": "078-594-2211",
        "lat": "34.735892",
        "lon": "135.155577"
    },
    {
        "id": "8",
        "type": "都道府県",
        "name": "兵庫県立尼崎総合医療センター",
        "url": "http://agmc.hyogo.jp/",
        "beds": "730",
        "address": "尼崎市東難波町2-17-77",
        "tel": "06-6480-7000",
        "lat": "34.729904",
        "lon": "135.412791"
    },
    {
        "id": "9",
        "type": "市町村",
        "name": "赤穂市民病院",
        "url": "http://www.amh.ako.hyogo.jp/",
        "beds": "396",
        "address": "赤穂市中広1090",
        "tel": "0791-43-3222",
        "lat": "34.743731",
        "lon": "134.39054"
    },
    {
        "id": "10",
        "type": "市町村",
        "name": "加東市民病院",
        "url": "http://www.city.kato.lg.jp/hospital/",
        "beds": "139",
        "address": "加東市家原85",
        "tel": "0795-42-5511",
        "lat": "34.922809",
        "lon": "134.963245"
    },
    {
        "id": "11",
        "type": "市町村",
        "name": "北播磨総合医療センター",
        "url": "http://www.kitahari-mc.jp",
        "beds": "450",
        "address": "小野市市場町926-250",
        "tel": "0794-88-8800",
        "lat": "34.831581",
        "lon": "134.951744"
    },
    {
        "id": "12",
        "type": "市町村",
        "name": "公立豊岡病院組合立朝来医療センター",
        "url": "http://www.toyookahp-kumiai.or.jp/asago/",
        "beds": "150",
        "address": "朝来市和田山町法興寺392",
        "tel": "079-672-3999",
        "lat": "35.324752",
        "lon": "134.854392"
    },
    {
        "id": "13",
        "type": "市町村",
        "name": "公立豊岡病院組合立豊岡病院",
        "url": "http://www.toyookahp-kumiai.or.jp/toyooka/",
        "beds": "518",
        "address": "豊岡市戸牧1094",
        "tel": "0796-22-6111",
        "lat": "35.526753",
        "lon": "134.806492"
    },
    {
        "id": "14",
        "type": "市町村",
        "name": "公立浜坂病院",
        "url": "http://hamasaka-hosp.town.shinonsen.hyogo.jp/",
        "beds": "49",
        "address": "美方郡新温泉町二日市184-1",
        "tel": "0796-82-1611",
        "lat": "35.618519",
        "lon": "134.475852"
    },
    {
        "id": "15",
        "type": "市町村",
        "name": "公立八鹿病院",
        "url": "http://www.hosp.yoka.hyogo.jp/",
        "beds": "380",
        "address": "養父市八鹿町八鹿1878-1",
        "tel": "079-662-5555",
        "lat": "35.40495",
        "lon": "134.773122"
    },
    {
        "id": "16",
        "type": "市町村",
        "name": "市立伊丹病院",
        "url": "http://www.hosp.itami.hyogo.jp/",
        "beds": "414",
        "address": "伊丹市昆陽池1-100",
        "tel": "072-777-3773",
        "lat": "34.78372",
        "lon": "135.397016"
    },
    {
        "id": "17",
        "type": "市町村",
        "name": "市立加西病院",
        "url": "http://www.hospital.kasai.hyogo.jp/",
        "beds": "266",
        "address": "加西市北条町横尾1-13",
        "tel": "0790-42-2200",
        "lat": "34.924575",
        "lon": "134.840096"
    },
    {
        "id": "18",
        "type": "市町村",
        "name": "豊岡病院日高医療センター",
        "url": "http://www.toyookahp-kumiai.or.jp/hidaka/",
        "beds": "99",
        "address": "豊岡市日高町岩中81",
        "tel": "0796-42-1611",
        "lat": "35.467107",
        "lon": "134.770745"
    },
    {
        "id": "19",
        "type": "市町村",
        "name": "西脇市立西脇病院",
        "url": "http://nshp.jp/",
        "beds": "320",
        "address": "西脇市下戸田652-1",
        "tel": "0795-22-0111",
        "lat": "34.987872",
        "lon": "134.984406"
    },
    {
        "id": "20",
        "type": "地方独立行政法人",
        "name": "加古川中央市民病院",
        "url": "https://www.kakohp.jp/",
        "beds": "600",
        "address": "加古川市加古川町本町439",
        "tel": "079-451-5500",
        "lat": "34.771435",
        "lon": "134.832487"
    },
    {
        "id": "21",
        "type": "地方独立行政法人",
        "name": "神戸市立医療センター中央市民病院",
        "url": "http://chuo.kcho.jp/",
        "beds": "768",
        "address": "神戸市中央区港島南町2-1-1",
        "tel": "078-302-4321",
        "lat": "34.660117",
        "lon": "135.214121"
    },
    {
        "id": "22",
        "type": "地方独立行政法人",
        "name": "神戸市立医療センター西市民病院",
        "url": "http://nishi.kcho.jp/",
        "beds": "358",
        "address": "神戸市長田区一番町2-4",
        "tel": "078-576-5251",
        "lat": "34.667312",
        "lon": "135.156949"
    },
    {
        "id": "23",
        "type": "地方独立行政法人",
        "name": "神戸市立神戸アイセンター病院",
        "url": "http://kobe.eye.center.kcho.jp/",
        "beds": "30",
        "address": "神戸市中央区港島南町2-1-8",
        "tel": "078-381-9876",
        "lat": "34.658959",
        "lon": "135.215543"
    },
    {
        "id": "24",
        "type": "地方独立行政法人",
        "name": "地方独立行政法人　明石市立市民病院",
        "url": "http://www.akashi-shiminhosp.jp/",
        "beds": "337",
        "address": "明石市鷹匠町1-33",
        "tel": "078-912-2323",
        "lat": "34.657017",
        "lon": "134.9902"
    },
    {
        "id": "25",
        "type": "地方独立行政法人",
        "name": "西神戸医療センター",
        "url": "http://www.nmc-kobe.or.jp",
        "beds": "475",
        "address": "神戸市西区糀台5-7-1",
        "tel": "078-997-2200",
        "lat": "34.716847",
        "lon": "135.019026"
    },
    {
        "id": "26",
        "type": "日赤",
        "name": "神戸赤十字病院",
        "url": "http://www.kobe.jrc.or.jp/",
        "beds": "310",
        "address": "神戸市中央区脇浜海岸通1-3-1",
        "tel": "078-231-6006",
        "lat": "34.696515",
        "lon": "135.211739"
    },
    {
        "id": "27",
        "type": "日赤",
        "name": "多可赤十字病院",
        "url": "http://www.taka.jrc.or.jp/",
        "beds": "110",
        "address": "多可郡多可町中区岸上280",
        "tel": "0795-32-1223",
        "lat": "35.05488",
        "lon": "134.922252"
    },
    {
        "id": "28",
        "type": "日赤",
        "name": "姫路赤十字病院",
        "url": "http://himeji.jrc.or.jp/",
        "beds": "560",
        "address": "姫路市下手野1-12-1",
        "tel": "079-294-2251",
        "lat": "34.844245",
        "lon": "134.64786"
    },
    {
        "id": "29",
        "type": "済生会",
        "name": "済生会兵庫県病院",
        "url": "http://www.saiseikai.info",
        "beds": "268",
        "address": "神戸市北区藤原台中町5-1-1",
        "tel": "078-987-2222",
        "lat": "34.823176",
        "lon": "135.215077"
    },
    {
        "id": "30",
        "type": "健康保険組合及び連合会",
        "name": "ＩＨＩ播磨病院",
        "url": "http://www.harima-hp.jp",
        "beds": "180",
        "address": "相生市旭3-5-15",
        "tel": "0791-22-0380",
        "lat": "34.806264",
        "lon": "134.469424"
    },
    {
        "id": "31",
        "type": "共済組合及び連合会",
        "name": "近畿中央病院",
        "url": "http://www.kich.itami.hyogo.jp/",
        "beds": "445",
        "address": "伊丹市車塚3-1",
        "tel": "072-781-3712",
        "lat": "34.763191",
        "lon": "135.401345"
    },
    {
        "id": "32",
        "type": "共済組合及び連合会",
        "name": "六甲病院",
        "url": "http://www.rokkouhp.jp/",
        "beds": "178",
        "address": "神戸市灘区土山町5-1",
        "tel": "078-851-8558",
        "lat": "34.725192",
        "lon": "135.24241"
    },
    {
        "id": "33",
        "type": "医療法人",
        "name": "明石土山病院",
        "url": "http://www.athp.jp/",
        "beds": "403",
        "address": "明石市魚住町清水2744-30",
        "tel": "078-942-1021",
        "lat": "34.722223",
        "lon": "134.906075"
    },
    {
        "id": "34",
        "type": "医療法人",
        "name": "赤穂中央病院",
        "url": "http://www.hakuho.or.jp/",
        "beds": "265",
        "address": "赤穂市惣門町52-6",
        "tel": "0791-45-1111",
        "lat": "34.75602",
        "lon": "134.385464"
    },
    {
        "id": "35",
        "type": "医療法人",
        "name": "あさひ病院",
        "url": "http://www.asahi-hospital.gr.jp/",
        "beds": "100",
        "address": "明石市林崎町2-1-31",
        "tel": "078-924-1111",
        "lat": "34.650975",
        "lon": "134.967707"
    },
    {
        "id": "36",
        "type": "医療法人",
        "name": "あんしん病院",
        "url": "http://www.anshin-hospital.jp/",
        "beds": "60",
        "address": "神戸市中央区港島南町1丁目4-12",
        "tel": "078-304-5252",
        "lat": "34.659559",
        "lon": "135.218196"
    },
    {
        "id": "37",
        "type": "医療法人",
        "name": "安藤病院",
        "url": "http://chiseikai.byoinnavi.jp",
        "beds": "153",
        "address": "尼崎市東難波町5-19-16",
        "tel": "06-6482-2922",
        "lat": "34.722243",
        "lon": "135.41551"
    },
    {
        "id": "38",
        "type": "医療法人",
        "name": "伊川谷病院",
        "url": "http://www.ikawadani.jp/",
        "beds": "115",
        "address": "神戸市西区池上2-4-2",
        "tel": "078-974-1117",
        "lat": "34.672137",
        "lon": "135.028698"
    },
    {
        "id": "39",
        "type": "医療法人",
        "name": "生駒病院",
        "url": "http://www.ikoma-hp.com",
        "beds": "198",
        "address": "川辺郡猪名川町広根字九十九8",
        "tel": "072-766-0172",
        "lat": "34.890592",
        "lon": "135.372736"
    },
    {
        "id": "40",
        "type": "医療法人",
        "name": "石井病院",
        "url": "http://www.jinkeikai-group.or.jp",
        "beds": "103",
        "address": "明石市天文町1-5-11",
        "tel": "078-918-1655",
        "lat": "34.647148",
        "lon": "134.999826"
    },
    {
        "id": "41",
        "type": "医療法人",
        "name": "伊丹天神川病院",
        "url": "http://www.itamitenjingawa-hp.com",
        "beds": "267",
        "address": "伊丹市北野6-38",
        "tel": "072-781-5577",
        "lat": "34.8061",
        "lon": "135.388328"
    },
    {
        "id": "42",
        "type": "医療法人",
        "name": "井野病院",
        "url": "http://www.inohos.com",
        "beds": "100",
        "address": "姫路市大塩町汐咲1-27",
        "tel": "079-254-5553",
        "lat": "34.778558",
        "lon": "134.755671"
    },
    {
        "id": "43",
        "type": "医療法人",
        "name": "医療法人寛仁会　吉田アーデント病院",
        "url": "http://www.yoshida-ardent-hospital.com/",
        "beds": "80",
        "address": "神戸市灘区原田通1-3-17",
        "tel": "078-861-0001",
        "lat": "34.70885",
        "lon": "135.216054"
    },
    {
        "id": "44",
        "type": "医療法人",
        "name": "栄宏会小野病院",
        "url": "",
        "beds": "112",
        "address": "小野市天神町973",
        "tel": "0794-62-9900",
        "lat": "34.844961",
        "lon": "134.942481"
    },
    {
        "id": "45",
        "type": "医療法人",
        "name": "大西脳神経外科病院",
        "url": "http://www.onc.akashi.hyogo.jp",
        "beds": "122",
        "address": "明石市大久保町江井島1661-1",
        "tel": "078-938-1238",
        "lat": "34.682082",
        "lon": "134.927666"
    },
    {
        "id": "46",
        "type": "医療法人",
        "name": "小原病院",
        "url": "http://ohara-hospital.jp/",
        "beds": "185",
        "address": "神戸市兵庫区荒田町1-9-19",
        "tel": "078-521-1222",
        "lat": "34.681136",
        "lon": "135.168795"
    },
    {
        "id": "47",
        "type": "医療法人",
        "name": "川崎病院",
        "url": "http://kawasaki-hospital-kobe.or.jp/",
        "beds": "278",
        "address": "神戸市兵庫区東山町3-3-1",
        "tel": "078-511-3131",
        "lat": "34.680224",
        "lon": "135.162984"
    },
    {
        "id": "48",
        "type": "医療法人",
        "name": "北須磨病院",
        "url": "http://www.sumire.or.jp/",
        "beds": "111",
        "address": "神戸市須磨区東白川台1-1-1",
        "tel": "078-743-6666",
        "lat": "34.692199",
        "lon": "135.103795"
    },
    {
        "id": "49",
        "type": "医療法人",
        "name": "木村病院",
        "url": "http://www.kimura-hospital.or.jp",
        "beds": "44",
        "address": "姫路市南八代町5-3",
        "tel": "079-296-1115",
        "lat": "34.842458",
        "lon": "134.687169"
    },
    {
        "id": "50",
        "type": "医療法人",
        "name": "合志病院",
        "url": "http://www.gohshi.or.jp",
        "beds": "99",
        "address": "尼崎市長洲西通1-8-20",
        "tel": "06-6488-1601",
        "lat": "34.727109",
        "lon": "135.429573"
    },
    {
        "id": "51",
        "type": "医療法人",
        "name": "神戸海星病院",
        "url": "http://www.kobe-kaisei.org",
        "beds": "180",
        "address": "神戸市灘区篠原北町3-11-15",
        "tel": "078-871-5201",
        "lat": "34.723784",
        "lon": "135.225663"
    },
    {
        "id": "52",
        "type": "医療法人",
        "name": "神戸百年記念病院",
        "url": "http://www.kobe-century-mh.or.jp",
        "beds": "199",
        "address": "神戸市兵庫区御崎町1-9-1",
        "tel": "078-681-6111",
        "lat": "34.658851",
        "lon": "135.168718"
    },
    {
        "id": "53",
        "type": "医療法人",
        "name": "近藤病院",
        "url": "http://www.kondohospital.com/",
        "beds": "96",
        "address": "尼崎市昭和通4-114",
        "tel": "06-6411-6181",
        "lat": "34.721575",
        "lon": "135.413197"
    },
    {
        "id": "54",
        "type": "医療法人",
        "name": "坂上田病院",
        "url": "http://sakaueda.server-shared.com/",
        "beds": "53",
        "address": "西宮市津門仁辺町6-25",
        "tel": "0798-34-0002",
        "lat": "34.734758",
        "lon": "135.352487"
    },
    {
        "id": "55",
        "type": "医療法人",
        "name": "佐野病院",
        "url": "http://www.sano-hospital.or.jp",
        "beds": "160",
        "address": "神戸市垂水区清水が丘2-5-1",
        "tel": "078-785-1000",
        "lat": "34.650303",
        "lon": "135.040528"
    },
    {
        "id": "56",
        "type": "医療法人",
        "name": "佐用共立病院",
        "url": "http://sayohp.jp/",
        "beds": "90",
        "address": "佐用郡佐用町佐用1111",
        "tel": "0790-82-2321",
        "lat": "35.004253",
        "lon": "134.351833"
    },
    {
        "id": "57",
        "type": "医療法人",
        "name": "佐用中央病院",
        "url": "http://www.sayochuo-hospital.or.jp/",
        "beds": "157",
        "address": "佐用郡佐用町佐用3529-3",
        "tel": "0790-82-2154",
        "lat": "35.007973",
        "lon": "134.365794"
    },
    {
        "id": "58",
        "type": "医療法人",
        "name": "昭生病院",
        "url": "http://www.syousei-hospital.jp/",
        "beds": "103",
        "address": "神戸市灘区鶴甲3-13-19",
        "tel": "078-881-5500",
        "lat": "34.733116",
        "lon": "135.231838"
    },
    {
        "id": "59",
        "type": "医療法人",
        "name": "新須磨病院",
        "url": "http://www.jikeikai-group.or.jp/shinsuma/",
        "beds": "147",
        "address": "神戸市須磨区衣掛町3-1-14",
        "tel": "078-735-0660",
        "lat": "34.64567",
        "lon": "135.129804"
    },
    {
        "id": "60",
        "type": "医療法人",
        "name": "園田病院",
        "url": "http://www.sonodamedic.or.jp",
        "beds": "84",
        "address": "尼崎市東園田町2-48-7",
        "tel": "06-6491-9521",
        "lat": "34.757857",
        "lon": "135.448467"
    },
    {
        "id": "61",
        "type": "医療法人",
        "name": "高砂西部病院",
        "url": "http://www.takasagoseibu.jp/",
        "beds": "219",
        "address": "高砂市中筋1-10-41",
        "tel": "079-447-0100",
        "lat": "34.78925",
        "lon": "134.772348"
    },
    {
        "id": "62",
        "type": "医療法人",
        "name": "高橋病院",
        "url": "http://www.takahashi-hp.or.jp",
        "beds": "112",
        "address": "神戸市須磨区大池町5-18-1",
        "tel": "078-733-1136",
        "lat": "34.653018",
        "lon": "135.133554"
    },
    {
        "id": "63",
        "type": "医療法人",
        "name": "宝塚病院",
        "url": "http://www.takarazuka-hospital.com/",
        "beds": "131",
        "address": "宝塚市野上2-1-2",
        "tel": "0797-71-3111",
        "lat": "34.797802",
        "lon": "135.34946"
    },
    {
        "id": "64",
        "type": "医療法人",
        "name": "たずみ病院",
        "url": "http://www.tazumi-hp.com",
        "beds": "96",
        "address": "加古川市尾上町口里790-66",
        "tel": "079-456-2252",
        "lat": "34.733004",
        "lon": "134.834356"
    },
    {
        "id": "65",
        "type": "医療法人",
        "name": "立花病院",
        "url": "http://tachibana-hp.net",
        "beds": "272",
        "address": "尼崎市立花町4-3-18",
        "tel": "06-6438-3761",
        "lat": "34.740148",
        "lon": "135.398411"
    },
    {
        "id": "66",
        "type": "医療法人",
        "name": "田中病院",
        "url": "http://juntokukai.or.jp/",
        "beds": "135",
        "address": "尼崎市武庫川町2-2",
        "tel": "06-6416-6931",
        "lat": "34.717788",
        "lon": "135.380706"
    },
    {
        "id": "67",
        "type": "医療法人",
        "name": "谷向病院",
        "url": "http://tanimukai.or.jp/",
        "beds": "180",
        "address": "西宮市今津水波町6-30",
        "tel": "0798-33-0345",
        "lat": "34.729074",
        "lon": "135.352278"
    },
    {
        "id": "68",
        "type": "医療法人",
        "name": "常岡病院",
        "url": "http://tsuneoka-h.or.jp/",
        "beds": "103",
        "address": "伊丹市行基町2-5",
        "tel": "072-772-0531",
        "lat": "34.779151",
        "lon": "135.410034"
    },
    {
        "id": "69",
        "type": "医療法人",
        "name": "西宮回生病院",
        "url": "http://www.kaiseihp.jp/",
        "beds": "107",
        "address": "西宮市大浜町1-4",
        "tel": "0798-33-0601",
        "lat": "34.72577",
        "lon": "135.328017"
    },
    {
        "id": "70",
        "type": "医療法人",
        "name": "西宮協立脳神経外科病院",
        "url": "http://www.nk-hospital.or.jp/",
        "beds": "164",
        "address": "西宮市今津山中町11-1",
        "tel": "0798-33-2211",
        "lat": "34.732014",
        "lon": "135.35754"
    },
    {
        "id": "71",
        "type": "医療法人",
        "name": "西病院",
        "url": "http://www.koyukai.or.jp",
        "beds": "84",
        "address": "神戸市灘区備後町3-2-18",
        "tel": "078-821-4151",
        "lat": "34.714382",
        "lon": "135.240243"
    },
    {
        "id": "72",
        "type": "医療法人",
        "name": "野村海浜病院",
        "url": "http://nomura-kaihin.or.jp",
        "beds": "176",
        "address": "神戸市須磨区須磨浦通2-1-41",
        "tel": "078-731-6471",
        "lat": "34.643472",
        "lon": "135.121169"
    },
    {
        "id": "73",
        "type": "医療法人",
        "name": "服部病院",
        "url": "",
        "beds": "179",
        "address": "三木市大塚218-3",
        "tel": "0794-83-9462",
        "lat": "34.799129",
        "lon": "134.999849"
    },
    {
        "id": "74",
        "type": "医療法人",
        "name": "母と子の上田病院",
        "url": "http://www.ueda-hp.jp/",
        "beds": "45",
        "address": "神戸市中央区国香通1-1-4",
        "tel": "078-241-3305",
        "lat": "34.703817",
        "lon": "135.205694"
    },
    {
        "id": "75",
        "type": "医療法人",
        "name": "播磨大塩病院",
        "url": "http://oshio-hp.com/",
        "beds": "278",
        "address": "姫路市大塩町1096",
        "tel": "079-254-0321",
        "lat": "34.790331",
        "lon": "134.758437"
    },
    {
        "id": "76",
        "type": "医療法人",
        "name": "半田中央病院",
        "url": "http://handahp1001.ec-net.jp/",
        "beds": "130",
        "address": "相生市旭3-2-18",
        "tel": "0791-22-0656",
        "lat": "34.804586",
        "lon": "134.469753"
    },
    {
        "id": "77",
        "type": "医療法人",
        "name": "東浦平成病院",
        "url": "http://higashihp.jp/",
        "beds": "239",
        "address": "淡路市久留麻1867",
        "tel": "0799-74-0503",
        "lat": "34.52454",
        "lon": "134.986666"
    },
    {
        "id": "78",
        "type": "医療法人",
        "name": "樋口胃腸病院",
        "url": "http://higuchi-hp.server-shared.com/",
        "beds": "60",
        "address": "尼崎市昭和通1-17-6",
        "tel": "06-6482-0110",
        "lat": "34.719869",
        "lon": "135.425464"
    },
    {
        "id": "79",
        "type": "医療法人",
        "name": "姫路第一病院",
        "url": "http://www.himeji-daiichi.or.jp/",
        "beds": "100",
        "address": "姫路市御国野町国分寺143",
        "tel": "079-252-0581",
        "lat": "34.82176",
        "lon": "134.731164"
    },
    {
        "id": "80",
        "type": "医療法人",
        "name": "平島病院",
        "url": "http://www.mc-shojin.or.jp/",
        "beds": "199",
        "address": "三田市天神1-2-15",
        "tel": "079-564-5381",
        "lat": "34.889703",
        "lon": "135.222271"
    },
    {
        "id": "81",
        "type": "医療法人",
        "name": "ふくやま病院",
        "url": "http://www.fukuyama-hp.jp/",
        "beds": "104",
        "address": "明石市硯町2-5-55",
        "tel": "078-927-1514",
        "lat": "34.649791",
        "lon": "134.97955"
    },
    {
        "id": "82",
        "type": "医療法人",
        "name": "舞子台病院",
        "url": "http://www.maikodai-hp.or.jp/",
        "beds": "120",
        "address": "神戸市垂水区舞子台7-2-1",
        "tel": "078-782-0055",
        "lat": "34.639835",
        "lon": "135.04153"
    },
    {
        "id": "83",
        "type": "医療法人",
        "name": "丸山病院",
        "url": "http://maruyama-hospital.com/",
        "beds": "105",
        "address": "神戸市長田区丸山町3-4-22",
        "tel": "078-642-1031",
        "lat": "34.683163",
        "lon": "135.13984"
    },
    {
        "id": "84",
        "type": "医療法人",
        "name": "三木山陽病院",
        "url": "http://www.hoyukai.or.jp/",
        "beds": "197",
        "address": "三木市志染町吉田1213-1",
        "tel": "0794-85-3061",
        "lat": "34.790772",
        "lon": "135.013517"
    },
    {
        "id": "85",
        "type": "医療法人",
        "name": "みきやまリハビリテーション病院",
        "url": "http://www.mikiyama-hp.jp",
        "beds": "166",
        "address": "三木市大塚1-5-89",
        "tel": "0794-83-3316",
        "lat": "34.795324",
        "lon": "134.99337"
    },
    {
        "id": "86",
        "type": "医療法人",
        "name": "南芦屋浜病院",
        "url": "http://s-ashiyahama-hp.or.jp/",
        "beds": "83",
        "address": "芦屋市陽光町3-21",
        "tel": "0797-22-4040",
        "lat": "34.712943",
        "lon": "135.31407"
    },
    {
        "id": "87",
        "type": "医療法人",
        "name": "宮地病院",
        "url": "http://www.meirinkai.or.jp/",
        "beds": "88",
        "address": "神戸市東灘区本山中町4-1-8",
        "tel": "078-451-1221",
        "lat": "34.725059",
        "lon": "135.281013"
    },
    {
        "id": "88",
        "type": "医療法人",
        "name": "みやそう病院",
        "url": "http://www.miyasou-hp.com",
        "beds": "97",
        "address": "伊丹市北野2-113-3",
        "tel": "0727-77-1351",
        "lat": "34.804282",
        "lon": "135.384871"
    },
    {
        "id": "89",
        "type": "医療法人",
        "name": "三好病院",
        "url": "http://www.miyoshi-hp.jp/",
        "beds": "104",
        "address": "西宮市甲子園口北町24-9",
        "tel": "0798-67-3505",
        "lat": "34.741721",
        "lon": "135.376912"
    },
    {
        "id": "90",
        "type": "医療法人",
        "name": "明海病院",
        "url": "http://www.meikai.or.jp/",
        "beds": "60",
        "address": "明石市藤江201",
        "tel": "078-922-8800",
        "lat": "34.6563",
        "lon": "134.9537"
    },
    {
        "id": "91",
        "type": "医療法人",
        "name": "明和病院",
        "url": "https://www.meiwa-hospital.com/",
        "beds": "357",
        "address": "西宮市上鳴尾町4-31",
        "tel": "0798-47-1767",
        "lat": "34.722385",
        "lon": "135.370115"
    },
    {
        "id": "92",
        "type": "医療法人",
        "name": "鷲田病院",
        "url": "http://www.washida-hp.com",
        "beds": "61",
        "address": "尼崎市三反田2-16-18",
        "tel": "06-6429-1234",
        "lat": "34.740344",
        "lon": "135.408589"
    },
    {
        "id": "93",
        "type": "特定医療法人",
        "name": "赤穂仁泉病院",
        "url": "http://www.sensuikai.or.jp",
        "beds": "247",
        "address": "赤穂市浜市408",
        "tel": "0791-48-8087",
        "lat": "34.770079",
        "lon": "134.418068"
    },
    {
        "id": "94",
        "type": "特定医療法人",
        "name": "大久保病院",
        "url": "http://www.seijinkai.or.jp/",
        "beds": "199",
        "address": "明石市大久保町大窪2095-1",
        "tel": "078-935-2563",
        "lat": "34.691831",
        "lon": "134.945739"
    },
    {
        "id": "95",
        "type": "特定医療法人",
        "name": "荻原整形外科病院",
        "url": "http://www.ikkikai.or.jp/",
        "beds": "52",
        "address": "神戸市中央区北長狭通5-3-5",
        "tel": "078-351-5751",
        "lat": "34.689393",
        "lon": "135.184259"
    },
    {
        "id": "96",
        "type": "特定医療法人",
        "name": "尾原病院",
        "url": "http://www.tsukasakai.jp/",
        "beds": "98",
        "address": "神戸市須磨区妙法寺字荒打308-1",
        "tel": "078-743-1135",
        "lat": "34.675174",
        "lon": "135.107887"
    },
    {
        "id": "97",
        "type": "特定医療法人",
        "name": "隈病院",
        "url": "http://www.kuma-h.or.jp/",
        "beds": "58",
        "address": "神戸市中央区下山手通8-2-35",
        "tel": "078-371-3721",
        "lat": "34.686597",
        "lon": "135.17965"
    },
    {
        "id": "98",
        "type": "特定医療法人",
        "name": "神戸徳洲会病院",
        "url": "http://www.kobetokushukai.org/",
        "beds": "309",
        "address": "神戸市垂水区上高丸1-3-10",
        "tel": "078-707-1110",
        "lat": "34.64151",
        "lon": "135.050356"
    },
    {
        "id": "99",
        "type": "特定医療法人",
        "name": "書写病院",
        "url": "http://www.mmjp/shosha-hp/",
        "beds": "92",
        "address": "姫路市書写台2-28",
        "tel": "079-266-2525",
        "lat": "34.869245",
        "lon": "134.648472"
    },
    {
        "id": "100",
        "type": "特定医療法人",
        "name": "高岡病院",
        "url": "http://www.keifukai.or.jp/",
        "beds": "535",
        "address": "姫路市西今宿5-3-8",
        "tel": "079-293-3315",
        "lat": "34.845293",
        "lon": "134.661241"
    },
    {
        "id": "101",
        "type": "特定医療法人",
        "name": "中馬病院",
        "url": "http://www.chuma.biz/",
        "beds": "65",
        "address": "尼崎市開明町3-29",
        "tel": "06-6411-6081",
        "lat": "34.716597",
        "lon": "135.414628"
    },
    {
        "id": "102",
        "type": "特定医療法人",
        "name": "つかぐち病院",
        "url": "https://www.kensei-kai-tsukaguchi.jp/",
        "beds": "152",
        "address": "尼崎市南塚口町6丁目8番1号",
        "tel": "06-6429-1463",
        "lat": "34.756979",
        "lon": "135.405128"
    },
    {
        "id": "103",
        "type": "特定医療法人",
        "name": "西武庫病院",
        "url": "http://www.nishimuko-hp.com",
        "beds": "59",
        "address": "尼崎市武庫元町2-4-13",
        "tel": "06-6431-0015",
        "lat": "34.755907",
        "lon": "135.379514"
    },
    {
        "id": "104",
        "type": "特定医療法人",
        "name": "はりま病院",
        "url": "http://www.harima.senreikai.org",
        "beds": "89",
        "address": "加古郡播磨町北野添2-1-15",
        "tel": "078-943-0050",
        "lat": "34.720315",
        "lon": "134.887045"
    },
    {
        "id": "105",
        "type": "特定医療法人",
        "name": "東神戸病院",
        "url": "http://www.k-kyowakai.or.jp/eastkobehp/",
        "beds": "166",
        "address": "神戸市東灘区住吉本町1-24-13",
        "tel": "078-841-5731",
        "lat": "34.722213",
        "lon": "135.260181"
    },
    {
        "id": "106",
        "type": "特定医療法人",
        "name": "広野高原病院",
        "url": "http://hironokougen.jp/",
        "beds": "147",
        "address": "神戸市西区北山台3-1-1",
        "tel": "078-994-1155",
        "lat": "34.764618",
        "lon": "135.036148"
    },
    {
        "id": "107",
        "type": "特定医療法人",
        "name": "明舞中央病院",
        "url": "http://www.meijinkai.or.jp/",
        "beds": "199",
        "address": "明石市松が丘4-1-32",
        "tel": "078-917-2020",
        "lat": "34.652379",
        "lon": "135.024826"
    },
    {
        "id": "108",
        "type": "社会医療法人",
        "name": "尼崎だいもつ病院",
        "url": "http://amagasakidaimotsu.aijinkai.or.jp/",
        "beds": "199",
        "address": "尼崎市東大物町1-1-1",
        "tel": "06-6482-0001",
        "lat": "34.717506",
        "lon": "135.428102"
    },
    {
        "id": "109",
        "type": "社会医療法人",
        "name": "尼崎中央病院",
        "url": "http://www.chuoukai.or.jp/",
        "beds": "309",
        "address": "尼崎市潮江1-12-1",
        "tel": "06-6499-3045",
        "lat": "34.733851",
        "lon": "135.433916"
    },
    {
        "id": "110",
        "type": "社会医療法人",
        "name": "大山記念病院",
        "url": "http://ohyama-hp.jp/",
        "beds": "199",
        "address": "西脇市黒田庄町田高313",
        "tel": "0795-28-3773",
        "lat": "35.057",
        "lon": "134.995228"
    },
    {
        "id": "111",
        "type": "社会医療法人",
        "name": "社会医療法人愛仁会　明石医療センター",
        "url": "https://www.amc1.jp/",
        "beds": "382",
        "address": "明石市大久保町八木743-33",
        "tel": "078-936-1101",
        "lat": "34.674818",
        "lon": "134.93766"
    },
    {
        "id": "112",
        "type": "社会医療法人",
        "name": "神鋼記念病院",
        "url": "http://www.shinkohp.or.jp/",
        "beds": "333",
        "address": "神戸市中央区脇浜町1-4-47",
        "tel": "078-261-6711",
        "lat": "34.703924",
        "lon": "135.21122"
    },
    {
        "id": "113",
        "type": "社会医療法人",
        "name": "ツカザキ記念病院",
        "url": "http://www.tsukazaki.or.jp/",
        "beds": "139",
        "address": "姫路市南車崎1-5-5",
        "tel": "079-294-8555",
        "lat": "34.834913",
        "lon": "134.67411"
    },
    {
        "id": "114",
        "type": "社会医療法人",
        "name": "ツカザキ病院",
        "url": "http://www.tsukazaki-hp.jp/",
        "beds": "241",
        "address": "姫路市網干区和久68-1",
        "tel": "079-272-8555",
        "lat": "34.810074",
        "lon": "134.590139"
    },
    {
        "id": "115",
        "type": "社会医療法人",
        "name": "西宮協立リハビリテーション病院",
        "url": "http://www.nk-hospital.or.jp",
        "beds": "120",
        "address": "西宮市鷲林寺南町2-13",
        "tel": "0798-75-3000",
        "lat": "34.769346",
        "lon": "135.314274"
    },
    {
        "id": "116",
        "type": "社会医療法人",
        "name": "西宮渡辺心臓脳・血管センター",
        "url": "http://www.n-watanabe-hosp.jp/hab/",
        "beds": "108",
        "address": "西宮市池田町3-25",
        "tel": "0798-36-1880",
        "lat": "34.737526",
        "lon": "135.344733"
    },
    {
        "id": "117",
        "type": "社会医療法人",
        "name": "西宮渡辺病院",
        "url": "http://www.n-watanabe-hosp.jp/",
        "beds": "184",
        "address": "西宮市室川町10-22",
        "tel": "0798-74-2630",
        "lat": "34.744366",
        "lon": "135.343136"
    },
    {
        "id": "118",
        "type": "社会医療法人",
        "name": "姫路聖マリア病院",
        "url": "http://www.himemaria.or.jp/",
        "beds": "440",
        "address": "姫路市仁豊野650",
        "tel": "079-265-5111",
        "lat": "34.878016",
        "lon": "134.732061"
    },
    {
        "id": "119",
        "type": "私立学校法人",
        "name": "兵庫医科大学ささやま医療センター",
        "url": "http://www.sasayama.hyo-med.ac.jp",
        "beds": "180",
        "address": "篠山市黒岡５",
        "tel": "079-552-1181",
        "lat": "35.080452",
        "lon": "135.215607"
    },
    {
        "id": "120",
        "type": "私立学校法人",
        "name": "兵庫医科大学病院",
        "url": "http://www.hosp.hyo-med.ac.jp/",
        "beds": "963",
        "address": "西宮市武庫川町1-1",
        "tel": "0798-45-6611",
        "lat": "34.718653",
        "lon": "135.379111"
    },
    {
        "id": "121",
        "type": "社会福祉法人",
        "name": "聖隷淡路病院",
        "url": "http://www.seirei.or.jp/awaji/",
        "beds": "152",
        "address": "淡路市夢舞台1-1",
        "tel": "0799-72-3636",
        "lat": "34.558341",
        "lon": "135.008319"
    },
    {
        "id": "122",
        "type": "医療生協",
        "name": "尼崎医療生協病院",
        "url": "http://www.amagasaki.coop/byouin/",
        "beds": "199",
        "address": "尼崎市南武庫之荘12-16-1",
        "tel": "06-6436-1701",
        "lat": "34.740312",
        "lon": "135.384342"
    },
    {
        "id": "123",
        "type": "医療生協",
        "name": "神戸協同病院",
        "url": "http://www.kobekyodo-hp.jp/",
        "beds": "167",
        "address": "神戸市長田区久保町2-4-7",
        "tel": "078-641-6211",
        "lat": "34.655641",
        "lon": "135.149727"
    },
    {
        "id": "124",
        "type": "会社",
        "name": "三菱神戸病院",
        "url": "http://www.mhi.co.jp/kobe/hospital/",
        "beds": "188",
        "address": "神戸市兵庫区和田宮通6-1-34",
        "tel": "078-671-7705",
        "lat": "34.654868",
        "lon": "135.17596"
    },
    {
        "id": "125",
        "type": "その他法人",
        "name": "甲南医療センター",
        "url": "http://www.kohnan.or.jp/",
        "beds": "380",
        "address": "神戸市東灘区鴨子ケ原1-5-16",
        "tel": "078-851-2161",
        "lat": "34.729105",
        "lon": "135.251675"
    },
    {
        "id": "126",
        "type": "その他法人",
        "name": "神戸アドベンチスト病院",
        "url": "http://www.kahns.org/",
        "beds": "116",
        "address": "神戸市北区有野台8-4-1",
        "tel": "078-981-0161",
        "lat": "34.808647",
        "lon": "135.224472"
    },
    {
        "id": "127",
        "type": "その他法人",
        "name": "神戸掖済会病院",
        "url": "http://www.kobe-ekisaikai.or.jp",
        "beds": "325",
        "address": "神戸市垂水区学が丘1-21-1",
        "tel": "078-781-7811",
        "lat": "34.652964",
        "lon": "135.052936"
    },
    {
        "id": "128",
        "type": "その他法人",
        "name": "六甲アイランド甲南病院",
        "url": "http://www.kohnan.or.jp/rokko/",
        "beds": "302",
        "address": "神戸市東灘区向洋町中2-11",
        "tel": "078-858-1111",
        "lat": "34.689171",
        "lon": "135.270833"
    },
    {
        "id": "129",
        "type": "個人",
        "name": "尾﨑病院",
        "url": "http://www.osakihp.com/",
        "beds": "76",
        "address": "佐用郡佐用町上三河141-4",
        "tel": "0790-77-0221",
        "lat": "35.068101",
        "lon": "134.421234"
    },
    {
        "id": "130",
        "type": "個人",
        "name": "神崎病院",
        "url": "",
        "beds": "57",
        "address": "尼崎市浜3-1-10",
        "tel": "06-6499-8466",
        "lat": "34.735605",
        "lon": "135.435357"
    },
    {
        "id": "131",
        "type": "個人",
        "name": "神戸朝日病院",
        "url": "http://www.kobe-asahi-hp.com",
        "beds": "134",
        "address": "神戸市長田区房王寺町3-5-25",
        "tel": "078-612-5151",
        "lat": "34.678557",
        "lon": "135.150441"
    },
    {
        "id": "132",
        "type": "個人",
        "name": "神戸博愛病院",
        "url": "http://www.kobehakuai-togen.com/",
        "beds": "120",
        "address": "神戸市中央区元町通7-1-17",
        "tel": "078-362-5010",
        "lat": "34.683451",
        "lon": "135.179092"
    },
    {
        "id": "133",
        "type": "個人",
        "name": "田所病院",
        "url": "http://tadokorohp.or.jp/",
        "beds": "60",
        "address": "神戸市灘区船寺通1-2-1",
        "tel": "078-881-2211",
        "lat": "34.706992",
        "lon": "135.230431"
    },
    {
        "id": "134",
        "type": "個人",
        "name": "九十九記念病院",
        "url": "http://www.tukumo-kinenhp.jp/",
        "beds": "82",
        "address": "川西市栄町10-4",
        "tel": "072-759-9020",
        "lat": "34.829169",
        "lon": "135.413765"
    },
    {
        "id": "135",
        "type": "個人",
        "name": "信原病院",
        "url": "http://nobuhara-hp.sakura.ne.jp",
        "beds": "99",
        "address": "たつの市揖西町土師720",
        "tel": "0791-66-0981",
        "lat": "34.835917",
        "lon": "134.497014"
    }
]