[
    {
        "id": "1",
        "type": "独立行政法人国立病院機構",
        "name": "奈良医療センター",
        "url": "http://www.nho-nara.jp/",
        "beds": "350",
        "address": "奈良市七条2-789",
        "tel": "0742-45-4591",
        "lat": "34.665631",
        "lon": "135.77672"
    },
    {
        "id": "2",
        "type": "独立行政法人国立病院機構",
        "name": "やまと精神医療センター",
        "url": "http://yamato-hosp.jp/",
        "beds": "283",
        "address": "大和郡山市小泉町2815",
        "tel": "0743-52-3081",
        "lat": "34.631821",
        "lon": "135.750525"
    },
    {
        "id": "3",
        "type": "独立行政法人地域医療機能推進機構",
        "name": "大和郡山病院",
        "url": "http://www.yamatokoriyama.jcho.go.jp",
        "beds": "223",
        "address": "大和郡山市朝日町1-62",
        "tel": "0743-53-1111",
        "lat": "34.647418",
        "lon": "135.780011"
    },
    {
        "id": "4",
        "type": "市町村",
        "name": "宇陀市立病院",
        "url": "http://www.city.uda.nara.jp/udacity-hp/",
        "beds": "176",
        "address": "宇陀市榛原萩原815",
        "tel": "0745-82-0381",
        "lat": "34.530664",
        "lon": "135.960918"
    },
    {
        "id": "5",
        "type": "市町村",
        "name": "国保中央病院",
        "url": "http://www.kokuho-hp.or.jp/",
        "beds": "220",
        "address": "磯城郡田原本町宮古404-1",
        "tel": "0744-32-8800",
        "lat": "34.562326",
        "lon": "135.777487"
    },
    {
        "id": "6",
        "type": "市町村",
        "name": "市立奈良病院",
        "url": "http://www.nara-jadecom.jp",
        "beds": "350",
        "address": "奈良市東紀寺町1-50-1",
        "tel": "0742-24-1252",
        "lat": "34.671957",
        "lon": "135.835343"
    },
    {
        "id": "7",
        "type": "市町村",
        "name": "南奈良総合医療センター",
        "url": "http://nanwairyou.jp/",
        "beds": "232",
        "address": "吉野郡大淀町大字福神8-1",
        "tel": "0747-54-5000",
        "lat": "34.393262",
        "lon": "135.751137"
    },
    {
        "id": "8",
        "type": "市町村",
        "name": "大和高田市立病院",
        "url": "http://ym-hp.yamatotakada.nara.jp/index.html",
        "beds": "320",
        "address": "大和高田市礒野北町1-1",
        "tel": "0745-53-2901",
        "lat": "34.509962",
        "lon": "135.736494"
    },
    {
        "id": "9",
        "type": "地方独立行政法人",
        "name": "奈良県西和医療センター",
        "url": "http://seiwa-mc.jp/",
        "beds": "300",
        "address": "生駒郡三郷町三室1-14-16",
        "tel": "0745-32-0505",
        "lat": "34.601194",
        "lon": "135.710434"
    },
    {
        "id": "10",
        "type": "地方独立行政法人",
        "name": "奈良県総合医療センター",
        "url": "http://www.nara-hp.jp/",
        "beds": "540",
        "address": "奈良市七条西町2-897-5",
        "tel": "0742-46-6001",
        "lat": "34.662422",
        "lon": "135.767525"
    },
    {
        "id": "11",
        "type": "地方独立行政法人",
        "name": "奈良県立医科大学附属病院",
        "url": "http://www.naramed-u.ac.jp/hospital/",
        "beds": "992",
        "address": "橿原市四条町840",
        "tel": "0744-22-3051",
        "lat": "34.502488",
        "lon": "135.792853"
    },
    {
        "id": "12",
        "type": "済生会",
        "name": "済生会御所病院",
        "url": "http://saiseikai-gose.jp",
        "beds": "190",
        "address": "御所市三室20",
        "tel": "0745-62-3585",
        "lat": "34.461417",
        "lon": "135.730723"
    },
    {
        "id": "13",
        "type": "済生会",
        "name": "済生会中和病院",
        "url": "http://www.chuwa-hp.jp/",
        "beds": "324",
        "address": "桜井市阿部323",
        "tel": "0744-43-5001",
        "lat": "34.50736",
        "lon": "135.839972"
    },
    {
        "id": "14",
        "type": "済生会",
        "name": "済生会奈良病院",
        "url": "http://www.saiseikai-nara-hp.jp/",
        "beds": "194",
        "address": "奈良市八条4-643",
        "tel": "0742-36-1881",
        "lat": "34.668922",
        "lon": "135.805155"
    },
    {
        "id": "15",
        "type": "公益法人",
        "name": "天理よろづ相談所病院",
        "url": "http://www.tenriyorozu.jp",
        "beds": "715",
        "address": "天理市三島町200",
        "tel": "0743-63-5611",
        "lat": "34.602755",
        "lon": "135.839005"
    },
    {
        "id": "16",
        "type": "医療法人",
        "name": "秋津鴻池病院",
        "url": "http://www.kounoikekai.com/",
        "beds": "544",
        "address": "御所市池之内1064",
        "tel": "0745-63-0601",
        "lat": "34.451441",
        "lon": "135.75084"
    },
    {
        "id": "17",
        "type": "医療法人",
        "name": "倉病院",
        "url": "http://www.kura-hp.com/",
        "beds": "60",
        "address": "生駒市本町1-7",
        "tel": "0743-73-4888",
        "lat": "34.691801",
        "lon": "135.69898"
    },
    {
        "id": "18",
        "type": "医療法人",
        "name": "桜井病院",
        "url": "http://www.sakurai-hp.com/",
        "beds": "41",
        "address": "桜井市桜井973",
        "tel": "0744-43-3541",
        "lat": "34.511247",
        "lon": "135.846293"
    },
    {
        "id": "19",
        "type": "医療法人",
        "name": "白庭病院",
        "url": "http://www.allpines.jp",
        "beds": "150",
        "address": "生駒市白庭台6-10-1",
        "tel": "0743-70-0022",
        "lat": "34.720957",
        "lon": "135.717315"
    },
    {
        "id": "20",
        "type": "医療法人",
        "name": "関屋病院",
        "url": "http://www.kouseikai-sekiya.or.jp",
        "beds": "350",
        "address": "香芝市関屋北5-11-1",
        "tel": "0745-77-2434",
        "lat": "34.56151",
        "lon": "135.669507"
    },
    {
        "id": "21",
        "type": "医療法人",
        "name": "総合病院高の原中央病院",
        "url": "http://www.takanohara-ch.or.jp/",
        "beds": "249",
        "address": "奈良市右京1-3-3",
        "tel": "0742-71-1030",
        "lat": "34.721378",
        "lon": "135.789307"
    },
    {
        "id": "22",
        "type": "医療法人",
        "name": "田北病院",
        "url": "http://www.takitakai.or.jp/",
        "beds": "210",
        "address": "大和郡山市城南町2-13",
        "tel": "0743-54-0112",
        "lat": "34.64632",
        "lon": "135.776204"
    },
    {
        "id": "23",
        "type": "医療法人",
        "name": "登美ヶ丘リハビリテーション病院",
        "url": "http://www.tomigaoka-rh.jp/",
        "beds": "122",
        "address": "奈良市中登美ヶ丘6-12-2",
        "tel": "0742-45-6800",
        "lat": "34.725329",
        "lon": "135.748372"
    },
    {
        "id": "24",
        "type": "医療法人",
        "name": "奈良厚生会病院",
        "url": "http://nara-koseikai.or.jp/",
        "beds": "60",
        "address": "大和郡山市椎木町769-3",
        "tel": "0743-56-5678",
        "lat": "34.608295",
        "lon": "135.768649"
    },
    {
        "id": "25",
        "type": "医療法人",
        "name": "奈良西部病院",
        "url": "http://www.naraseibu-hp.com/",
        "beds": "117",
        "address": "奈良県奈良市三碓町2143-1",
        "tel": "0742-51-8700",
        "lat": "34.68748",
        "lon": "135.721214"
    },
    {
        "id": "26",
        "type": "医療法人",
        "name": "奈良東九条病院",
        "url": "http://www.tokujyo.com",
        "beds": "60",
        "address": "奈良市東九条町752",
        "tel": "0742-61-1118",
        "lat": "34.662364",
        "lon": "135.818837"
    },
    {
        "id": "27",
        "type": "医療法人",
        "name": "奈良東病院",
        "url": "http://www.fureai-net.com",
        "beds": "170",
        "address": "天理市中之庄町470",
        "tel": "0743-65-1771",
        "lat": "34.637007",
        "lon": "135.844679"
    },
    {
        "id": "28",
        "type": "医療法人",
        "name": "西の京病院",
        "url": "http://www.nishinokyo.or.jp",
        "beds": "248",
        "address": "奈良市六条町102-1",
        "tel": "0742-35-1121",
        "lat": "34.665645",
        "lon": "135.789125"
    },
    {
        "id": "29",
        "type": "医療法人",
        "name": "服部記念病院",
        "url": "http://www.hattorin.jp/",
        "beds": "162",
        "address": "北葛城郡上牧町大字上牧4244",
        "tel": "0745-77-1333",
        "lat": "34.559373",
        "lon": "135.709842"
    },
    {
        "id": "30",
        "type": "医療法人",
        "name": "阪奈中央病院",
        "url": "http://www.wakoucai.or.jp/hanna-hp/",
        "beds": "199",
        "address": "生駒市俵口町741",
        "tel": "0743-74-8660",
        "lat": "34.706594",
        "lon": "135.697278"
    },
    {
        "id": "31",
        "type": "医療法人",
        "name": "藤村病院",
        "url": "http://www.touwakai.or.jp/",
        "beds": "45",
        "address": "大和郡山市北郡山町104-3",
        "tel": "0743-53-2001",
        "lat": "34.65547",
        "lon": "135.784122"
    },
    {
        "id": "32",
        "type": "医療法人",
        "name": "吉本整形外科・外科病院",
        "url": "https://www.yoshimoto-seikei.com/",
        "beds": "57",
        "address": "葛城市疋田676番地1",
        "tel": "0745-69-5353",
        "lat": "34.502386",
        "lon": "135.724861"
    },
    {
        "id": "33",
        "type": "特定医療法人",
        "name": "おかたに病院",
        "url": "http://www.okatani.or.jp",
        "beds": "150",
        "address": "奈良市南京終町1-25-1",
        "tel": "0742-63-7700",
        "lat": "34.671195",
        "lon": "135.825471"
    },
    {
        "id": "34",
        "type": "特定医療法人",
        "name": "奈良春日病院",
        "url": "http://www.narakasuga-hospital.or.jp",
        "beds": "220",
        "address": "奈良市鹿野園町1212-1",
        "tel": "0742-24-4771",
        "lat": "34.664238",
        "lon": "135.85297"
    },
    {
        "id": "35",
        "type": "社会医療法人",
        "name": "土庫病院",
        "url": "http://www.kenseikai-nara.jp",
        "beds": "199",
        "address": "大和高田市日之出町12-3",
        "tel": "0745-53-5471",
        "lat": "34.522203",
        "lon": "135.748323"
    },
    {
        "id": "36",
        "type": "社会医療法人",
        "name": "西奈良中央病院",
        "url": "http://www.nishinarachuo.or.jp",
        "beds": "166",
        "address": "奈良市鶴舞西町1-15",
        "tel": "0742-43-3333",
        "lat": "34.703917",
        "lon": "135.749817"
    },
    {
        "id": "37",
        "type": "社会医療法人",
        "name": "平成記念病院",
        "url": "http://www.heisei-h.or.jp/",
        "beds": "300",
        "address": "橿原市四条町827",
        "tel": "0744-29-3300",
        "lat": "34.504293",
        "lon": "135.79059"
    },
    {
        "id": "38",
        "type": "社会医療法人",
        "name": "吉田病院",
        "url": "http://www.heiwakai.or.jp/",
        "beds": "312",
        "address": "奈良市西大寺赤田町1-7-1",
        "tel": "0742-45-4601",
        "lat": "34.699443",
        "lon": "135.771871"
    },
    {
        "id": "39",
        "type": "私立学校法人",
        "name": "近畿大学医学部奈良病院",
        "url": "http://www.kindainara.com",
        "beds": "518",
        "address": "生駒市乙田町1248-1",
        "tel": "0743-77-0880",
        "lat": "34.651133",
        "lon": "135.715503"
    },
    {
        "id": "40",
        "type": "その他法人",
        "name": "沢井病院",
        "url": "http://sawai.or.jp/",
        "beds": "111",
        "address": "奈良市船橋町8",
        "tel": "0742-23-3086",
        "lat": "34.68875",
        "lon": "135.821615"
    }
]