[
    {
        "id": "1",
        "type": "独立行政法人国立病院機構",
        "name": "南和歌山医療センター",
        "url": "http://www.hosp.go.jp/~swymhp2/",
        "beds": "316",
        "address": "田辺市たきない町27-1",
        "tel": "0739-26-7050",
        "lat": "33.700669",
        "lon": "135.399653"
    },
    {
        "id": "2",
        "type": "独立行政法人国立病院機構",
        "name": "和歌山病院",
        "url": "http://www.wakayama-hosp.jp/",
        "beds": "310",
        "address": "日高郡美浜町和田1138",
        "tel": "0738-22-3256",
        "lat": "33.892434",
        "lon": "135.134502"
    },
    {
        "id": "3",
        "type": "独立行政法人労働者健康安全機構",
        "name": "和歌山労災病院",
        "url": "http://www.wakayamah.johas.go.jp",
        "beds": "303",
        "address": "和歌山市木の本93-1",
        "tel": "073-451-3181",
        "lat": "34.256363",
        "lon": "135.121864"
    },
    {
        "id": "4",
        "type": "都道府県",
        "name": "和歌山県立こころの医療センター",
        "url": "http://www.pref.wakayama.lg.jp/prefg/050112/050112.html",
        "beds": "300",
        "address": "有田郡有田川町庄31",
        "tel": "0737-52-3221",
        "lat": "34.06529",
        "lon": "135.242206"
    },
    {
        "id": "5",
        "type": "市町村",
        "name": "新宮市立医療センター",
        "url": "http://www.hsp.shingu.wakayama.jp/",
        "beds": "304",
        "address": "新宮市蜂伏18-7",
        "tel": "0735-31-3333",
        "lat": "33.686644",
        "lon": "135.964095"
    },
    {
        "id": "6",
        "type": "市町村",
        "name": "橋本市民病院",
        "url": "http://www.hashimoto-hsp.jp",
        "beds": "300",
        "address": "橋本市小峰台2-8-1",
        "tel": "0736-37-1200",
        "lat": "34.354282",
        "lon": "135.63451"
    },
    {
        "id": "7",
        "type": "市町村",
        "name": "ひだか病院",
        "url": "http://www.hidakagh.gobo.wakayama.jp/",
        "beds": "367",
        "address": "御坊市薗116-2",
        "tel": "0738-22-1111",
        "lat": "33.895329",
        "lon": "135.153763"
    },
    {
        "id": "8",
        "type": "地方独立行政法人",
        "name": "和歌山県立医科大学附属病院",
        "url": "http://www.wakayama-med.ac.jp/hospital",
        "beds": "800",
        "address": "和歌山市紀三井寺811-1",
        "tel": "073-447-2300",
        "lat": "34.18805",
        "lon": "135.181914"
    },
    {
        "id": "9",
        "type": "日赤",
        "name": "和歌山医療センター",
        "url": "http://www2.kankyo.ne.jp/nisseki-w/",
        "beds": "873",
        "address": "和歌山市小松原通4-20",
        "tel": "073-422-4171",
        "lat": "34.220182",
        "lon": "135.167996"
    },
    {
        "id": "10",
        "type": "済生会",
        "name": "済生会有田病院",
        "url": "http://www.saiseikai-arida.jp/",
        "beds": "184",
        "address": "有田郡湯浅町吉川52-6",
        "tel": "0737-63-5561",
        "lat": "34.045658",
        "lon": "135.1934"
    },
    {
        "id": "11",
        "type": "済生会",
        "name": "済生会和歌山病院",
        "url": "http://www.saiseikai-wakayama.jp",
        "beds": "200",
        "address": "和歌山市十二番丁45",
        "tel": "073-424-5185",
        "lat": "34.231686",
        "lon": "135.17319"
    },
    {
        "id": "12",
        "type": "公益法人",
        "name": "白浜はまゆう病院",
        "url": "http://www.hamayu-hp.or.jp/",
        "beds": "258",
        "address": "西牟婁郡白浜町1447",
        "tel": "0739-43-6200",
        "lat": "33.681824",
        "lon": "135.348217"
    },
    {
        "id": "13",
        "type": "医療法人",
        "name": "石本病院",
        "url": "http://ishimoto-hospital.jp/",
        "beds": "53",
        "address": "海南市船尾365",
        "tel": "073-482-5063",
        "lat": "34.159572",
        "lon": "135.196409"
    },
    {
        "id": "14",
        "type": "医療法人",
        "name": "稲田病院",
        "url": "http://www.inada-med.or.jp/",
        "beds": "72",
        "address": "和歌山市和田1175",
        "tel": "073-472-1135",
        "lat": "34.207346",
        "lon": "135.206665"
    },
    {
        "id": "15",
        "type": "医療法人",
        "name": "今村病院",
        "url": "http://www7a.biglobe.ne.jp/~imamura_hp/",
        "beds": "52",
        "address": "和歌山市砂山南2-4-21",
        "tel": "073-425-3271",
        "lat": "34.218596",
        "lon": "135.159781"
    },
    {
        "id": "16",
        "type": "医療法人",
        "name": "笠松病院",
        "url": "http://kasamatsu.jp",
        "beds": "47",
        "address": "海南市船尾196",
        "tel": "073-482-3153",
        "lat": "34.158741",
        "lon": "135.20681"
    },
    {
        "id": "17",
        "type": "医療法人",
        "name": "河西田村病院",
        "url": "http://www.seishou-kai.jp",
        "beds": "108",
        "address": "和歌山市島橋東ノ丁1-11",
        "tel": "073-455-1015",
        "lat": "34.242996",
        "lon": "135.150413"
    },
    {
        "id": "18",
        "type": "医療法人",
        "name": "児玉病院",
        "url": "http://www.hakubunkai.com",
        "beds": "44",
        "address": "和歌山市餌差町1-12",
        "tel": "073-436-6557",
        "lat": "34.229081",
        "lon": "135.184061"
    },
    {
        "id": "19",
        "type": "医療法人",
        "name": "桜ヶ丘病院",
        "url": "http://www.cherry-hill.or.jp",
        "beds": "99",
        "address": "有田市箕島904",
        "tel": "0737-83-0078",
        "lat": "34.085707",
        "lon": "135.123551"
    },
    {
        "id": "20",
        "type": "医療法人",
        "name": "嶋病院",
        "url": "",
        "beds": "57",
        "address": "和歌山市西仲間町1-30",
        "tel": "073-431-3900",
        "lat": "34.236889",
        "lon": "135.178817"
    },
    {
        "id": "21",
        "type": "医療法人",
        "name": "角谷整形外科病院",
        "url": "http://www.sumiya.or.jp/",
        "beds": "70",
        "address": "和歌山市吉田337",
        "tel": "073-433-1161",
        "lat": "34.236824",
        "lon": "135.190147"
    },
    {
        "id": "22",
        "type": "医療法人",
        "name": "整形外科北裏病院",
        "url": "http://www.kitaura-hp.jp/",
        "beds": "100",
        "address": "御坊市湯川町小松原454",
        "tel": "0738-22-3352",
        "lat": "33.90685",
        "lon": "135.156894"
    },
    {
        "id": "23",
        "type": "医療法人",
        "name": "誠佑記念病院",
        "url": "http://www.seiyu-hp.jp/",
        "beds": "110",
        "address": "和歌山市西田井391",
        "tel": "073-462-6211",
        "lat": "34.254364",
        "lon": "135.236637"
    },
    {
        "id": "24",
        "type": "医療法人",
        "name": "田辺中央病院",
        "url": "http://www.tanabechp.or.jp",
        "beds": "139",
        "address": "田辺市南新町147",
        "tel": "0739-24-5333",
        "lat": "33.732812",
        "lon": "135.379273"
    },
    {
        "id": "25",
        "type": "医療法人",
        "name": "谷口病院",
        "url": "http://www.taniguchi-hp.or.jp/",
        "beds": "60",
        "address": "海南市日方327-11",
        "tel": "073-482-2500",
        "lat": "34.158176",
        "lon": "135.208882"
    },
    {
        "id": "26",
        "type": "医療法人",
        "name": "田村病院",
        "url": "http://www.tamura-hsp.or.jp/",
        "beds": "174",
        "address": "和歌山市小倉645",
        "tel": "073-477-1268",
        "lat": "34.249122",
        "lon": "135.286244"
    },
    {
        "id": "27",
        "type": "医療法人",
        "name": "富田病院",
        "url": "http://www.tomita.or.jp/",
        "beds": "156",
        "address": "岩出市紀泉台2",
        "tel": "0736-62-1522",
        "lat": "34.280778",
        "lon": "135.293484"
    },
    {
        "id": "28",
        "type": "医療法人",
        "name": "中江病院",
        "url": "http://www.nakae.or.jp/",
        "beds": "192",
        "address": "和歌山市船所30-1",
        "tel": "073-451-0222",
        "lat": "34.253953",
        "lon": "135.180563"
    },
    {
        "id": "29",
        "type": "医療法人",
        "name": "中谷病院",
        "url": "http://www.kikyokai.or.jp",
        "beds": "195",
        "address": "和歌山市鳴神123-1",
        "tel": "073-471-3111",
        "lat": "34.225993",
        "lon": "135.21139"
    },
    {
        "id": "30",
        "type": "医療法人",
        "name": "名手病院",
        "url": "http://nate-hospital.com/",
        "beds": "104",
        "address": "紀の川市名手市場294-1",
        "tel": "0736-75-5252",
        "lat": "34.272679",
        "lon": "135.437816"
    },
    {
        "id": "31",
        "type": "医療法人",
        "name": "西和歌山病院",
        "url": "http://www.nishiwaka.or.jp",
        "beds": "120",
        "address": "和歌山市土入176",
        "tel": "073-452-1233",
        "lat": "34.253052",
        "lon": "135.14018"
    },
    {
        "id": "32",
        "type": "医療法人",
        "name": "橋本病院",
        "url": "http://hashimoto-hp.or.jp/",
        "beds": "118",
        "address": "和歌山市堀止南ノ丁4-31",
        "tel": "073-426-3388",
        "lat": "34.212172",
        "lon": "135.170765"
    },
    {
        "id": "33",
        "type": "医療法人",
        "name": "福外科病院",
        "url": "http://www.fukugeka.jp/",
        "beds": "54",
        "address": "和歌山市和歌浦東3-5-31",
        "tel": "073-445-3101",
        "lat": "34.189073",
        "lon": "135.177735"
    },
    {
        "id": "34",
        "type": "医療法人",
        "name": "伏虎リハビリテーション病院",
        "url": "http://nakatani.wakayama.jp/",
        "beds": "89",
        "address": "和歌山市屋形町1-11",
        "tel": "073-433-4488",
        "lat": "34.231369",
        "lon": "135.177145"
    },
    {
        "id": "35",
        "type": "医療法人",
        "name": "堀口記念病院",
        "url": "http://horiguchi.or.jp/",
        "beds": "150",
        "address": "和歌山市湊本町3-4-1",
        "tel": "073-435-0113",
        "lat": "34.232449",
        "lon": "135.162449"
    },
    {
        "id": "36",
        "type": "医療法人",
        "name": "和歌浦中央病院",
        "url": "http://www.wachuohp.or.jp",
        "beds": "165",
        "address": "和歌山市塩屋6-2-70",
        "tel": "073-444-1600",
        "lat": "34.195143",
        "lon": "135.177674"
    },
    {
        "id": "37",
        "type": "特定医療法人",
        "name": "玉置病院",
        "url": "http://www.aikis.or.jp/~tamakihp/",
        "beds": "66",
        "address": "田辺市上屋敷2-5-1",
        "tel": "0739-22-6028",
        "lat": "33.730898",
        "lon": "135.376225"
    },
    {
        "id": "38",
        "type": "社会医療法人",
        "name": "貴志川リハビリテーション病院",
        "url": "http://www.mikurumakai.or.jp",
        "beds": "168",
        "address": "紀の川市貴志川町丸栖1423-3",
        "tel": "0736-64-0039",
        "lat": "34.240811",
        "lon": "135.326954"
    },
    {
        "id": "39",
        "type": "社会医療法人",
        "name": "北出病院",
        "url": "http://www.reimeikai.com",
        "beds": "182",
        "address": "御坊市湯川町財部728-4",
        "tel": "0738-22-2188",
        "lat": "33.897015",
        "lon": "135.155152"
    },
    {
        "id": "40",
        "type": "社会医療法人",
        "name": "山本病院",
        "url": "http://www.yamamoto-hp.net/",
        "beds": "84",
        "address": "橋本市東家6-7-26",
        "tel": "0736-32-8899",
        "lat": "34.313225",
        "lon": "135.605305"
    }
]