[
    {
        "id": "1",
        "type": "独立行政法人国立病院機構",
        "name": "浜田医療センター",
        "url": "http://hamada.hosp.go.jp/",
        "beds": "365",
        "address": "浜田市浅井町777-12",
        "tel": "0855-25-0505",
        "lat": "34.903447",
        "lon": "132.087995"
    },
    {
        "id": "2",
        "type": "独立行政法人地域医療機能推進機構",
        "name": "玉造病院",
        "url": "http://tamatsukuri.jcho.go.jp/",
        "beds": "253",
        "address": "松江市玉湯町湯町1-2",
        "tel": "0852-62-1560",
        "lat": "35.431181",
        "lon": "133.01776"
    },
    {
        "id": "3",
        "type": "都道府県",
        "name": "島根県立中央病院",
        "url": "http://www.spch.izumo.shimane.jp/",
        "beds": "634",
        "address": "出雲市姫原4-1-1",
        "tel": "0853-22-5111",
        "lat": "35.375091",
        "lon": "132.754559"
    },
    {
        "id": "4",
        "type": "市町村",
        "name": "雲南市立病院",
        "url": "http://unnan-hp.jp/",
        "beds": "281",
        "address": "雲南市大東町飯田96-1",
        "tel": "0854-47-7500",
        "lat": "35.324078",
        "lon": "132.95994"
    },
    {
        "id": "5",
        "type": "市町村",
        "name": "大田市立病院",
        "url": "http://www.ohda-hp.ohda.shimane.jp/",
        "beds": "339",
        "address": "大田市大田町吉永1428-3",
        "tel": "0854-82-0330",
        "lat": "35.181246",
        "lon": "132.502294"
    },
    {
        "id": "6",
        "type": "市町村",
        "name": "隠岐島前病院",
        "url": "http://okidozenhospital.com/",
        "beds": "44",
        "address": "隠岐郡西ノ島町大字美田2071-1",
        "tel": "08514-7-8211",
        "lat": "36.106317",
        "lon": "133.035894"
    },
    {
        "id": "7",
        "type": "市町村",
        "name": "公立邑智病院",
        "url": "http://www.ohchihospital.jp/",
        "beds": "98",
        "address": "邑智郡邑南町中野3848-2",
        "tel": "0855-95-2111",
        "lat": "34.894746",
        "lon": "132.453515"
    },
    {
        "id": "8",
        "type": "市町村",
        "name": "松江市立病院",
        "url": "http://www.matsue-cityhospital.jp/",
        "beds": "470",
        "address": "松江市乃白町32-1",
        "tel": "0852-60-8000",
        "lat": "35.438764",
        "lon": "133.055423"
    },
    {
        "id": "9",
        "type": "市町村",
        "name": "安来市立病院",
        "url": "http://www.city.yasugi.shimane.jp/hospital/",
        "beds": "148",
        "address": "安来市広瀬町広瀬1931",
        "tel": "0854-32-2121",
        "lat": "35.365285",
        "lon": "133.172408"
    },
    {
        "id": "10",
        "type": "日赤",
        "name": "益田赤十字病院",
        "url": "http://www.masuda.jrc.or.jp/",
        "beds": "284",
        "address": "益田市乙吉町イ103-1",
        "tel": "0856-22-1480",
        "lat": "34.684051",
        "lon": "131.841218"
    },
    {
        "id": "11",
        "type": "日赤",
        "name": "松江赤十字病院",
        "url": "http://www.matsue.jrc.or.jp",
        "beds": "599",
        "address": "松江市母衣町200",
        "tel": "0852-24-2111",
        "lat": "35.470465",
        "lon": "133.057046"
    },
    {
        "id": "12",
        "type": "済生会",
        "name": "島根県済生会江津総合病院",
        "url": "http://www.saiseikai-gotsu.jp/",
        "beds": "300",
        "address": "江津市江津町1016-37",
        "tel": "0855-54-0101",
        "lat": "35.012835",
        "lon": "132.214879"
    },
    {
        "id": "13",
        "type": "公益法人",
        "name": "益田地域医療センター医師会病院",
        "url": "http://hp.masuda-med.or.jp/",
        "beds": "323",
        "address": "益田市遠田町1917-2",
        "tel": "0856-22-3611",
        "lat": "34.696735",
        "lon": "131.866984"
    },
    {
        "id": "14",
        "type": "医療法人",
        "name": "松江記念病院",
        "url": "http://www.souken-kai.or.jp/",
        "beds": "116",
        "address": "松江市上乃木3-4-1",
        "tel": "0852-27-8111",
        "lat": "35.448512",
        "lon": "133.058954"
    },
    {
        "id": "15",
        "type": "社会医療法人",
        "name": "六日市病院",
        "url": "http://www.sekisyukai.or.jp/",
        "beds": "110",
        "address": "鹿足郡吉賀町六日市368-4",
        "tel": "0856-77-1581",
        "lat": "34.35354",
        "lon": "131.937492"
    },
    {
        "id": "16",
        "type": "社会医療法人",
        "name": "安来第一病院",
        "url": "http://www.syourinkai.or.jp",
        "beds": "381",
        "address": "安来市安来町899-1",
        "tel": "0854-22-3411",
        "lat": "35.432289",
        "lon": "133.251735"
    },
    {
        "id": "17",
        "type": "医療生協",
        "name": "松江生協病院",
        "url": "http://www.matsue-seikyo.jp/",
        "beds": "351",
        "address": "松江市西津田8-8-8",
        "tel": "0852-23-1111",
        "lat": "35.454316",
        "lon": "133.067607"
    }
]