[
    {
        "id": "1",
        "type": "独立行政法人国立病院機構",
        "name": "岡山医療センター",
        "url": "http://okayamamc.jp/index.php",
        "beds": "609",
        "address": "岡山市北区田益1711-1",
        "tel": "086-294-9911",
        "lat": "34.708182",
        "lon": "133.899601"
    },
    {
        "id": "2",
        "type": "独立行政法人労働者健康安全機構",
        "name": "岡山労災病院",
        "url": "http://www.okayamah.johas.go.jp/",
        "beds": "358",
        "address": "岡山市南区築港緑町1-10-25",
        "tel": "086-262-0131",
        "lat": "34.604417",
        "lon": "133.932592"
    },
    {
        "id": "3",
        "type": "地方独立行政法人",
        "name": "岡山県精神科医療センター",
        "url": "http://www.popmc.jp/",
        "beds": "252",
        "address": "岡山市北区鹿田本町3-16",
        "tel": "086-225-3821",
        "lat": "34.650792",
        "lon": "133.916189"
    },
    {
        "id": "4",
        "type": "地方独立行政法人",
        "name": "岡山市立市民病院",
        "url": "http://okayama-gmc.or.jp/shimin/",
        "beds": "400",
        "address": "岡山市北区北長瀬表町3-20-1",
        "tel": "086-737-3000",
        "lat": "34.652073",
        "lon": "133.884713"
    },
    {
        "id": "5",
        "type": "日赤",
        "name": "岡山赤十字病院",
        "url": "http://www.okayama-med.jrc.or.jp",
        "beds": "500",
        "address": "岡山市北区青江2-1-1",
        "tel": "086-222-8811",
        "lat": "34.635544",
        "lon": "133.923155"
    },
    {
        "id": "6",
        "type": "済生会",
        "name": "岡山済生会外来センター病院",
        "url": "http://www.okayamasaiseikai.or.jp",
        "beds": "80",
        "address": "岡山市北区伊福町1-17-18",
        "tel": "086-252-2211",
        "lat": "34.670577",
        "lon": "133.917294"
    },
    {
        "id": "7",
        "type": "済生会",
        "name": "岡山済生会総合病院",
        "url": "http://www.okayamasaiseikai.or.jp/",
        "beds": "473",
        "address": "岡山市北区国体町2番25号",
        "tel": "086-252-2211",
        "lat": "34.672475",
        "lon": "133.91986"
    },
    {
        "id": "8",
        "type": "済生会",
        "name": "済生会吉備病院",
        "url": "http://www.saiseikaikibi.jp/",
        "beds": "75",
        "address": "岡山市北区高松原古才584-1",
        "tel": "086-287-8655",
        "lat": "34.683855",
        "lon": "133.825405"
    },
    {
        "id": "9",
        "type": "公益法人",
        "name": "岡山旭東病院",
        "url": "http://www.kyokuto.or.jp/",
        "beds": "202",
        "address": "岡山市中区倉田567-1",
        "tel": "086-276-3231",
        "lat": "34.631277",
        "lon": "133.955249"
    },
    {
        "id": "10",
        "type": "公益法人",
        "name": "岡山県健康づくり財団附属病院",
        "url": "http://www.okakenko.jp/",
        "beds": "126",
        "address": "岡山市北区平田408-1",
        "tel": "086-241-0880",
        "lat": "34.634944",
        "lon": "133.882198"
    },
    {
        "id": "11",
        "type": "公益法人",
        "name": "岡山リハビリテーション病院",
        "url": "http://www.okayama-reha-hp.or.jp/",
        "beds": "129",
        "address": "岡山市中区倉田503-1",
        "tel": "086-274-7001",
        "lat": "34.629997",
        "lon": "133.958568"
    },
    {
        "id": "12",
        "type": "公益法人",
        "name": "倉敷中央病院",
        "url": "http://www.kchnet.or.jp/",
        "beds": "1166",
        "address": "倉敷市美和1-1-1",
        "tel": "086-422-0210",
        "lat": "34.602083",
        "lon": "133.775439"
    },
    {
        "id": "13",
        "type": "公益法人",
        "name": "倉敷中央病院リバーサイド",
        "url": "https://www.kchnet.or.jp/krh/",
        "beds": "130",
        "address": "倉敷市鶴の浦2-6-11",
        "tel": "086-448-1111",
        "lat": "34.542192",
        "lon": "133.706378"
    },
    {
        "id": "14",
        "type": "公益法人",
        "name": "慈圭病院",
        "url": "http://www.zikei.or.jp",
        "beds": "570",
        "address": "岡山市南区浦安本町100-2",
        "tel": "086-262-1191",
        "lat": "34.603379",
        "lon": "133.917221"
    },
    {
        "id": "15",
        "type": "公益法人",
        "name": "玉島病院",
        "url": "http://www.tamashimahosp.or.jp/",
        "beds": "166",
        "address": "倉敷市玉島乙島4030",
        "tel": "086-522-4141",
        "lat": "34.541624",
        "lon": "133.680491"
    },
    {
        "id": "16",
        "type": "医療法人",
        "name": "大谷病院",
        "url": "",
        "beds": "48",
        "address": "津山市田町33",
        "tel": "0868-22-9381",
        "lat": "35.063712",
        "lon": "134.001837"
    },
    {
        "id": "17",
        "type": "医療法人",
        "name": "太田病院",
        "url": "http://www.ohta-hp.com/",
        "beds": "60",
        "address": "新見市西方426",
        "tel": "0867-72-0214",
        "lat": "34.9871",
        "lon": "133.459433"
    },
    {
        "id": "18",
        "type": "医療法人",
        "name": "おおもと病院",
        "url": "http://oomotohosp.jp/",
        "beds": "51",
        "address": "岡山市北区大元1-1-5",
        "tel": "086-241-6888",
        "lat": "34.647031",
        "lon": "133.904377"
    },
    {
        "id": "19",
        "type": "医療法人",
        "name": "梶木病院",
        "url": "http://www.kajikihp.or.jp/",
        "beds": "62",
        "address": "岡山市北区西花尻1231－1",
        "tel": "086-293-3355",
        "lat": "34.651945",
        "lon": "133.856495"
    },
    {
        "id": "20",
        "type": "医療法人",
        "name": "倉敷スイートホスピタル",
        "url": "http://sweet-town.jp/",
        "beds": "196",
        "address": "倉敷市中庄3542-1",
        "tel": "086-463-7111",
        "lat": "34.624393",
        "lon": "133.804093"
    },
    {
        "id": "21",
        "type": "医療法人",
        "name": "倉敷第一病院",
        "url": "http://www.seiwakai-net.or.jp/daiichi",
        "beds": "191",
        "address": "倉敷市老松町5-3-10",
        "tel": "086-424-1000",
        "lat": "34.593425",
        "lon": "133.757125"
    },
    {
        "id": "22",
        "type": "医療法人",
        "name": "重井医学研究所附属病院",
        "url": "http://www.shigei.or.jp/smrh/",
        "beds": "198",
        "address": "岡山市南区山田2117",
        "tel": "086-282-5311",
        "lat": "34.620213",
        "lon": "133.84919"
    },
    {
        "id": "23",
        "type": "医療法人",
        "name": "しげい病院",
        "url": "http://www.shigei.or.jp/shigei/",
        "beds": "256",
        "address": "倉敷市幸町2-30",
        "tel": "086-422-3655",
        "lat": "34.603563",
        "lon": "133.773216"
    },
    {
        "id": "24",
        "type": "医療法人",
        "name": "平病院",
        "url": "https://www.tairahos.or.jp",
        "beds": "89",
        "address": "和気郡和気町尺所438",
        "tel": "0869-93-1155",
        "lat": "34.805319",
        "lon": "134.161532"
    },
    {
        "id": "25",
        "type": "医療法人",
        "name": "玉島中央病院",
        "url": "www.tamasima-ch.or.jp/",
        "beds": "122",
        "address": "倉敷市玉島阿賀崎2-1-1",
        "tel": "086-526-8111",
        "lat": "34.547634",
        "lon": "133.672596"
    },
    {
        "id": "26",
        "type": "医療法人",
        "name": "松田病院",
        "url": "http://www.kct.ne.jp/~matuda/",
        "beds": "135",
        "address": "倉敷市鶴形1-3-10",
        "tel": "086-422-3550",
        "lat": "34.601638",
        "lon": "133.770205"
    },
    {
        "id": "27",
        "type": "医療法人",
        "name": "水島第一病院",
        "url": "http://mizu-1.jp/",
        "beds": "199",
        "address": "倉敷市神田2-3-33",
        "tel": "086-444-5333",
        "lat": "34.541733",
        "lon": "133.738728"
    },
    {
        "id": "28",
        "type": "医療法人",
        "name": "美作中央病院",
        "url": "",
        "beds": "110",
        "address": "美作市明見357-1",
        "tel": "0868-72-0461",
        "lat": "35.01336",
        "lon": "134.146764"
    },
    {
        "id": "29",
        "type": "特定医療法人",
        "name": "笠岡第一病院",
        "url": "http://www.kasaoka-d-hp.or.jp",
        "beds": "148",
        "address": "笠岡市横島1945",
        "tel": "0865-67-0211",
        "lat": "34.478145",
        "lon": "133.520803"
    },
    {
        "id": "30",
        "type": "特定医療法人",
        "name": "金光病院",
        "url": "http://konkohp.jp/",
        "beds": "147",
        "address": "浅口市金光町占見新田740",
        "tel": "0865-42-3211",
        "lat": "34.541871",
        "lon": "133.626205"
    },
    {
        "id": "31",
        "type": "特定医療法人",
        "name": "新見中央病院",
        "url": "http://nchp.jp",
        "beds": "115",
        "address": "新見市新見827-1",
        "tel": "0867-72-2110",
        "lat": "34.983636",
        "lon": "133.469483"
    },
    {
        "id": "32",
        "type": "特定医療法人",
        "name": "竜操整形外科病院",
        "url": "http://www.ryusoh.or.jp",
        "beds": "111",
        "address": "岡山市中区藤原21-1",
        "tel": "086-273-1233",
        "lat": "34.675463",
        "lon": "133.9597"
    },
    {
        "id": "33",
        "type": "特定医療法人",
        "name": "渡辺病院",
        "url": "http://www.watanabe-byouin.or.jp/",
        "beds": "88",
        "address": "新見市高尾2278-1",
        "tel": "0867-72-2123",
        "lat": "34.994443",
        "lon": "133.445441"
    },
    {
        "id": "34",
        "type": "社会医療法人",
        "name": "岡村一心堂病院",
        "url": "http://www.isshin.or.jp/",
        "beds": "152",
        "address": "岡山市東区西大寺南2-1-7",
        "tel": "086-942-9919",
        "lat": "34.652243",
        "lon": "134.032323"
    },
    {
        "id": "35",
        "type": "社会医療法人",
        "name": "岡山中央病院",
        "url": "http://www.kohjin.ne.jp/",
        "beds": "162",
        "address": "岡山市北区伊島北町6-3",
        "tel": "086-252-3221",
        "lat": "34.681111",
        "lon": "133.904887"
    },
    {
        "id": "36",
        "type": "社会医療法人",
        "name": "倉敷平成病院",
        "url": "http://www.heisei.or.jp",
        "beds": "220",
        "address": "倉敷市老松町4-3-38",
        "tel": "086-427-1111",
        "lat": "34.593109",
        "lon": "133.76183"
    },
    {
        "id": "37",
        "type": "社会医療法人",
        "name": "倉敷リハビリテーション病院",
        "url": "http://www.kurareha.com/krh/00top/top.html",
        "beds": "155",
        "address": "倉敷市笹沖21",
        "tel": "086-421-3311",
        "lat": "34.572023",
        "lon": "133.761593"
    },
    {
        "id": "38",
        "type": "社会医療法人",
        "name": "光生病院",
        "url": "http://www.kousei-hp.or.jp/",
        "beds": "198",
        "address": "岡山市北区厚生町3-8-35",
        "tel": "086-222-6806",
        "lat": "34.655881",
        "lon": "133.91104"
    },
    {
        "id": "39",
        "type": "社会医療法人",
        "name": "水島中央病院",
        "url": "http://suiwakai-mch.or.jp",
        "beds": "155",
        "address": "倉敷市水島青葉町4-5",
        "tel": "086-444-3311",
        "lat": "34.534262",
        "lon": "133.739193"
    },
    {
        "id": "40",
        "type": "私立学校法人",
        "name": "川崎医科大学附属病院",
        "url": "https://h.kawasaki-m.ac.jp/",
        "beds": "1182",
        "address": "倉敷市松島577",
        "tel": "086-462-1111",
        "lat": "34.632008",
        "lon": "133.81139"
    },
    {
        "id": "41",
        "type": "社会福祉法人",
        "name": "旭川荘療育・医療センター",
        "url": "http://www.jidouin.jp/",
        "beds": "422",
        "address": "岡山市北区祇園866",
        "tel": "086-275-8555",
        "lat": "34.709509",
        "lon": "133.958594"
    },
    {
        "id": "42",
        "type": "社会福祉法人",
        "name": "岡山博愛会病院",
        "url": "http://www.okayama-hakuaikai.or.jp",
        "beds": "171",
        "address": "岡山市中区江崎456-2",
        "tel": "086-274-8101",
        "lat": "34.624308",
        "lon": "133.964459"
    },
    {
        "id": "43",
        "type": "医療生協",
        "name": "水島協同病院",
        "url": "http://www.mizukyo.jp",
        "beds": "282",
        "address": "倉敷市水島南春日町1-1",
        "tel": "086-444-3211",
        "lat": "34.541904",
        "lon": "133.742575"
    },
    {
        "id": "44",
        "type": "その他法人",
        "name": "旭ヶ丘病院",
        "url": "http://www.junpukai.or.jp",
        "beds": "60",
        "address": "岡山市北区万成東町3-1",
        "tel": "086-252-1185",
        "lat": "34.673464",
        "lon": "133.895806"
    },
    {
        "id": "45",
        "type": "その他法人",
        "name": "河田病院",
        "url": "http://kawada.or.jp",
        "beds": "640",
        "address": "岡山市北区富町2-15-21",
        "tel": "086-252-1231",
        "lat": "34.663999",
        "lon": "133.908983"
    },
    {
        "id": "46",
        "type": "その他法人",
        "name": "倉敷成人病センター",
        "url": "http://www.fkmc.or.jp",
        "beds": "269",
        "address": "倉敷市白楽町250",
        "tel": "086-422-2111",
        "lat": "34.587759",
        "lon": "133.765164"
    },
    {
        "id": "47",
        "type": "その他法人",
        "name": "積善病院",
        "url": "http://www.sekizen.or.jp",
        "beds": "295",
        "address": "津山市一方140",
        "tel": "0868-22-3166",
        "lat": "35.055524",
        "lon": "133.979569"
    },
    {
        "id": "48",
        "type": "その他法人",
        "name": "津山中央病院",
        "url": "http://www.tch.or.jp/",
        "beds": "515",
        "address": "津山市川崎1756",
        "tel": "0868-21-8111",
        "lat": "35.064854",
        "lon": "134.039997"
    },
    {
        "id": "49",
        "type": "その他法人",
        "name": "芳野病院",
        "url": "http://www.kyouaikai.or.jp/",
        "beds": "110",
        "address": "苫田郡鏡野町吉原312",
        "tel": "0868-54-0312",
        "lat": "35.071993",
        "lon": "133.935687"
    }
]