[
    {
        "id": "1",
        "type": "独立行政法人国立病院機構",
        "name": "関門医療センター",
        "url": "http://www.hosp.go.jp/~kanmon/",
        "beds": "400",
        "address": "下関市長府外浦町1-1",
        "tel": "083-241-1199",
        "lat": "33.988436",
        "lon": "130.992296"
    },
    {
        "id": "2",
        "type": "独立行政法人国立病院機構",
        "name": "柳井医療センター",
        "url": "http://yanai-hosp.jp/",
        "beds": "280",
        "address": "柳井市伊保庄95",
        "tel": "0820-27-0211",
        "lat": "33.912331",
        "lon": "132.12777"
    },
    {
        "id": "3",
        "type": "独立行政法人労働者健康安全機構",
        "name": "山口労災病院",
        "url": "http://www.yamaguchih.johas.go.jp/",
        "beds": "313",
        "address": "山陽小野田市小野田1315-4",
        "tel": "0836-83-2881",
        "lat": "33.986859",
        "lon": "131.184534"
    },
    {
        "id": "4",
        "type": "独立行政法人地域医療機能推進機構",
        "name": "下関医療センター",
        "url": "http://shimonoseki.jcho.go.jp/",
        "beds": "315",
        "address": "下関市上新地町3-3-8",
        "tel": "083-231-5811",
        "lat": "33.95902",
        "lon": "130.919767"
    },
    {
        "id": "5",
        "type": "独立行政法人地域医療機能推進機構",
        "name": "徳山中央病院",
        "url": "http://tokuyama.jcho/go.jp",
        "beds": "519",
        "address": "周南市孝田町1-1",
        "tel": "0834-28-4411",
        "lat": "34.047404",
        "lon": "131.834305"
    },
    {
        "id": "6",
        "type": "市町村",
        "name": "山陽小野田市民病院",
        "url": "https://sanyo-onoda-city-hosp.jp/",
        "beds": "215",
        "address": "山陽小野田市大字東高泊1863-1",
        "tel": "0836-83-2355",
        "lat": "33.997912",
        "lon": "131.177313"
    },
    {
        "id": "7",
        "type": "市町村",
        "name": "周南市立新南陽市民病院",
        "url": "http://www.city-hp.or.jp/",
        "beds": "150",
        "address": "周南市宮の前2-3-15",
        "tel": "0834-61-2500",
        "lat": "34.072689",
        "lon": "131.765079"
    },
    {
        "id": "8",
        "type": "市町村",
        "name": "萩市民病院",
        "url": "http://www.hagicvhp.jp/",
        "beds": "100",
        "address": "萩市大字椿3460-3",
        "tel": "0838-25-1200",
        "lat": "34.396836",
        "lon": "131.394074"
    },
    {
        "id": "9",
        "type": "市町村",
        "name": "光市立光総合病院",
        "url": "http://hikari-hosp.jp/",
        "beds": "210",
        "address": "光市光ケ丘6-1",
        "tel": "0833-72-1000",
        "lat": "33.983318",
        "lon": "131.918939"
    },
    {
        "id": "10",
        "type": "地方独立行政法人",
        "name": "下関市立市民病院",
        "url": "https://shimonosekicity-hosp.jp/",
        "beds": "436",
        "address": "下関市向洋町一丁目１３番１号",
        "tel": "083-231-4111",
        "lat": "33.966175",
        "lon": "130.930206"
    },
    {
        "id": "11",
        "type": "地方独立行政法人",
        "name": "山口県立総合医療センター",
        "url": "http://www.ymghp.jp",
        "beds": "504",
        "address": "防府市大字大崎１００７７番地",
        "tel": "0835-22-4411",
        "lat": "34.079446",
        "lon": "131.526272"
    },
    {
        "id": "12",
        "type": "日赤",
        "name": "小野田赤十字病院",
        "url": "http://www.onoda-redcross-hosp.jp",
        "beds": "132",
        "address": "山陽小野田市大字小野田3700",
        "tel": "0836-88-0221",
        "lat": "33.954355",
        "lon": "131.18392"
    },
    {
        "id": "13",
        "type": "日赤",
        "name": "山口赤十字病院",
        "url": "http://www.yamaguchi-redcross.jp",
        "beds": "427",
        "address": "山口市八幡馬場53-1",
        "tel": "083-923-0111",
        "lat": "34.184681",
        "lon": "131.48247"
    },
    {
        "id": "14",
        "type": "済生会",
        "name": "山口県済生会下関総合病院",
        "url": "https://www.simo.saiseikai.or.jp/",
        "beds": "373",
        "address": "下関市安岡町8-5-1",
        "tel": "083-262-2300",
        "lat": "34.031454",
        "lon": "130.931066"
    },
    {
        "id": "15",
        "type": "済生会",
        "name": "山口県済生会豊浦病院",
        "url": "http://www.toyoura-saiseikai.jp/",
        "beds": "275",
        "address": "下関市豊浦町大字小串10007-3",
        "tel": "083-774-0511",
        "lat": "34.172747",
        "lon": "130.933441"
    },
    {
        "id": "16",
        "type": "済生会",
        "name": "山口県済生会山口総合病院",
        "url": "http://www.yamaguchi-saiseikai.jp/",
        "beds": "310",
        "address": "山口市緑町2-11",
        "tel": "083-901-6111",
        "lat": "34.171229",
        "lon": "131.467234"
    },
    {
        "id": "17",
        "type": "済生会",
        "name": "山口県済生会湯田温泉病院",
        "url": "http://saiseikai-care-y.jp/",
        "beds": "142",
        "address": "山口市朝倉町4-55",
        "tel": "083-932-3311",
        "lat": "34.175895",
        "lon": "131.452846"
    },
    {
        "id": "18",
        "type": "厚生連",
        "name": "小郡第一総合病院",
        "url": "http://ogoridaiichi.jp",
        "beds": "182",
        "address": "山口市小郡下郷862-3",
        "tel": "083-972-0333",
        "lat": "34.103181",
        "lon": "131.397021"
    },
    {
        "id": "19",
        "type": "厚生連",
        "name": "周東総合病院",
        "url": "http:www.hsp-shuto.jp/",
        "beds": "360",
        "address": "柳井市古開作1000-1",
        "tel": "0820-22-3456",
        "lat": "33.95885",
        "lon": "132.095938"
    },
    {
        "id": "20",
        "type": "厚生連",
        "name": "長門総合病院",
        "url": "http://www.nagato-hp.jp",
        "beds": "309",
        "address": "長門市東深川85",
        "tel": "0837-22-2220",
        "lat": "34.385952",
        "lon": "131.196389"
    },
    {
        "id": "21",
        "type": "医療法人",
        "name": "阿知須共立病院",
        "url": "http://www.kyoai.or.jp",
        "beds": "135",
        "address": "山口市阿知須4841-1",
        "tel": "0836-65-2200",
        "lat": "34.01132",
        "lon": "131.355583"
    },
    {
        "id": "22",
        "type": "医療法人",
        "name": "阿知須同仁病院",
        "url": "http://www.ajisudohjin.com",
        "beds": "138",
        "address": "山口市阿知須4241-4",
        "tel": "0836-65-5555",
        "lat": "34.010023",
        "lon": "131.360443"
    },
    {
        "id": "23",
        "type": "医療法人",
        "name": "医療法人社団宇部興産中央病院",
        "url": "http://www.ube-hp.or.jp/",
        "beds": "396",
        "address": "宇部市西岐波750",
        "tel": "0836-51-9286",
        "lat": "33.966692",
        "lon": "131.330593"
    },
    {
        "id": "24",
        "type": "医療法人",
        "name": "医療法人　長府病院",
        "url": "http://www.hp.chofu-hp.or.jp",
        "beds": "60",
        "address": "下関市長府中之町2-4",
        "tel": "083-245-1131",
        "lat": "34.000047",
        "lon": "130.99082"
    },
    {
        "id": "25",
        "type": "医療法人",
        "name": "光輝病院",
        "url": "http://www.kouki-hospital.jp/",
        "beds": "920",
        "address": "熊毛郡平生町佐賀鳩ヶ峯2-77",
        "tel": "0820-58-1111",
        "lat": "33.89323",
        "lon": "132.105734"
    },
    {
        "id": "26",
        "type": "医療法人",
        "name": "佐々木外科病院",
        "url": "http://sasaki-geka.jp/",
        "beds": "54",
        "address": "山口市泉都町9-13",
        "tel": "083-923-8811",
        "lat": "34.166485",
        "lon": "131.461583"
    },
    {
        "id": "27",
        "type": "医療法人",
        "name": "全眞会病院",
        "url": "http://zenshinkai.sakura.ne.jp/",
        "beds": "108",
        "address": "萩市山田西沖田4807-3",
        "tel": "0838-22-4106",
        "lat": "34.405782",
        "lon": "131.383164"
    },
    {
        "id": "28",
        "type": "医療法人",
        "name": "都志見病院",
        "url": "http://www.tsushimi.jp",
        "beds": "234",
        "address": "萩市大字江向413-1",
        "tel": "0838-22-2811",
        "lat": "34.406441",
        "lon": "131.401086"
    },
    {
        "id": "29",
        "type": "医療法人",
        "name": "豊関会記念病院",
        "url": "",
        "beds": "57",
        "address": "下関市長府江下町2番10号",
        "tel": "083-245-2222",
        "lat": "34.012154",
        "lon": "130.99681"
    },
    {
        "id": "30",
        "type": "医療法人",
        "name": "三田尻病院",
        "url": "http://www.mitajiri.net/",
        "beds": "144",
        "address": "防府市お茶屋町3-27",
        "tel": "0835-22-1110",
        "lat": "34.046433",
        "lon": "131.572985"
    },
    {
        "id": "31",
        "type": "特定医療法人",
        "name": "昭和病院",
        "url": "http://www.akanekai-showa.com/",
        "beds": "338",
        "address": "下関市汐入町35-1",
        "tel": "083-231-3888",
        "lat": "33.971692",
        "lon": "130.916472"
    },
    {
        "id": "32",
        "type": "社会医療法人",
        "name": "尾中病院",
        "url": "http://www.onaka.or.jp/",
        "beds": "180",
        "address": "宇部市常盤町2-4-5",
        "tel": "0836-31-2133",
        "lat": "33.949048",
        "lon": "131.251027"
    },
    {
        "id": "33",
        "type": "社会医療法人",
        "name": "周南記念病院",
        "url": "http://shunan-kinen.jp",
        "beds": "250",
        "address": "下松市生野屋南1-10-1",
        "tel": "0833-45-3330",
        "lat": "34.032561",
        "lon": "131.876295"
    },
    {
        "id": "34",
        "type": "その他法人",
        "name": "防府胃腸病院",
        "url": "http://www.hofu-icho.or.jp/",
        "beds": "120",
        "address": "防府市駅南町14-33",
        "tel": "0835-22-3339",
        "lat": "34.050913",
        "lon": "131.564286"
    },
    {
        "id": "35",
        "type": "個人",
        "name": "玉木病院",
        "url": "http://www.tamaki-hp.jp/",
        "beds": "151",
        "address": "萩市瓦町1",
        "tel": "0838-22-0030",
        "lat": "34.411732",
        "lon": "131.395639"
    }
]