[
    {
        "id": "1",
        "type": "独立行政法人国立病院機構",
        "name": "東徳島医療センター",
        "url": "http://www.etokushima-mc.jp/",
        "beds": "330",
        "address": "板野郡板野町大寺字大向北1-1",
        "tel": "088-672-1171",
        "lat": "34.136902",
        "lon": "134.468706"
    },
    {
        "id": "2",
        "type": "都道府県",
        "name": "徳島県立中央病院",
        "url": "http://www.tph.gr.jp/",
        "beds": "460",
        "address": "徳島県徳島市蔵本町１丁目１０－３",
        "tel": "088-631-7151",
        "lat": "34.077072",
        "lon": "134.519399"
    },
    {
        "id": "3",
        "type": "都道府県",
        "name": "徳島県立三好病院",
        "url": "http://www.miyoshi-hosp.jp",
        "beds": "220",
        "address": "三好市池田町シマ815-2",
        "tel": "0883-72-1131",
        "lat": "34.028502",
        "lon": "133.818027"
    },
    {
        "id": "4",
        "type": "地方独立行政法人",
        "name": "徳島県鳴門病院",
        "url": "http://naruto-hsp.jp",
        "beds": "307",
        "address": "鳴門市撫養町黒崎字小谷32",
        "tel": "088-683-0011",
        "lat": "34.182671",
        "lon": "134.594165"
    },
    {
        "id": "5",
        "type": "日赤",
        "name": "徳島赤十字病院",
        "url": "http://www.tokushima-med.jrc.or.jp",
        "beds": "405",
        "address": "小松島市小松島町字井利ノ口103番",
        "tel": "0885-32-2555",
        "lat": "34.012389",
        "lon": "134.58358"
    },
    {
        "id": "6",
        "type": "医療法人",
        "name": "伊月病院",
        "url": "http://www.itsuki-hp.jp/",
        "beds": "89",
        "address": "徳島市徳島町2-54",
        "tel": "088-622-1117",
        "lat": "34.073338",
        "lon": "134.55755"
    },
    {
        "id": "7",
        "type": "医療法人",
        "name": "沖の洲病院",
        "url": "http://www.nmt.ne.jp/~nagioo/",
        "beds": "33",
        "address": "徳島市城東町1-8-8",
        "tel": "088-622-7111",
        "lat": "34.073221",
        "lon": "134.57371"
    },
    {
        "id": "8",
        "type": "医療法人",
        "name": "亀井病院",
        "url": "http://www.kameihospital.com/",
        "beds": "42",
        "address": "徳島市八万町寺山231",
        "tel": "088-668-1177",
        "lat": "34.040555",
        "lon": "134.520847"
    },
    {
        "id": "9",
        "type": "医療法人",
        "name": "碩心館病院",
        "url": "http://www.sekishinkan.or.jp",
        "beds": "82",
        "address": "小松島市江田町字大江田44-1",
        "tel": "0885-32-3555",
        "lat": "34.01431",
        "lon": "134.563691"
    },
    {
        "id": "10",
        "type": "医療法人",
        "name": "博愛記念病院",
        "url": "http://hakuaihp.jp",
        "beds": "210",
        "address": "徳島市勝占町惣田9",
        "tel": "088-669-2166",
        "lat": "34.021353",
        "lon": "134.550919"
    },
    {
        "id": "11",
        "type": "医療法人",
        "name": "三加茂田中病院",
        "url": "http://www.mikamotanakahp.ecnet.jp",
        "beds": "192",
        "address": "三好郡東みよし町加茂1883-4",
        "tel": "0883-82-3700",
        "lat": "34.039307",
        "lon": "133.926213"
    }
]