[
    {
        "id": "1",
        "type": "独立行政法人国立病院機構",
        "name": "四国こどもとおとなの医療センター",
        "url": "http://www.shikoku-med.jp/",
        "beds": "689",
        "address": "善通寺市仙遊町2-1-1",
        "tel": "0877-62-1000",
        "lat": "34.228693",
        "lon": "133.770921"
    },
    {
        "id": "2",
        "type": "独立行政法人労働者健康安全機構",
        "name": "香川労災病院",
        "url": "http://www.kagawah.johas.go.jp/",
        "beds": "404",
        "address": "丸亀市城東町3-3-1",
        "tel": "0877-23-3111",
        "lat": "34.288134",
        "lon": "133.806016"
    },
    {
        "id": "3",
        "type": "独立行政法人地域医療機能推進機構",
        "name": "りつりん病院",
        "url": "http://ritsurin.jcho.go.jp/",
        "beds": "199",
        "address": "高松市栗林町3-5-9",
        "tel": "087-862-3171",
        "lat": "34.328744",
        "lon": "134.050497"
    },
    {
        "id": "4",
        "type": "都道府県",
        "name": "香川県立中央病院",
        "url": "http://www.chp-kagawa.jp/",
        "beds": "531",
        "address": "高松市朝日町1-2-1",
        "tel": "087-811-3333",
        "lat": "34.348811",
        "lon": "134.062555"
    },
    {
        "id": "5",
        "type": "市町村",
        "name": "坂出市立病院",
        "url": "http://www.city.sakaide.lg.jp/site/sakaide-hospital/",
        "beds": "194",
        "address": "坂出市寿町3-1-2",
        "tel": "0877-46-5131",
        "lat": "34.317363",
        "lon": "133.849558"
    },
    {
        "id": "6",
        "type": "市町村",
        "name": "さぬき市民病院",
        "url": "http://www.city.sanuki.kagawa.jp/hospital/",
        "beds": "179",
        "address": "さぬき市寒川町石田東甲387-1",
        "tel": "0879-43-2521",
        "lat": "34.267158",
        "lon": "134.202067"
    },
    {
        "id": "7",
        "type": "市町村",
        "name": "高松市立みんなの病院",
        "url": "http://www.takamatsu-municipal-hospital.jp/",
        "beds": "305",
        "address": "高松市仏生山町甲847-1",
        "tel": "087-813-7171",
        "lat": "34.282758",
        "lon": "134.040448"
    },
    {
        "id": "8",
        "type": "市町村",
        "name": "三豊総合病院",
        "url": "http://www.mitoyo-hosp.jp",
        "beds": "482",
        "address": "観音寺市豊浜町姫浜708",
        "tel": "0875-52-3366",
        "lat": "34.081933",
        "lon": "133.641655"
    },
    {
        "id": "9",
        "type": "日赤",
        "name": "高松赤十字病院",
        "url": "http://www.takamatsu.jrc.or.jp",
        "beds": "576",
        "address": "高松市番町4-1-3",
        "tel": "087-831-7101",
        "lat": "34.341084",
        "lon": "134.043231"
    },
    {
        "id": "10",
        "type": "済生会",
        "name": "香川県済生会病院",
        "url": "http://www.saiseikai-kagawa.jp/",
        "beds": "198",
        "address": "高松市多肥上町1331-1",
        "tel": "087-868-1551",
        "lat": "34.295501",
        "lon": "134.058308"
    },
    {
        "id": "11",
        "type": "厚生連",
        "name": "滝宮総合病院",
        "url": "http://www.takinomiya-hp.com/",
        "beds": "191",
        "address": "綾歌郡綾川町滝宮486",
        "tel": "087-876-1145",
        "lat": "34.247991",
        "lon": "133.923967"
    },
    {
        "id": "12",
        "type": "厚生連",
        "name": "屋島総合病院",
        "url": "http://www.yashima-hp.com/",
        "beds": "279",
        "address": "高松市屋島西町2105-17",
        "tel": "087-841-9141",
        "lat": "34.343455",
        "lon": "134.090517"
    },
    {
        "id": "13",
        "type": "共済組合及び連合会",
        "name": "高松病院",
        "url": "http://www.kkr-ta-hp.gr.jp/",
        "beds": "179",
        "address": "高松市天神前4-18",
        "tel": "087-861-3261",
        "lat": "34.339896",
        "lon": "134.045601"
    },
    {
        "id": "14",
        "type": "医療法人",
        "name": "宇多津病院",
        "url": "http://www.utz.or.jp/",
        "beds": "38",
        "address": "綾歌郡宇多津町浜五番丁66-1",
        "tel": "0877-56-7777",
        "lat": "34.30425",
        "lon": "133.81071"
    },
    {
        "id": "15",
        "type": "医療法人",
        "name": "永生病院",
        "url": "http://www.eisei-hp.or.jp",
        "beds": "40",
        "address": "仲多度郡まんのう町買田221-3",
        "tel": "0877-73-3300",
        "lat": "34.172143",
        "lon": "133.827381"
    },
    {
        "id": "16",
        "type": "医療法人",
        "name": "キナシ大林病院",
        "url": "http://www.obayashihp.or.jp/",
        "beds": "254",
        "address": "高松市鬼無町藤井435-1",
        "tel": "087-881-3631",
        "lat": "34.332738",
        "lon": "134.002223"
    },
    {
        "id": "17",
        "type": "医療法人",
        "name": "クワヤ病院",
        "url": "http://www.kuwaya.or.jp",
        "beds": "73",
        "address": "高松市塩屋町1-4",
        "tel": "087-851-5208",
        "lat": "34.344031",
        "lon": "134.055046"
    },
    {
        "id": "18",
        "type": "医療法人",
        "name": "善通寺前田病院",
        "url": "http://www.junshinkai.com/",
        "beds": "46",
        "address": "善通寺市中村町894-1",
        "tel": "0877-63-3131",
        "lat": "34.243249",
        "lon": "133.764884"
    },
    {
        "id": "19",
        "type": "医療法人",
        "name": "橋本病院",
        "url": "http://wafukai-hashimoto.jp",
        "beds": "156",
        "address": "三豊市山本町財田西902番地1",
        "tel": "0875-63-3311",
        "lat": "34.117212",
        "lon": "133.735597"
    },
    {
        "id": "20",
        "type": "医療法人",
        "name": "まるがめ医療センター",
        "url": "http://www.jyujin-mmc.jp",
        "beds": "300",
        "address": "丸亀市津森町219",
        "tel": "0877-23-5555",
        "lat": "34.276896",
        "lon": "133.794657"
    },
    {
        "id": "21",
        "type": "医療法人",
        "name": "ミタニ病院",
        "url": "http://www.mitani-fujita-hp.jp/",
        "beds": "85",
        "address": "高松市三谷町1680番地1",
        "tel": "087-864-8778",
        "lat": "34.280308",
        "lon": "134.059981"
    },
    {
        "id": "22",
        "type": "社会医療法人",
        "name": "総合病院回生病院",
        "url": "http://www.kaisei.or.jp/",
        "beds": "398",
        "address": "坂出市室町3-5-28",
        "tel": "0877-46-1011",
        "lat": "34.317785",
        "lon": "133.8618"
    },
    {
        "id": "23",
        "type": "その他法人",
        "name": "聖マルチン病院",
        "url": "http://sakaide-martinhp.jp/",
        "beds": "196",
        "address": "坂出市谷町1-4-13",
        "tel": "0877-46-5195",
        "lat": "34.311831",
        "lon": "133.859411"
    },
    {
        "id": "24",
        "type": "その他法人",
        "name": "附属三宅リハビリテーション病院",
        "url": "http://www.miyake.or.jp",
        "beds": "61",
        "address": "高松市天神前5番5号",
        "tel": "087-831-2101",
        "lat": "34.339832",
        "lon": "134.045019"
    },
    {
        "id": "25",
        "type": "個人",
        "name": "整形外科吉峰病院",
        "url": "http://www.yoshimine.com",
        "beds": "60",
        "address": "高松市番町1-4-13",
        "tel": "087-851-8775",
        "lat": "34.338333",
        "lon": "134.048891"
    }
]