[
    {
        "id": "1",
        "type": "独立行政法人労働者健康安全機構",
        "name": "愛媛労災病院",
        "url": "http://www.ehimeh.johas.go.jp/",
        "beds": "199",
        "address": "新居浜市南小松原町13-27",
        "tel": "0897-33-6191",
        "lat": "33.97389",
        "lon": "133.292245"
    },
    {
        "id": "2",
        "type": "独立行政法人地域医療機能推進機構",
        "name": "宇和島病院",
        "url": "http://uwajima.jcho.go.jp/",
        "beds": "199",
        "address": "宇和島市賀古町2-1-37",
        "tel": "0895-22-5616",
        "lat": "33.216125",
        "lon": "132.569882"
    },
    {
        "id": "3",
        "type": "都道府県",
        "name": "愛媛県立中央病院",
        "url": "http://www.eph.pref.ehime.jp/epch/",
        "beds": "827",
        "address": "松山市春日町83",
        "tel": "089-947-1111",
        "lat": "33.831556",
        "lon": "132.764945"
    },
    {
        "id": "4",
        "type": "市町村",
        "name": "宇和島市立津島病院",
        "url": "https://www.city.uwajima.ehime.jp/site/h-tusima/",
        "beds": "128",
        "address": "宇和島市津島町高田丙15番地",
        "tel": "0895-32-2011",
        "lat": "33.122338",
        "lon": "132.519955"
    },
    {
        "id": "5",
        "type": "市町村",
        "name": "宇和島市立吉田病院",
        "url": "https://www.city.uwajima.ehime.jp/site/yoshida-hospital/",
        "beds": "144",
        "address": "宇和島市吉田町北小路甲217",
        "tel": "0895-52-0611",
        "lat": "33.282451",
        "lon": "132.541128"
    },
    {
        "id": "6",
        "type": "市町村",
        "name": "西条市立周桑病院",
        "url": "http://www.shuso-hospital.jp/",
        "beds": "185",
        "address": "西条市壬生川131",
        "tel": "0898-64-2630",
        "lat": "33.93286",
        "lon": "133.078419"
    },
    {
        "id": "7",
        "type": "市町村",
        "name": "市立宇和島病院",
        "url": "http://www.uwajima-mh.jp",
        "beds": "435",
        "address": "宇和島市御殿町1-1",
        "tel": "0895-25-1111",
        "lat": "33.216103",
        "lon": "132.564939"
    },
    {
        "id": "8",
        "type": "市町村",
        "name": "市立八幡浜総合病院",
        "url": "http://yawatahama-cgh.jp/",
        "beds": "256",
        "address": "八幡浜市大平1-638",
        "tel": "0894-22-3211",
        "lat": "33.468392",
        "lon": "132.424604"
    },
    {
        "id": "9",
        "type": "日赤",
        "name": "松山赤十字病院",
        "url": "http://www.matsuyama.jrc.or.jp/",
        "beds": "632",
        "address": "松山市文京町1",
        "tel": "089-924-1111",
        "lat": "33.848443",
        "lon": "132.774172"
    },
    {
        "id": "10",
        "type": "済生会",
        "name": "済生会今治第二病院",
        "url": "http://www.imabari.saiseikai.or.jp/imabari2/",
        "beds": "30",
        "address": "今治市北日吉町1-7-43",
        "tel": "0898-23-0100",
        "lat": "34.063559",
        "lon": "132.988585"
    },
    {
        "id": "11",
        "type": "済生会",
        "name": "済生会今治病院",
        "url": "http://www.imabari.saiseikai.or.jp/",
        "beds": "191",
        "address": "今治市喜田村7-1-6",
        "tel": "0898-47-2500",
        "lat": "34.044154",
        "lon": "133.02015"
    },
    {
        "id": "12",
        "type": "済生会",
        "name": "済生会西条病院",
        "url": "http://www.saiseikaisaijo.jp",
        "beds": "150",
        "address": "西条市朔日市269-1",
        "tel": "0897-55-5100",
        "lat": "33.928785",
        "lon": "133.191776"
    },
    {
        "id": "13",
        "type": "済生会",
        "name": "済生会松山病院",
        "url": "http://db.matsuyama.saiseikai.or.jp/",
        "beds": "199",
        "address": "松山市山西町880-2",
        "tel": "089-951-6111",
        "lat": "33.85236",
        "lon": "132.720829"
    },
    {
        "id": "14",
        "type": "共済組合及び連合会",
        "name": "四国中央病院",
        "url": "http://www.shikoku-ctr-hsp.jp",
        "beds": "275",
        "address": "四国中央市川之江町2233",
        "tel": "0896-58-3515",
        "lat": "34.011434",
        "lon": "133.581595"
    },
    {
        "id": "15",
        "type": "医療法人",
        "name": "住友別子病院",
        "url": "http://www.sbh.gr.jp/",
        "beds": "360",
        "address": "新居浜市王子町3-1",
        "tel": "0897-37-7111",
        "lat": "33.953265",
        "lon": "133.263621"
    },
    {
        "id": "16",
        "type": "医療法人",
        "name": "松山城東病院",
        "url": "http://www.m-joto-hsp.com/",
        "beds": "90",
        "address": "松山市松末2-19-36",
        "tel": "089-943-7717",
        "lat": "33.827017",
        "lon": "132.788276"
    },
    {
        "id": "17",
        "type": "医療法人",
        "name": "松山第一病院",
        "url": "http://www.matsuyama-daiichi.jp",
        "beds": "70",
        "address": "松山市久万ノ台282-2",
        "tel": "089-924-6878",
        "lat": "33.85959",
        "lon": "132.748314"
    },
    {
        "id": "18",
        "type": "医療法人",
        "name": "松山西病院",
        "url": "http://www.yu-wakai.or.jp/",
        "beds": "102",
        "address": "松山市富久町360-1",
        "tel": "089-972-3355",
        "lat": "33.821915",
        "lon": "132.726991"
    },
    {
        "id": "19",
        "type": "医療法人",
        "name": "南高井病院",
        "url": "http://www.tensinkai.or.jp/",
        "beds": "353",
        "address": "松山市南高井町333",
        "tel": "089-976-7777",
        "lat": "33.787756",
        "lon": "132.824881"
    },
    {
        "id": "20",
        "type": "医療法人",
        "name": "南松山病院",
        "url": "http://www.minami-hp.or.jp",
        "beds": "242",
        "address": "松山市朝生田町1-3-10",
        "tel": "089-941-8255",
        "lat": "33.824232",
        "lon": "132.774168"
    },
    {
        "id": "21",
        "type": "特定医療法人",
        "name": "加戸病院",
        "url": "http://kato-hp.jp/",
        "beds": "92",
        "address": "喜多郡内子町内子771",
        "tel": "0893-44-5500",
        "lat": "33.546253",
        "lon": "132.647011"
    },
    {
        "id": "22",
        "type": "特定医療法人",
        "name": "西条市民病院",
        "url": "http://www.saijo-hospital.jp/",
        "beds": "101",
        "address": "西条市小松町妙口甲1521",
        "tel": "0898-72-4111",
        "lat": "33.895754",
        "lon": "133.089962"
    },
    {
        "id": "23",
        "type": "社会医療法人",
        "name": "大洲中央病院",
        "url": "http://www.oozuchuo-hsp.jp",
        "beds": "182",
        "address": "大洲市東大洲5",
        "tel": "0893-24-4551",
        "lat": "33.515422",
        "lon": "132.55119"
    },
    {
        "id": "24",
        "type": "社会医療法人",
        "name": "西条中央病院",
        "url": "http://www.saijo-c-hospital.jp",
        "beds": "242",
        "address": "西条市朔日市804",
        "tel": "0897-56-0300",
        "lat": "33.929667",
        "lon": "133.180448"
    },
    {
        "id": "25",
        "type": "社会医療法人",
        "name": "ＨＩＴＯ病院",
        "url": "http://hito-medical.jp",
        "beds": "257",
        "address": "四国中央市上分町788-1",
        "tel": "0896-58-2222",
        "lat": "33.991509",
        "lon": "133.587481"
    },
    {
        "id": "26",
        "type": "社会医療法人",
        "name": "村上記念病院",
        "url": "http://www.murakami-kinen.or.jp/",
        "beds": "199",
        "address": "西条市大町739",
        "tel": "0897-56-2300",
        "lat": "33.915246",
        "lon": "133.190379"
    },
    {
        "id": "27",
        "type": "その他法人",
        "name": "十全総合病院",
        "url": "http://jyuzen.jp/",
        "beds": "350",
        "address": "新居浜市北新町1-5",
        "tel": "0897-33-1818",
        "lat": "33.959892",
        "lon": "133.273568"
    },
    {
        "id": "28",
        "type": "その他法人",
        "name": "松山市民病院",
        "url": "http://www.matsuyama-shimin-hsp.or.jp",
        "beds": "432",
        "address": "松山市大手町2-6-5",
        "tel": "089-943-1151",
        "lat": "33.839532",
        "lon": "132.753737"
    }
]