[
    {
        "id": "1",
        "type": "独立行政法人国立病院機構",
        "name": "高知病院",
        "url": "http://www.kochihp.com",
        "beds": "424",
        "address": "高知市朝倉西町1-2-25",
        "tel": "088-844-3111",
        "lat": "33.542652",
        "lon": "133.48435"
    },
    {
        "id": "2",
        "type": "国立大学法人",
        "name": "高知大学医学部附属病院",
        "url": "http://www.kochi-ms.ac.jp/~hsptl/",
        "beds": "613",
        "address": "南国市岡豊町小蓮185-1",
        "tel": "088-866-5811",
        "lat": "33.594677",
        "lon": "133.614658"
    },
    {
        "id": "3",
        "type": "独立行政法人地域医療機能推進機構",
        "name": "高知西病院",
        "url": "http://kochi.jcho.go.jp",
        "beds": "165",
        "address": "高知市神田317-12",
        "tel": "088-843-1501",
        "lat": "33.540834",
        "lon": "133.50191"
    },
    {
        "id": "4",
        "type": "都道府県",
        "name": "高知医療センター",
        "url": "http://www2.khsc.or.jp/",
        "beds": "660",
        "address": "高知市池2125-1",
        "tel": "088-837-3000",
        "lat": "33.531382",
        "lon": "133.585168"
    },
    {
        "id": "5",
        "type": "都道府県",
        "name": "高知県立あき総合病院",
        "url": "http://www.pref.kochi.lg.jp/aki/",
        "beds": "270",
        "address": "安芸市宝永町3-33",
        "tel": "0887-34-3111",
        "lat": "33.506388",
        "lon": "133.897547"
    },
    {
        "id": "6",
        "type": "都道府県",
        "name": "高知県立幡多けんみん病院",
        "url": "http://www.pref.kochi.lg.jp/hata/",
        "beds": "355",
        "address": "宿毛市山奈町芳奈3-1",
        "tel": "0880-66-2222",
        "lat": "32.966643",
        "lon": "132.805462"
    },
    {
        "id": "7",
        "type": "市町村",
        "name": "いの町立国民健康保険仁淀病院",
        "url": "http://www.town.ino.kochi.jp/niyodo-hospital/",
        "beds": "100",
        "address": "吾川郡いの町1369",
        "tel": "088-893-1551",
        "lat": "33.546893",
        "lon": "133.43366"
    },
    {
        "id": "8",
        "type": "市町村",
        "name": "佐川町立高北国民健康保険病院",
        "url": "http://www.town.sakawa.lg.jp/kouhoku_hospital/",
        "beds": "98",
        "address": "高岡郡佐川町甲1687",
        "tel": "0889-22-1166",
        "lat": "33.503728",
        "lon": "133.286623"
    },
    {
        "id": "9",
        "type": "市町村",
        "name": "四万十市立市民病院",
        "url": "http://www3.city.shimanto.lg.jp/hospital/",
        "beds": "99",
        "address": "四万十市中村東町1-1-27",
        "tel": "0880-34-2126",
        "lat": "32.993704",
        "lon": "132.937424"
    },
    {
        "id": "10",
        "type": "市町村",
        "name": "町立国保嶺北中央病院",
        "url": "http://reihokuchuo-hp.jp",
        "beds": "99",
        "address": "長岡郡本山町本山620",
        "tel": "0887-76-2450",
        "lat": "33.759316",
        "lon": "133.586449"
    },
    {
        "id": "11",
        "type": "市町村",
        "name": "土佐市民病院",
        "url": "http://www.city.tosa.lg.jp/hospital/",
        "beds": "150",
        "address": "土佐市高岡町甲1867",
        "tel": "088-852-2151",
        "lat": "33.506588",
        "lon": "133.421123"
    },
    {
        "id": "12",
        "type": "日赤",
        "name": "高知赤十字病院",
        "url": "http://www.kochi-med.jrc.or.jp/",
        "beds": "468",
        "address": "高知市秦南町1-4-63-11",
        "tel": "088-822-1201",
        "lat": "33.576021",
        "lon": "133.544172"
    },
    {
        "id": "13",
        "type": "厚生連",
        "name": "ＪＡ高知病院",
        "url": "http://www.kouseiren.ja-kochi.or.jp/",
        "beds": "178",
        "address": "南国市明見字中野526-1",
        "tel": "088-863-2181",
        "lat": "33.570077",
        "lon": "133.623071"
    },
    {
        "id": "14",
        "type": "医療法人",
        "name": "愛宕病院",
        "url": "http://www.atago-hp.or.jp/",
        "beds": "562",
        "address": "高知市愛宕町1-1-13",
        "tel": "088-823-3301",
        "lat": "33.565365",
        "lon": "133.53731"
    },
    {
        "id": "15",
        "type": "医療法人",
        "name": "渭南病院",
        "url": "http://www.inan-hp.jp/",
        "beds": "105",
        "address": "土佐清水市越前町6-1",
        "tel": "0880-82-1151",
        "lat": "32.781565",
        "lon": "132.95101"
    },
    {
        "id": "16",
        "type": "医療法人",
        "name": "岡村病院",
        "url": "http://www.okamura-hp.or.jp/",
        "beds": "145",
        "address": "高知市入明町1-5",
        "tel": "088-822-5155",
        "lat": "33.565603",
        "lon": "133.532163"
    },
    {
        "id": "17",
        "type": "医療法人",
        "name": "北島病院",
        "url": "http://www.kitajima-hp.com",
        "beds": "50",
        "address": "高岡郡越知町越知甲1662",
        "tel": "0889-26-0432",
        "lat": "33.530478",
        "lon": "133.253068"
    },
    {
        "id": "18",
        "type": "医療法人",
        "name": "国吉病院",
        "url": "http://www.kuniyoshi-hp.or.jp/",
        "beds": "106",
        "address": "高知市上町1-3-4",
        "tel": "088-875-0231",
        "lat": "33.55845",
        "lon": "133.526172"
    },
    {
        "id": "19",
        "type": "医療法人",
        "name": "くぼかわ病院",
        "url": "http://www.kawamurakai.com",
        "beds": "172",
        "address": "高岡郡四万十町見付902-1",
        "tel": "0880-22-1111",
        "lat": "33.205791",
        "lon": "133.148641"
    },
    {
        "id": "20",
        "type": "医療法人",
        "name": "高知城東病院",
        "url": "http://www.kochijoto.or.jp/",
        "beds": "92",
        "address": "高知市大津乙719",
        "tel": "088-866-2326",
        "lat": "33.567848",
        "lon": "133.597242"
    },
    {
        "id": "21",
        "type": "医療法人",
        "name": "高知高須病院",
        "url": "http://www.takasuhp.or.jp/",
        "beds": "63",
        "address": "高知市大津乙2705-1",
        "tel": "088-878-3377",
        "lat": "33.566528",
        "lon": "133.579723"
    },
    {
        "id": "22",
        "type": "医療法人",
        "name": "島津病院",
        "url": "http://www.shimazuhp.jp/",
        "beds": "69",
        "address": "高知市比島町4-6-22",
        "tel": "088-823-2285",
        "lat": "33.573317",
        "lon": "133.549964"
    },
    {
        "id": "23",
        "type": "医療法人",
        "name": "白菊園病院",
        "url": "http://siragiku.jp",
        "beds": "187",
        "address": "土佐市新居萩ﾉ里1",
        "tel": "088-856-1101",
        "lat": "33.449462",
        "lon": "133.459008"
    },
    {
        "id": "24",
        "type": "医療法人",
        "name": "須崎くろしお病院",
        "url": "http://susaki-kuroshio-hp.or.jp/",
        "beds": "160",
        "address": "須崎市緑町4-30",
        "tel": "0889-43-2121",
        "lat": "33.411835",
        "lon": "133.289389"
    },
    {
        "id": "25",
        "type": "医療法人",
        "name": "だいいちリハビリテーション病院",
        "url": "http://www.daiichi-hp.jp",
        "beds": "180",
        "address": "高知市九反田2-14",
        "tel": "088-882-0811",
        "lat": "33.558215",
        "lon": "133.547996"
    },
    {
        "id": "26",
        "type": "医療法人",
        "name": "田中整形外科病院",
        "url": "http://www.tanakaseikei.jp",
        "beds": "112",
        "address": "高知市上町3-2-6",
        "tel": "088-822-7660",
        "lat": "33.558146",
        "lon": "133.52256"
    },
    {
        "id": "27",
        "type": "医療法人",
        "name": "田野病院",
        "url": "http://www.usui-kai.com/",
        "beds": "84",
        "address": "安芸郡田野町1414-1",
        "tel": "0887-38-7111",
        "lat": "33.428934",
        "lon": "134.008696"
    },
    {
        "id": "28",
        "type": "医療法人",
        "name": "野市中央病院",
        "url": "http://www.kouseikai-g.jp/",
        "beds": "171",
        "address": "香南市野市町東野555-18",
        "tel": "0887-55-1101",
        "lat": "33.561069",
        "lon": "133.71758"
    },
    {
        "id": "29",
        "type": "医療法人",
        "name": "幡多病院",
        "url": "http://www.hatabyouin.net/",
        "beds": "45",
        "address": "四万十市右山天神町10-12",
        "tel": "0880-34-6211",
        "lat": "32.984492",
        "lon": "132.941812"
    },
    {
        "id": "30",
        "type": "医療法人",
        "name": "海里マリン病院",
        "url": "http://www.marine-hosp.jp",
        "beds": "76",
        "address": "高知市仁井田1617-5",
        "tel": "088-847-0101",
        "lat": "33.514121",
        "lon": "133.572615"
    },
    {
        "id": "31",
        "type": "医療法人",
        "name": "もみのき病院",
        "url": "http://mominoki-hp.or.jp",
        "beds": "60",
        "address": "高知市塚ノ原6-1",
        "tel": "088-840-2222",
        "lat": "33.560237",
        "lon": "133.496031"
    },
    {
        "id": "32",
        "type": "特定医療法人",
        "name": "いずみの病院",
        "url": "http://www.izumino.or.jp",
        "beds": "238",
        "address": "高知市薊野北町2-10-53",
        "tel": "088-826-5511",
        "lat": "33.580574",
        "lon": "133.555423"
    },
    {
        "id": "33",
        "type": "特定医療法人",
        "name": "大井田病院",
        "url": "http://www.ooida-hp.net/",
        "beds": "93",
        "address": "宿毛市中央8-3-6",
        "tel": "0880-63-2101",
        "lat": "32.935297",
        "lon": "132.731476"
    },
    {
        "id": "34",
        "type": "特定医療法人",
        "name": "香長中央病院",
        "url": "",
        "beds": "197",
        "address": "香美市土佐山田町西本町5-5-34",
        "tel": "0887-53-5155",
        "lat": "33.603914",
        "lon": "133.67866"
    },
    {
        "id": "35",
        "type": "特定医療法人",
        "name": "図南病院",
        "url": "http://www.hisakai.or.jp/tonan/",
        "beds": "183",
        "address": "高知市知寄町1-5-15",
        "tel": "088-882-3126",
        "lat": "33.558912",
        "lon": "133.55608"
    },
    {
        "id": "36",
        "type": "社会医療法人",
        "name": "近森病院",
        "url": "http://www.chikamori.com",
        "beds": "512",
        "address": "高知市大川筋1-1-16",
        "tel": "088-822-5231",
        "lat": "33.564414",
        "lon": "133.542268"
    },
    {
        "id": "37",
        "type": "社会医療法人",
        "name": "近森リハビリテーション病院",
        "url": "http://www.chikamori.com",
        "beds": "180",
        "address": "高知市廿代町2-22",
        "tel": "088-822-5231",
        "lat": "33.563464",
        "lon": "133.542089"
    },
    {
        "id": "38",
        "type": "社会医療法人",
        "name": "細木病院",
        "url": "http://hosogi-hospital.jp/",
        "beds": "499",
        "address": "高知市大膳町37",
        "tel": "088-822-7211",
        "lat": "33.559938",
        "lon": "133.522332"
    }
]