[
    {
        "id": "1",
        "type": "独立行政法人国立病院機構",
        "name": "仙台医療センター",
        "url": "http://www.snh.go.jp/",
        "beds": "698",
        "address": "仙台市宮城野区宮城野2-8-8",
        "tel": "022-293-1111",
        "lat": "38.261283",
        "lon": "140.907212"
    },
    {
        "id": "2",
        "type": "独立行政法人労働者健康安全機構",
        "name": "東北労災病院",
        "url": "http://www.tohokuh.johas.go.jp/",
        "beds": "548",
        "address": "仙台市青葉区台原4-3-21",
        "tel": "022-275-1111",
        "lat": "38.284297",
        "lon": "140.875708"
    },
    {
        "id": "3",
        "type": "独立行政法人地域医療機能推進機構",
        "name": "仙台病院",
        "url": "http://sendai.jcho.go.jp/",
        "beds": "428",
        "address": "仙台市青葉区堤町3-16-1",
        "tel": "022-275-3111",
        "lat": "38.290902",
        "lon": "140.871092"
    },
    {
        "id": "4",
        "type": "独立行政法人地域医療機能推進機構",
        "name": "仙台南病院",
        "url": "http://sendaiminami.jcho.go.jp/",
        "beds": "200",
        "address": "仙台市太白区中田町字前沖143",
        "tel": "022-306-1711",
        "lat": "38.190457",
        "lon": "140.899137"
    },
    {
        "id": "5",
        "type": "市町村",
        "name": "石巻市立病院",
        "url": "http://ishinomaki-city.hospital.jp",
        "beds": "180",
        "address": "石巻市穀町15-1",
        "tel": "0225-25-5555",
        "lat": "38.434965",
        "lon": "141.3016"
    },
    {
        "id": "6",
        "type": "市町村",
        "name": "大崎市民病院",
        "url": "http://www.h-osaki.jp/",
        "beds": "500",
        "address": "大崎市古川穂波3-8-1",
        "tel": "0229-23-3311",
        "lat": "38.565883",
        "lon": "140.943821"
    },
    {
        "id": "7",
        "type": "市町村",
        "name": "栗原市立栗原中央病院",
        "url": "http://www.kurihara-central-hp.jp/",
        "beds": "329",
        "address": "栗原市築館宮野中央3-1-1",
        "tel": "0228-21-5330",
        "lat": "38.746669",
        "lon": "141.020295"
    },
    {
        "id": "8",
        "type": "市町村",
        "name": "塩竈市立病院",
        "url": "http://www.city-hospital-shiogama.jp/",
        "beds": "161",
        "address": "塩竈市香津町7-1",
        "tel": "022-364-5521",
        "lat": "38.311034",
        "lon": "141.015134"
    },
    {
        "id": "9",
        "type": "市町村",
        "name": "仙台市立病院",
        "url": "http://hospital.city.sendai.jp",
        "beds": "525",
        "address": "仙台市太白区あすと長町1-1-1",
        "tel": "022-308-7111",
        "lat": "38.231903",
        "lon": "140.888261"
    },
    {
        "id": "10",
        "type": "市町村",
        "name": "登米市立登米市民病院",
        "url": "http://www.city.tome.miyagi.jp/iryou/tomehp/",
        "beds": "258",
        "address": "登米市迫町佐沼字下田中25",
        "tel": "0220-22-5511",
        "lat": "38.687525",
        "lon": "141.192837"
    },
    {
        "id": "11",
        "type": "市町村",
        "name": "南三陸病院",
        "url": "http://www.minamisanriku-hp.jp/",
        "beds": "90",
        "address": "本吉郡南三陸町志津川字沼田14-3",
        "tel": "0226-46-3664",
        "lat": "38.67922",
        "lon": "141.462424"
    },
    {
        "id": "12",
        "type": "日赤",
        "name": "石巻赤十字病院",
        "url": "http://www.ishinomaki.jrc.or.jp/",
        "beds": "464",
        "address": "石巻市蛇田字西道下71",
        "tel": "0225-21-7220",
        "lat": "38.459535",
        "lon": "141.280179"
    },
    {
        "id": "13",
        "type": "日赤",
        "name": "仙台赤十字病院",
        "url": "http://www.sendai.jrc.or.jp",
        "beds": "389",
        "address": "仙台市太白区八木山本町2-43-3",
        "tel": "022-243-1111",
        "lat": "38.236714",
        "lon": "140.839241"
    },
    {
        "id": "14",
        "type": "共済組合及び連合会",
        "name": "東北公済病院",
        "url": "http://www.tohokukosai.com/flash.htm",
        "beds": "365",
        "address": "仙台市青葉区国分町2-3-11",
        "tel": "022-227-2211",
        "lat": "38.262666",
        "lon": "140.868152"
    },
    {
        "id": "15",
        "type": "公益法人",
        "name": "坂総合病院",
        "url": "http://www.m-kousei.com/saka/",
        "beds": "357",
        "address": "塩竈市錦町16-5",
        "tel": "022-365-5175",
        "lat": "38.306498",
        "lon": "141.015525"
    },
    {
        "id": "16",
        "type": "公益法人",
        "name": "仙台オープン病院",
        "url": "http://www.openhp.or.jp",
        "beds": "330",
        "address": "仙台市宮城野区鶴ケ谷5-22-1",
        "tel": "022-252-1111",
        "lat": "38.293772",
        "lon": "140.91721"
    },
    {
        "id": "17",
        "type": "公益法人",
        "name": "宮城利府掖済会病院",
        "url": "http://www.rifuekisaikai.com/",
        "beds": "100",
        "address": "利府町森郷字新太子堂51",
        "tel": "022-767-2151",
        "lat": "38.335205",
        "lon": "140.987655"
    },
    {
        "id": "18",
        "type": "医療法人",
        "name": "石巻健育会病院",
        "url": "http://www.ishinomaki.gr.jp/",
        "beds": "168",
        "address": "石巻市大街道西3-3-27",
        "tel": "0225-94-9195",
        "lat": "38.431332",
        "lon": "141.271414"
    },
    {
        "id": "19",
        "type": "医療法人",
        "name": "猪苗代病院",
        "url": "",
        "beds": "60",
        "address": "気仙沼市南町1-3-7",
        "tel": "0226-22-7180",
        "lat": "38.904917",
        "lon": "141.572561"
    },
    {
        "id": "20",
        "type": "医療法人",
        "name": "永仁会病院",
        "url": "www.eijinkai-hp.or.jp",
        "beds": "80",
        "address": "大崎市古川旭2-5-1",
        "tel": "0229-22-0063",
        "lat": "38.564732",
        "lon": "140.971411"
    },
    {
        "id": "21",
        "type": "医療法人",
        "name": "齋藤病院",
        "url": "http://www.jinmei.or.jp/saito",
        "beds": "179",
        "address": "石巻市山下町1-7-24",
        "tel": "0225-96-3251",
        "lat": "38.432476",
        "lon": "141.29345"
    },
    {
        "id": "22",
        "type": "医療法人",
        "name": "スズキ記念病院",
        "url": "http://www.suzuki-hospital.jp/",
        "beds": "78",
        "address": "岩沼市里の杜3-5-5",
        "tel": "0223-23-3111",
        "lat": "38.109107",
        "lon": "140.878983"
    },
    {
        "id": "23",
        "type": "医療法人",
        "name": "仙塩総合病院",
        "url": "http://www.sen-en.jp/sougou/",
        "beds": "260",
        "address": "多賀城市桜木2-1-1",
        "tel": "022-367-4111",
        "lat": "38.291409",
        "lon": "141.015013"
    },
    {
        "id": "24",
        "type": "医療法人",
        "name": "仙台徳洲会病院",
        "url": "https://sendai.tokushukai.jp/",
        "beds": "315",
        "address": "仙台市泉区七北田字駕籠沢15",
        "tel": "022-372-1110",
        "lat": "38.326222",
        "lon": "140.875205"
    },
    {
        "id": "25",
        "type": "医療法人",
        "name": "仙台東脳神経外科病院",
        "url": "http://www.noukenkai.jp",
        "beds": "93",
        "address": "仙台市宮城野区岩切1-12-1",
        "tel": "022-255-7117",
        "lat": "38.291266",
        "lon": "140.936444"
    },
    {
        "id": "26",
        "type": "医療法人",
        "name": "名取熊野堂病院",
        "url": "",
        "beds": "112",
        "address": "名取市高舘熊野堂字岩口下68-1",
        "tel": "022-386-2131",
        "lat": "38.197831",
        "lon": "140.85001"
    },
    {
        "id": "27",
        "type": "特定医療法人",
        "name": "南浜中央病院",
        "url": "http://www.minamihama.or.jp/",
        "beds": "239",
        "address": "岩沼市寺島字北新田111",
        "tel": "0223-24-1861",
        "lat": "38.08389",
        "lon": "140.919014"
    },
    {
        "id": "28",
        "type": "その他法人",
        "name": "仙台厚生病院",
        "url": "http://www.sendai-kousei-hospital.jp/",
        "beds": "409",
        "address": "仙台市青葉区広瀬町4-15",
        "tel": "022-222-6181",
        "lat": "38.269793",
        "lon": "140.857594"
    },
    {
        "id": "29",
        "type": "その他法人",
        "name": "光ヶ丘スペルマン病院",
        "url": "http://www.spellman.or.jp/",
        "beds": "140",
        "address": "仙台市宮城野区東仙台6-7-1",
        "tel": "022-257-0231",
        "lat": "38.279034",
        "lon": "140.910876"
    }
]