[
    {
        "id": "1",
        "type": "独立行政法人国立病院機構",
        "name": "大牟田病院",
        "url": "https://omuta.hosp.go.jp/",
        "beds": "402",
        "address": "大牟田市大字橘1044-1",
        "tel": "0944-58-1122",
        "lat": "33.072395",
        "lon": "130.472399"
    },
    {
        "id": "2",
        "type": "独立行政法人国立病院機構",
        "name": "九州医療センター",
        "url": "http://www.kyumed.jp",
        "beds": "702",
        "address": "福岡市中央区地行浜1-8-1",
        "tel": "092-852-0700",
        "lat": "33.59226",
        "lon": "130.360828"
    },
    {
        "id": "3",
        "type": "独立行政法人国立病院機構",
        "name": "九州がんセンター",
        "url": "http://www.ia-nkcc.jp/",
        "beds": "411",
        "address": "福岡市南区野多目3-1-1",
        "tel": "092-541-3231",
        "lat": "33.542448",
        "lon": "130.42087"
    },
    {
        "id": "4",
        "type": "独立行政法人国立病院機構",
        "name": "小倉医療センター",
        "url": "http://www.kokura-hp.jp/",
        "beds": "400",
        "address": "北九州市小倉南区春ヶ丘10-1",
        "tel": "093-921-8881",
        "lat": "33.849482",
        "lon": "130.883825"
    },
    {
        "id": "5",
        "type": "独立行政法人国立病院機構",
        "name": "福岡東医療センター",
        "url": "https://fukuokae.hosp.go.jp/",
        "beds": "549",
        "address": "古賀市千鳥1-1-1",
        "tel": "092-943-2331",
        "lat": "33.740262",
        "lon": "130.475845"
    },
    {
        "id": "6",
        "type": "独立行政法人国立病院機構",
        "name": "福岡病院",
        "url": "http://www.fukuoka-nh.jp/",
        "beds": "360",
        "address": "福岡市南区屋形原4-39-1",
        "tel": "092-565-5534",
        "lat": "33.534103",
        "lon": "130.409243"
    },
    {
        "id": "7",
        "type": "独立行政法人労働者健康安全機構",
        "name": "九州労災病院",
        "url": "http://www.kyushuh.johas.go.jp/",
        "beds": "450",
        "address": "北九州市小倉南区曽根北町1-1",
        "tel": "093-471-1121",
        "lat": "33.837172",
        "lon": "130.938406"
    },
    {
        "id": "8",
        "type": "独立行政法人労働者健康安全機構",
        "name": "九州労災病院門司メディカルセンター",
        "url": "http://www.mojih.johas.go.jp/",
        "beds": "250",
        "address": "北九州市門司区東港町3-1",
        "tel": "093-331-3461",
        "lat": "33.951163",
        "lon": "130.96484"
    },
    {
        "id": "9",
        "type": "独立行政法人地域医療機能推進機構",
        "name": "九州病院",
        "url": "https://kyusyu.jcho.go.jp/",
        "beds": "575",
        "address": "北九州市八幡西区岸の浦1-8-1",
        "tel": "093-641-5111",
        "lat": "33.857459",
        "lon": "130.765357"
    },
    {
        "id": "10",
        "type": "独立行政法人地域医療機能推進機構",
        "name": "久留米総合病院",
        "url": "http://kurume.jcho.go.jp/",
        "beds": "175",
        "address": "久留米市櫛原町21",
        "tel": "0942-33-1211",
        "lat": "33.318519",
        "lon": "130.51343"
    },
    {
        "id": "11",
        "type": "独立行政法人地域医療機能推進機構",
        "name": "福岡ゆたか中央病院",
        "url": "http://fukuoka.jcho.go.jp",
        "beds": "162",
        "address": "直方市感田523-5",
        "tel": "0949-26-2311",
        "lat": "33.758878",
        "lon": "130.736946"
    },
    {
        "id": "12",
        "type": "市町村",
        "name": "公立八女総合病院",
        "url": "http://www.hosp-yame.jp/",
        "beds": "300",
        "address": "八女市高塚540番地2",
        "tel": "0943-23-4131",
        "lat": "33.206253",
        "lon": "130.56031"
    },
    {
        "id": "13",
        "type": "市町村",
        "name": "田川市立病院",
        "url": "http://hospital.city.tagawa.fukuoka.jp/",
        "beds": "342",
        "address": "田川市大字糒1700-2",
        "tel": "0947-44-2100",
        "lat": "33.659495",
        "lon": "130.799367"
    },
    {
        "id": "14",
        "type": "地方独立行政法人",
        "name": "大牟田市立病院",
        "url": "http://www.ghp.omuta.fukuoka.jp/",
        "beds": "350",
        "address": "大牟田市宝坂町2-19-1",
        "tel": "0944-53-1061",
        "lat": "33.024043",
        "lon": "130.445182"
    },
    {
        "id": "15",
        "type": "地方独立行政法人",
        "name": "北九州市立医療センター",
        "url": "http://www.kitakyu-cho.jp/center/",
        "beds": "636",
        "address": "北九州市小倉北区馬借2-1-1",
        "tel": "093-541-1831",
        "lat": "33.879383",
        "lon": "130.87896"
    },
    {
        "id": "16",
        "type": "地方独立行政法人",
        "name": "北九州市立八幡病院",
        "url": "http://www.yahatahp.jp/",
        "beds": "350",
        "address": "北九州市八幡東区尾倉２－６－２",
        "tel": "093-662-6565",
        "lat": "33.865181",
        "lon": "130.795888"
    },
    {
        "id": "17",
        "type": "地方独立行政法人",
        "name": "筑後市立病院",
        "url": "http://www.chikugocity-hp.jp/",
        "beds": "233",
        "address": "筑後市大字和泉917-1",
        "tel": "0942-53-7511",
        "lat": "33.204715",
        "lon": "130.491168"
    },
    {
        "id": "18",
        "type": "地方独立行政法人",
        "name": "福岡市民病院",
        "url": "http://www.fcho.jp/shiminhp/",
        "beds": "204",
        "address": "福岡市博多区吉塚本町13-1",
        "tel": "092-632-1111",
        "lat": "33.604535",
        "lon": "130.422263"
    },
    {
        "id": "19",
        "type": "日赤",
        "name": "今津赤十字病院",
        "url": "http://www.fukuoka.jrc.or.jp/imazu/",
        "beds": "180",
        "address": "福岡市西区今津377",
        "tel": "092-806-2111",
        "lat": "33.598587",
        "lon": "130.27116"
    },
    {
        "id": "20",
        "type": "日赤",
        "name": "嘉麻赤十字病院",
        "url": "http://www.kama-jrc.jp",
        "beds": "142",
        "address": "嘉麻市上山田1237",
        "tel": "0948-52-0861",
        "lat": "33.561798",
        "lon": "130.761862"
    },
    {
        "id": "21",
        "type": "日赤",
        "name": "福岡赤十字病院",
        "url": "http://www.fukuoka-med.jrc.or.jp/",
        "beds": "511",
        "address": "福岡市南区大楠3-1-1",
        "tel": "092-521-1211",
        "lat": "33.571743",
        "lon": "130.41443"
    },
    {
        "id": "22",
        "type": "済生会",
        "name": "福岡県済生会飯塚嘉穂病院",
        "url": "http://iizuka-kaho.jp",
        "beds": "197",
        "address": "飯塚市太郎丸265",
        "tel": "0948-22-3740",
        "lat": "33.60135",
        "lon": "130.667279"
    },
    {
        "id": "23",
        "type": "済生会",
        "name": "福岡県済生会大牟田病院",
        "url": "http://www.omuta-saiseikai.jp/",
        "beds": "196",
        "address": "大牟田市田隈810",
        "tel": "0944-53-2488",
        "lat": "33.056546",
        "lon": "130.465716"
    },
    {
        "id": "24",
        "type": "済生会",
        "name": "福岡県済生会福岡総合病院",
        "url": "http://www.saiseikai-hp.chuo.fukuoka.jp",
        "beds": "380",
        "address": "福岡市中央区天神1-3-46",
        "tel": "092-771-8151",
        "lat": "33.589569",
        "lon": "130.402979"
    },
    {
        "id": "25",
        "type": "済生会",
        "name": "福岡県済生会二日市病院",
        "url": "http://www.saiseikai-futsukaichi.org",
        "beds": "260",
        "address": "筑紫野市湯町3-13-1",
        "tel": "092-923-1551",
        "lat": "33.488618",
        "lon": "130.515337"
    },
    {
        "id": "26",
        "type": "済生会",
        "name": "福岡県済生会八幡総合病院",
        "url": "http://www.yahata.saiseikai.or.jp/",
        "beds": "403",
        "address": "北九州市八幡東区春の町5-9-27",
        "tel": "093-662-5211",
        "lat": "33.86718",
        "lon": "130.803943"
    },
    {
        "id": "27",
        "type": "共済組合及び連合会",
        "name": "九州中央病院",
        "url": "http://kyushu-ctr-hsp.com",
        "beds": "330",
        "address": "福岡市南区塩原3-23-1",
        "tel": "092-541-4936",
        "lat": "33.563389",
        "lon": "130.42474"
    },
    {
        "id": "28",
        "type": "共済組合及び連合会",
        "name": "新小倉病院",
        "url": "http://www.shin-kokura.gr.jp/",
        "beds": "300",
        "address": "北九州市小倉北区金田1-3-1",
        "tel": "093-571-1031",
        "lat": "33.878487",
        "lon": "130.866373"
    },
    {
        "id": "29",
        "type": "共済組合及び連合会",
        "name": "千早病院",
        "url": "http://www.chihaya-hp.jp/",
        "beds": "175",
        "address": "福岡市東区千早2-30-1",
        "tel": "092-661-2211",
        "lat": "33.648215",
        "lon": "130.434008"
    },
    {
        "id": "30",
        "type": "共済組合及び連合会",
        "name": "浜の町病院",
        "url": "http://www.hamanomachi.jp/",
        "beds": "468",
        "address": "福岡市中央区長浜3-3-1",
        "tel": "092-721-0831",
        "lat": "33.59638",
        "lon": "130.39364"
    },
    {
        "id": "31",
        "type": "公益法人",
        "name": "健和会大手町病院",
        "url": "http://www.kenwakai.gr.jp/ootemachi/",
        "beds": "499",
        "address": "北九州市小倉北区大手町15-1",
        "tel": "093-592-5511",
        "lat": "33.875916",
        "lon": "130.871639"
    },
    {
        "id": "32",
        "type": "公益法人",
        "name": "社会保険　仲原病院",
        "url": "http://www.nakabaru-hp.jp/",
        "beds": "125",
        "address": "糟屋郡志免町別府北2-12-1",
        "tel": "092-621-2802",
        "lat": "33.607438",
        "lon": "130.454736"
    },
    {
        "id": "33",
        "type": "公益法人",
        "name": "たたらリハビリテーション病院",
        "url": "http://www.tatara-reha.jp",
        "beds": "199",
        "address": "福岡市東区八田1-4-66",
        "tel": "092-691-5508",
        "lat": "33.633461",
        "lon": "130.456497"
    },
    {
        "id": "34",
        "type": "公益法人",
        "name": "千鳥橋病院",
        "url": "http://www.chidoribashi-hp.or.jp/",
        "beds": "350",
        "address": "福岡市博多区千代5-18-1",
        "tel": "092-641-2761",
        "lat": "33.608083",
        "lon": "130.412116"
    },
    {
        "id": "35",
        "type": "公益法人",
        "name": "戸畑けんわ病院",
        "url": "http://www.tobatakenwa.or.jp",
        "beds": "303",
        "address": "北九州市戸畑区新地1-5-5",
        "tel": "093-881-8181",
        "lat": "33.895594",
        "lon": "130.827473"
    },
    {
        "id": "36",
        "type": "公益法人",
        "name": "三萩野病院",
        "url": "http://www.m-hp.or.jp/",
        "beds": "181",
        "address": "北九州市小倉北区三萩野1-12-18",
        "tel": "093-931-7931",
        "lat": "33.870988",
        "lon": "130.883322"
    },
    {
        "id": "37",
        "type": "医療法人",
        "name": "朝倉健生病院",
        "url": "http://www.a-kensei.jp/",
        "beds": "150",
        "address": "朝倉市甘木151-4",
        "tel": "0946-22-5511",
        "lat": "33.415465",
        "lon": "130.662188"
    },
    {
        "id": "38",
        "type": "医療法人",
        "name": "大牟田共立病院",
        "url": "http://www.omutakyoritsu.com",
        "beds": "102",
        "address": "大牟田市明治町3-7-5",
        "tel": "0944-53-5461",
        "lat": "33.04117",
        "lon": "130.44658"
    },
    {
        "id": "39",
        "type": "医療法人",
        "name": "貝塚病院",
        "url": "http://www.kaizuka-hosp.or.jp",
        "beds": "199",
        "address": "福岡市東区箱崎7-7-27",
        "tel": "092-632-3333",
        "lat": "33.635938",
        "lon": "130.424959"
    },
    {
        "id": "40",
        "type": "医療法人",
        "name": "河野病院",
        "url": "http://www.kawano-hp.com",
        "beds": "140",
        "address": "糟屋郡篠栗町大字尾仲139",
        "tel": "092-947-0611",
        "lat": "33.62102",
        "lon": "130.520246"
    },
    {
        "id": "41",
        "type": "医療法人",
        "name": "楠病院",
        "url": "http://www.kusu.or.jp/",
        "beds": "48",
        "address": "久留米市日吉町115",
        "tel": "0942-35-2725",
        "lat": "33.315657",
        "lon": "130.516331"
    },
    {
        "id": "42",
        "type": "医療法人",
        "name": "小倉蒲生病院",
        "url": "http://www.kokura-gamou.jp",
        "beds": "254",
        "address": "北九州市小倉南区蒲生5-5-1",
        "tel": "093-961-3238",
        "lat": "33.838083",
        "lon": "130.860168"
    },
    {
        "id": "43",
        "type": "医療法人",
        "name": "小倉第一病院",
        "url": "http://www.kdh.gr.jp",
        "beds": "80",
        "address": "北九州市小倉北区真鶴2-5-12",
        "tel": "093-582-7730",
        "lat": "33.872388",
        "lon": "130.855144"
    },
    {
        "id": "44",
        "type": "医療法人",
        "name": "米の山病院",
        "url": "http://www.kome-net.or.jp/",
        "beds": "219",
        "address": "大牟田市大字歴木4-10",
        "tel": "0944-51-3311",
        "lat": "33.036171",
        "lon": "130.482048"
    },
    {
        "id": "45",
        "type": "医療法人",
        "name": "さく病院",
        "url": "http://www.saku.or.jp",
        "beds": "172",
        "address": "福岡市博多区竹下4-6-25",
        "tel": "092-471-1139",
        "lat": "33.569265",
        "lon": "130.432522"
    },
    {
        "id": "46",
        "type": "医療法人",
        "name": "さくら病院",
        "url": "http://www.sakurahp.or.jp/",
        "beds": "152",
        "address": "福岡市城南区南片江6-2-32",
        "tel": "092-864-1212",
        "lat": "33.545393",
        "lon": "130.369883"
    },
    {
        "id": "47",
        "type": "医療法人",
        "name": "佐田病院",
        "url": "http://www.sada.or.jp/",
        "beds": "180",
        "address": "福岡市中央区渡辺通2-4-28",
        "tel": "092-781-6381",
        "lat": "33.58228",
        "lon": "130.403133"
    },
    {
        "id": "48",
        "type": "医療法人",
        "name": "嶋田病院",
        "url": "www.shimadahp.jp",
        "beds": "150",
        "address": "小郡市小郡217-1",
        "tel": "0942-72-2054",
        "lat": "33.396045",
        "lon": "130.553936"
    },
    {
        "id": "49",
        "type": "医療法人",
        "name": "昭和病院",
        "url": "http://www.tomogiku.or.jp",
        "beds": "84",
        "address": "福岡市西区大字徳永字大町911-1",
        "tel": "092-807-8811",
        "lat": "33.58065",
        "lon": "130.256343"
    },
    {
        "id": "50",
        "type": "医療法人",
        "name": "高木病院",
        "url": "http://takagi.kouhoukai.or.jp/",
        "beds": "506",
        "address": "大川市酒見141-11",
        "tel": "0944-87-0001",
        "lat": "33.206721",
        "lon": "130.379864"
    },
    {
        "id": "51",
        "type": "医療法人",
        "name": "田主丸中央病院",
        "url": "http://www.seihoukai.or.jp",
        "beds": "343",
        "address": "久留米市田主丸町益生田892",
        "tel": "0943-72-2460",
        "lat": "33.336919",
        "lon": "130.689323"
    },
    {
        "id": "52",
        "type": "医療法人",
        "name": "西福岡病院",
        "url": "http://www.nishifukuhp.or.jp",
        "beds": "248",
        "address": "福岡市西区生の松原3-18-8",
        "tel": "092-881-1331",
        "lat": "33.577107",
        "lon": "130.296908"
    },
    {
        "id": "53",
        "type": "医療法人",
        "name": "萩原中央病院",
        "url": "http://www.hagiwara.or.jp/",
        "beds": "120",
        "address": "北九州市八幡西区萩原1-10-1",
        "tel": "093-631-7511",
        "lat": "33.860389",
        "lon": "130.748098"
    },
    {
        "id": "54",
        "type": "医療法人",
        "name": "浜田病院",
        "url": "http://hamada-hp.net/",
        "beds": "84",
        "address": "北九州市八幡西区黒崎3-8-7",
        "tel": "093-621-0198",
        "lat": "33.865714",
        "lon": "130.764494"
    },
    {
        "id": "55",
        "type": "医療法人",
        "name": "原口病院循環器科内科",
        "url": "http://www.haraguchi-hospital.or.jp",
        "beds": "48",
        "address": "福岡市早良区小田部6-11-15",
        "tel": "092-822-0112",
        "lat": "33.57051",
        "lon": "130.328165"
    },
    {
        "id": "56",
        "type": "医療法人",
        "name": "原三信病院",
        "url": "http://www.harasanshin.or.jp/",
        "beds": "359",
        "address": "福岡市博多区大博町1-8",
        "tel": "092-291-3434",
        "lat": "33.601752",
        "lon": "130.40526"
    },
    {
        "id": "57",
        "type": "医療法人",
        "name": "福岡山王病院",
        "url": "http://f-sanno.kouhoukai.or.jp/",
        "beds": "199",
        "address": "福岡市早良区百道浜3-6-45",
        "tel": "092-832-1100",
        "lat": "33.590964",
        "lon": "130.35015"
    },
    {
        "id": "58",
        "type": "医療法人",
        "name": "福岡整形外科病院",
        "url": "http://www.fukuokaseikei.com",
        "beds": "175",
        "address": "福岡市南区柳河内2-10-50",
        "tel": "092-512-1581",
        "lat": "33.548919",
        "lon": "130.405067"
    },
    {
        "id": "59",
        "type": "医療法人",
        "name": "福岡徳洲会病院",
        "url": "http://www.f-toku.jp/",
        "beds": "602",
        "address": "春日市須玖北4-5",
        "tel": "092-573-6622",
        "lat": "33.543772",
        "lon": "130.447182"
    },
    {
        "id": "60",
        "type": "医療法人",
        "name": "福岡脳神経外科病院",
        "url": "http://www.fukuokanh.jp",
        "beds": "60",
        "address": "福岡市南区日佐5-3-15",
        "tel": "092-558-0081",
        "lat": "33.536711",
        "lon": "130.430854"
    },
    {
        "id": "61",
        "type": "医療法人",
        "name": "福岡みらい病院",
        "url": "http://www.fukuoka-mirai.jp/",
        "beds": "338",
        "address": "福岡市東区香椎照葉3-5-1",
        "tel": "092-662-3001",
        "lat": "33.660671",
        "lon": "130.4183"
    },
    {
        "id": "62",
        "type": "医療法人",
        "name": "福間病院",
        "url": "http://www.fukuma-hp.or.jp",
        "beds": "500",
        "address": "福津市花見が浜1-5-1",
        "tel": "0940-42-0145",
        "lat": "33.761435",
        "lon": "130.47256"
    },
    {
        "id": "63",
        "type": "医療法人",
        "name": "耳納高原病院",
        "url": "http://www.minou-hp.jp/",
        "beds": "160",
        "address": "八女市星野村7277-7",
        "tel": "0943-52-3135",
        "lat": "33.279798",
        "lon": "130.752515"
    },
    {
        "id": "64",
        "type": "医療法人",
        "name": "宗像水光会総合病院",
        "url": "http://www.suikokai.or.jp/",
        "beds": "300",
        "address": "福津市日蒔野5-7-1",
        "tel": "0940-34-3111",
        "lat": "33.760299",
        "lon": "130.496772"
    },
    {
        "id": "65",
        "type": "医療法人",
        "name": "八木病院",
        "url": "http://www.yagi.or.jp",
        "beds": "127",
        "address": "福岡市東区馬出2-21-25",
        "tel": "092-651-0022",
        "lat": "33.611992",
        "lon": "130.41981"
    },
    {
        "id": "66",
        "type": "医療法人",
        "name": "安本病院",
        "url": "http://www.yasumoto.or.jp",
        "beds": "135",
        "address": "久留米市三潴町玉満2371",
        "tel": "0942-64-2032",
        "lat": "33.247987",
        "lon": "130.460584"
    },
    {
        "id": "67",
        "type": "医療法人",
        "name": "八女リハビリ病院",
        "url": "http://www.ryuuikukai.com/rihabiri/",
        "beds": "190",
        "address": "八女市吉田2220-1",
        "tel": "0943-23-7272",
        "lat": "33.232257",
        "lon": "130.561828"
    },
    {
        "id": "68",
        "type": "特定医療法人",
        "name": "新田原聖母病院",
        "url": "http://www.s-seibo.or.jp",
        "beds": "106",
        "address": "行橋市東徳永382",
        "tel": "0930-23-1006",
        "lat": "33.687063",
        "lon": "131.009503"
    },
    {
        "id": "69",
        "type": "特定医療法人",
        "name": "筑後吉井こころホスピタル",
        "url": "http://www.soujin.or.jp",
        "beds": "180",
        "address": "うきは市吉井町216-2",
        "tel": "0943-75-3165",
        "lat": "33.342085",
        "lon": "130.75277"
    },
    {
        "id": "70",
        "type": "特定医療法人",
        "name": "博愛会病院",
        "url": "http://www.hakuaikai.or.jp/",
        "beds": "145",
        "address": "福岡市中央区笹丘1-28-25",
        "tel": "092-741-2626",
        "lat": "33.563748",
        "lon": "130.377793"
    },
    {
        "id": "71",
        "type": "特定医療法人",
        "name": "福西会病院",
        "url": "http://fukuseikai-hp.com/",
        "beds": "198",
        "address": "福岡市早良区野芥1-2-36",
        "tel": "092-861-2780",
        "lat": "33.548185",
        "lon": "130.348161"
    },
    {
        "id": "72",
        "type": "社会医療法人",
        "name": "香椎丘リハビリテーション病院",
        "url": "http://www.kashii-rh.net",
        "beds": "120",
        "address": "福岡市東区下原2-24-36",
        "tel": "092-662-3200",
        "lat": "33.670808",
        "lon": "130.460106"
    },
    {
        "id": "73",
        "type": "社会医療法人",
        "name": "北九州総合病院",
        "url": "http://www.kitakyu-hp.or.jp/contents/kitahos_sogo.htm",
        "beds": "360",
        "address": "北九州市小倉北区東城野町1-1",
        "tel": "093-921-0560",
        "lat": "33.858987",
        "lon": "130.888293"
    },
    {
        "id": "74",
        "type": "社会医療法人",
        "name": "くるめ病院",
        "url": "http://www.uproad.ne.jp/kurume/",
        "beds": "85",
        "address": "久留米市新合川2-2-18",
        "tel": "0942-43-5757",
        "lat": "33.31913",
        "lon": "130.539112"
    },
    {
        "id": "75",
        "type": "社会医療法人",
        "name": "古賀病院21",
        "url": "http://www.tenjinkai.or.jp/",
        "beds": "217",
        "address": "久留米市宮ノ陣3-3-8",
        "tel": "0942-38-3333",
        "lat": "33.336155",
        "lon": "130.537433"
    },
    {
        "id": "76",
        "type": "社会医療法人",
        "name": "社会医療法人共愛会 戸畑共立病院",
        "url": "http://www.kyoaikai.com/",
        "beds": "237",
        "address": "北九州市戸畑区沢見2-5-1",
        "tel": "093-871-5421",
        "lat": "33.896365",
        "lon": "130.838113"
    },
    {
        "id": "77",
        "type": "社会医療法人",
        "name": "新古賀病院",
        "url": "http://www.tenjinkai.or.jp/",
        "beds": "242",
        "address": "久留米市天神町120番地",
        "tel": "0942-38-2222",
        "lat": "33.309975",
        "lon": "130.520576"
    },
    {
        "id": "78",
        "type": "社会医療法人",
        "name": "新小文字病院",
        "url": "http://www.shinkomonji-hp.jp/",
        "beds": "214",
        "address": "北九州市門司区大里新町2-5",
        "tel": "093-391-1001",
        "lat": "33.897152",
        "lon": "130.92601"
    },
    {
        "id": "79",
        "type": "社会医療法人",
        "name": "新行橋病院",
        "url": "http://www.shinyukuhashihospital.or.jp/",
        "beds": "246",
        "address": "行橋市道場寺1411番地",
        "tel": "0930-24-8899",
        "lat": "33.693531",
        "lon": "131.012054"
    },
    {
        "id": "80",
        "type": "社会医療法人",
        "name": "製鉄記念八幡病院",
        "url": "http://www.ns.yawata-mhp.or.jp",
        "beds": "453",
        "address": "北九州市八幡東区春の町1-1-1",
        "tel": "093-672-3176",
        "lat": "33.86565",
        "lon": "130.807056"
    },
    {
        "id": "81",
        "type": "社会医療法人",
        "name": "聖マリア病院",
        "url": "http://www.st-mary-med.or.jp",
        "beds": "1097",
        "address": "久留米市津福本町422",
        "tel": "0942-35-3322",
        "lat": "33.305486",
        "lon": "130.508522"
    },
    {
        "id": "82",
        "type": "社会医療法人",
        "name": "聖マリアヘルスケアセンター",
        "url": "http://www.st-mary-health.jp/",
        "beds": "198",
        "address": "久留米市津福本町448-5",
        "tel": "0942-35-5522",
        "lat": "33.3025",
        "lon": "130.509767"
    },
    {
        "id": "83",
        "type": "社会医療法人",
        "name": "戸畑リハビリテーション病院",
        "url": "http://www.kyoaikai.com/",
        "beds": "154",
        "address": "北九州市戸畑区小芝2-4-31",
        "tel": "093-861-1500",
        "lat": "33.894695",
        "lon": "130.836242"
    },
    {
        "id": "84",
        "type": "社会医療法人",
        "name": "原土井病院",
        "url": "http://www.haradoi-hospital.com/",
        "beds": "556",
        "address": "福岡市東区青葉6-40-8",
        "tel": "092-691-3881",
        "lat": "33.644895",
        "lon": "130.468601"
    },
    {
        "id": "85",
        "type": "社会医療法人",
        "name": "福岡記念病院",
        "url": "http://www.kinen.jp",
        "beds": "239",
        "address": "福岡市早良区西新1-1-35",
        "tel": "092-821-4731",
        "lat": "33.585133",
        "lon": "130.362712"
    },
    {
        "id": "86",
        "type": "社会医療法人",
        "name": "福岡新水巻病院",
        "url": "http://www.f-shinmizumaki.jp/",
        "beds": "227",
        "address": "遠賀郡水巻町立屋敷1-2-1",
        "tel": "093-203-2220",
        "lat": "33.852241",
        "lon": "130.688522"
    },
    {
        "id": "87",
        "type": "社会医療法人",
        "name": "福岡青洲会病院",
        "url": "http://www.seisyukai.jp/",
        "beds": "213",
        "address": "糟屋郡粕屋町長者原西4-11-8",
        "tel": "092-939-0010",
        "lat": "33.620174",
        "lon": "130.462534"
    },
    {
        "id": "88",
        "type": "社会医療法人",
        "name": "福岡和白病院",
        "url": "http://www.f-wajirohp.jp/",
        "beds": "367",
        "address": "福岡市東区和白丘2-2-75",
        "tel": "092-608-0001",
        "lat": "33.692378",
        "lon": "130.433346"
    },
    {
        "id": "89",
        "type": "社会医療法人",
        "name": "ヨコクラ病院",
        "url": "http://www.yokokura.jp/",
        "beds": "199",
        "address": "みやま市高田町濃施480番地2",
        "tel": "0944-22-5811",
        "lat": "33.101073",
        "lon": "130.456762"
    },
    {
        "id": "90",
        "type": "私立学校法人",
        "name": "久留米大学病院",
        "url": "http://www.hosp.kurume-u.ac.jp",
        "beds": "1018",
        "address": "久留米市旭町67",
        "tel": "0942-35-3311",
        "lat": "33.328641",
        "lon": "130.511408"
    },
    {
        "id": "91",
        "type": "私立学校法人",
        "name": "産業医科大学病院",
        "url": "http://www.uoeh-u.ac.jp/hospital.html",
        "beds": "678",
        "address": "北九州市八幡西区医生ヶ丘1-1",
        "tel": "093-603-1611",
        "lat": "33.876962",
        "lon": "130.712213"
    },
    {
        "id": "92",
        "type": "私立学校法人",
        "name": "福岡大学病院",
        "url": "http://www.hop.fukuoka-u.ac.jp",
        "beds": "915",
        "address": "福岡市城南区七隈7-45-1",
        "tel": "092-801-1011",
        "lat": "33.547727",
        "lon": "130.359769"
    },
    {
        "id": "93",
        "type": "社会福祉法人",
        "name": "新栄会病院",
        "url": "http://www.shin-eikai.com",
        "beds": "105",
        "address": "北九州市小倉北区弁天町12-11",
        "tel": "093-571-0086",
        "lat": "33.869712",
        "lon": "130.863147"
    },
    {
        "id": "94",
        "type": "会社",
        "name": "飯塚病院",
        "url": "http://aih-net.com",
        "beds": "1048",
        "address": "飯塚市芳雄町3-83",
        "tel": "0948-22-3800",
        "lat": "33.642334",
        "lon": "130.691278"
    },
    {
        "id": "95",
        "type": "その他法人",
        "name": "朝倉医師会病院",
        "url": "http://www.asakura-med.or.jp/hospital/",
        "beds": "300",
        "address": "朝倉市来春422-1",
        "tel": "0946-23-0077",
        "lat": "33.411222",
        "lon": "130.666248"
    },
    {
        "id": "96",
        "type": "その他法人",
        "name": "糸島医師会病院",
        "url": "http://itomedhp.jp/",
        "beds": "150",
        "address": "糸島市浦志532-1",
        "tel": "092-322-3631",
        "lat": "33.567571",
        "lon": "130.203356"
    },
    {
        "id": "97",
        "type": "その他法人",
        "name": "遠賀中間医師会おんが病院",
        "url": "http://www.onga-hp.jp/",
        "beds": "100",
        "address": "遠賀郡遠賀町大字尾崎1725-2",
        "tel": "093-281-2810",
        "lat": "33.85221",
        "lon": "130.639841"
    },
    {
        "id": "98",
        "type": "その他法人",
        "name": "小倉記念病院",
        "url": "http://www.kokurakinen.or.jp/",
        "beds": "656",
        "address": "北九州市小倉北区浅野3-2-1",
        "tel": "093-511-2000",
        "lat": "33.890233",
        "lon": "130.882775"
    },
    {
        "id": "99",
        "type": "その他法人",
        "name": "社会保険　二瀬病院",
        "url": "http://futase-hp.jp",
        "beds": "55",
        "address": "飯塚市伊川1243-1",
        "tel": "0948-22-1526",
        "lat": "33.657791",
        "lon": "130.65491"
    },
    {
        "id": "100",
        "type": "その他法人",
        "name": "社会保険稲築病院",
        "url": "http://www.inatsukihospital.jp",
        "beds": "144",
        "address": "嘉麻市口春744-1",
        "tel": "0948-42-1110",
        "lat": "33.600445",
        "lon": "130.713401"
    },
    {
        "id": "101",
        "type": "その他法人",
        "name": "社会保険大牟田天領病院",
        "url": "http://omutatenryo-hp.jp/",
        "beds": "339",
        "address": "大牟田市天領町1-100",
        "tel": "0944-54-8482",
        "lat": "33.019653",
        "lon": "130.434681"
    },
    {
        "id": "102",
        "type": "その他法人",
        "name": "社会保険大牟田吉野病院",
        "url": "-",
        "beds": "100",
        "address": "大牟田市吉野1063",
        "tel": "0944-58-0051",
        "lat": "33.074327",
        "lon": "130.471822"
    },
    {
        "id": "103",
        "type": "その他法人",
        "name": "社会保険 田川病院",
        "url": "http://www.s-tagawa-hp.tagawa.fukuoka.jp/",
        "beds": "335",
        "address": "田川市上本町10-18",
        "tel": "0947-44-0460",
        "lat": "33.62411",
        "lon": "130.798339"
    },
    {
        "id": "104",
        "type": "その他法人",
        "name": "社会保険 直方病院",
        "url": "http://nogata-hp.jp",
        "beds": "156",
        "address": "直方市須崎町1-1",
        "tel": "0949-22-1215",
        "lat": "33.749301",
        "lon": "130.72552"
    },
    {
        "id": "105",
        "type": "その他法人",
        "name": "宗像医師会病院",
        "url": "http://www.mmah.jp/",
        "beds": "164",
        "address": "宗像市田熊5-5-3",
        "tel": "0940-37-1188",
        "lat": "33.800031",
        "lon": "130.5271"
    },
    {
        "id": "106",
        "type": "その他法人",
        "name": "門司掖済会病院",
        "url": "http://www.ekisaikai-moji.jp",
        "beds": "199",
        "address": "北九州市門司区清滝1-3-1",
        "tel": "093-321-0984",
        "lat": "33.942308",
        "lon": "130.960951"
    },
    {
        "id": "107",
        "type": "その他法人",
        "name": "柳川病院",
        "url": "http://www.yanagawa-hsp.jp/",
        "beds": "150",
        "address": "柳川市筑紫町29",
        "tel": "0944-72-6171",
        "lat": "33.168963",
        "lon": "130.402376"
    }
]