[
    {
        "id": "1",
        "type": "独立行政法人国立病院機構",
        "name": "嬉野医療センター",
        "url": "http://www.uresino.go.jp/",
        "beds": "424",
        "address": "嬉野市嬉野町大字下宿丙2436",
        "tel": "0954-43-1120",
        "lat": "33.098768",
        "lon": "129.978055"
    },
    {
        "id": "2",
        "type": "独立行政法人地域医療機能推進機構",
        "name": "伊万里松浦病院",
        "url": "http://imari.jcho.go.jp/",
        "beds": "112",
        "address": "伊万里市山代町立岩417",
        "tel": "0955-28-3100",
        "lat": "33.334121",
        "lon": "129.791538"
    },
    {
        "id": "3",
        "type": "地方独立行政法人",
        "name": "佐賀県医療センター好生館",
        "url": "http://www.koseikan.jp",
        "beds": "450",
        "address": "佐賀市嘉瀬町中原400",
        "tel": "0952-24-2171",
        "lat": "33.241572",
        "lon": "130.268816"
    },
    {
        "id": "4",
        "type": "日赤",
        "name": "唐津赤十字病院",
        "url": "http://www.karatsu.jrc.or.jp",
        "beds": "304",
        "address": "唐津市和多田2430",
        "tel": "0955-72-5111",
        "lat": "33.434189",
        "lon": "129.974335"
    },
    {
        "id": "5",
        "type": "済生会",
        "name": "済生会唐津病院",
        "url": "http://www.saiseikai-karatsu.com/",
        "beds": "193",
        "address": "唐津市元旗町817",
        "tel": "0955-73-3175",
        "lat": "33.454907",
        "lon": "129.963015"
    },
    {
        "id": "6",
        "type": "医療法人",
        "name": "唐津第一病院",
        "url": "http://karatsu-kaigo.com/karatsu-first-hospital/",
        "beds": "101",
        "address": "唐津市朝日町1071-4",
        "tel": "0955-72-1212",
        "lat": "33.452163",
        "lon": "129.963466"
    },
    {
        "id": "7",
        "type": "社会医療法人",
        "name": "織田病院",
        "url": "http:/www.yuai-hc.jp",
        "beds": "111",
        "address": "鹿島市高津原4306",
        "tel": "0954-63-3275",
        "lat": "33.11136",
        "lon": "130.095522"
    },
    {
        "id": "8",
        "type": "その他法人",
        "name": "唐津東松浦医師会 医療センター",
        "url": "http://www.karatsu.saga.med.or.jp/introduce.html",
        "beds": "50",
        "address": "唐津市千代田町2566-11",
        "tel": "0955-75-5181",
        "lat": "33.448579",
        "lon": "129.974577"
    },
    {
        "id": "9",
        "type": "その他法人",
        "name": "新武雄病院",
        "url": "http://www.shintakeo-hp.or.jp",
        "beds": "195",
        "address": "武雄市武雄町大字富岡12628",
        "tel": "0954-23-3111",
        "lat": "33.197922",
        "lon": "130.035017"
    }
]