[
    {
        "id": "1",
        "type": "独立行政法人国立病院機構",
        "name": "熊本医療センター",
        "url": "https://kumamoto.hosp.go.jp",
        "beds": "550",
        "address": "熊本市中央区二の丸1-5",
        "tel": "096-353-6501",
        "lat": "32.80419",
        "lon": "130.701172"
    },
    {
        "id": "2",
        "type": "独立行政法人国立病院機構",
        "name": "熊本再春医療センター",
        "url": "http://www.k-saisyunsou.jp/",
        "beds": "513",
        "address": "合志市須屋2659",
        "tel": "096-242-1000",
        "lat": "32.879496",
        "lon": "130.751275"
    },
    {
        "id": "3",
        "type": "独立行政法人労働者健康安全機構",
        "name": "熊本労災病院",
        "url": "http://www.kumamotoh.johas.go.jp",
        "beds": "410",
        "address": "八代市竹原町1670",
        "tel": "0965-33-4151",
        "lat": "32.516237",
        "lon": "130.627327"
    },
    {
        "id": "4",
        "type": "独立行政法人地域医療機能推進機構",
        "name": "熊本総合病院",
        "url": "http://kumamoto.jcho.go.jp/",
        "beds": "400",
        "address": "八代市通町10-10",
        "tel": "0965-32-7111",
        "lat": "32.507149",
        "lon": "130.603058"
    },
    {
        "id": "5",
        "type": "独立行政法人地域医療機能推進機構",
        "name": "人吉医療センター",
        "url": "http://www.hitoyoshi.jcho.go.jp/",
        "beds": "252",
        "address": "人吉市老神町35",
        "tel": "0966-22-2191",
        "lat": "32.209331",
        "lon": "130.759138"
    },
    {
        "id": "6",
        "type": "市町村",
        "name": "阿蘇医療センター",
        "url": "http://aso-mc.jp/",
        "beds": "124",
        "address": "阿蘇市黒川1266",
        "tel": "0967-34-0311",
        "lat": "32.935635",
        "lon": "131.071826"
    },
    {
        "id": "7",
        "type": "市町村",
        "name": "荒尾市民病院",
        "url": "http://www.hospital.arao.kumamoto.jp/",
        "beds": "274",
        "address": "荒尾市荒尾2600",
        "tel": "0968-63-1115",
        "lat": "32.975736",
        "lon": "130.4466"
    },
    {
        "id": "8",
        "type": "市町村",
        "name": "球磨郡公立多良木病院",
        "url": "http://www.taragihp.jp",
        "beds": "183",
        "address": "球磨郡多良木町多良木4210",
        "tel": "0966-42-2560",
        "lat": "32.254327",
        "lon": "130.925542"
    },
    {
        "id": "9",
        "type": "市町村",
        "name": "熊本市立熊本市民病院",
        "url": "http://www.cityhosp-kumamoto.jp/",
        "beds": "556",
        "address": "熊本市東区湖東1-1-60",
        "tel": "096-365-1711",
        "lat": "32.781456",
        "lon": "130.745532"
    },
    {
        "id": "10",
        "type": "市町村",
        "name": "国保水俣市立総合医療センター",
        "url": "http://minamata-hp.jp/",
        "beds": "361",
        "address": "水俣市天神町1-2-1",
        "tel": "0966-63-2101",
        "lat": "32.209979",
        "lon": "130.405839"
    },
    {
        "id": "11",
        "type": "市町村",
        "name": "山鹿市民医療センター",
        "url": "http://yamaga-medical-center.jp/",
        "beds": "201",
        "address": "山鹿市山鹿511",
        "tel": "0968-44-2185",
        "lat": "33.014948",
        "lon": "130.698269"
    },
    {
        "id": "12",
        "type": "地方独立行政法人",
        "name": "公立玉名中央病院",
        "url": "http://www.tamana-chp.jp/",
        "beds": "302",
        "address": "玉名市中1950",
        "tel": "0968-73-5000",
        "lat": "32.932187",
        "lon": "130.549561"
    },
    {
        "id": "13",
        "type": "日赤",
        "name": "熊本赤十字病院",
        "url": "http://www.kumamoto-med.jrc.or.jp/",
        "beds": "490",
        "address": "熊本市東区長嶺南2-1-1",
        "tel": "096-384-2111",
        "lat": "32.808161",
        "lon": "130.763364"
    },
    {
        "id": "14",
        "type": "済生会",
        "name": "済生会熊本病院",
        "url": "http://www.sk-kumamoto.jp/",
        "beds": "400",
        "address": "熊本市南区近見5-3-1",
        "tel": "096-351-8000",
        "lat": "32.76581",
        "lon": "130.700855"
    },
    {
        "id": "15",
        "type": "済生会",
        "name": "済生会みすみ病院",
        "url": "https://www.sk-misumi.jp/",
        "beds": "128",
        "address": "宇城市三角町波多775-1",
        "tel": "0964-53-1611",
        "lat": "32.613049",
        "lon": "130.48212"
    },
    {
        "id": "16",
        "type": "共済組合及び連合会",
        "name": "熊本中央病院",
        "url": "http://www.kumachu.gr.jp/",
        "beds": "361",
        "address": "熊本市南区田井島1-5-1",
        "tel": "096-370-3111",
        "lat": "32.770337",
        "lon": "130.724779"
    },
    {
        "id": "17",
        "type": "医療法人",
        "name": "朝日野総合病院",
        "url": "http://www.asahino.or.jp/",
        "beds": "378",
        "address": "熊本市北区室園町12-10",
        "tel": "096-344-3000",
        "lat": "32.823336",
        "lon": "130.724725"
    },
    {
        "id": "18",
        "type": "医療法人",
        "name": "東病院",
        "url": "http://www.touyoukai.jp/",
        "beds": "63",
        "address": "熊本市南区出仲間5-2-2",
        "tel": "096-378-2222",
        "lat": "32.769703",
        "lon": "130.716428"
    },
    {
        "id": "19",
        "type": "医療法人",
        "name": "天草第一病院",
        "url": "http://www.eijukai-amakusa.com/",
        "beds": "128",
        "address": "天草市今釜新町3413-6",
        "tel": "0969-24-3777",
        "lat": "32.459842",
        "lon": "130.194297"
    },
    {
        "id": "20",
        "type": "医療法人",
        "name": "荒尾中央病院",
        "url": "http://www.senshinkai.or.jp/chuoh/",
        "beds": "298",
        "address": "荒尾市増永1544-1",
        "tel": "0968-64-1333",
        "lat": "32.973083",
        "lon": "130.440889"
    },
    {
        "id": "21",
        "type": "医療法人",
        "name": "伊井産婦人科病院",
        "url": "http://www.ii-sanfujinka.com",
        "beds": "47",
        "address": "熊本市中央区大江本町8-15",
        "tel": "096-364-4003",
        "lat": "32.794707",
        "lon": "130.723037"
    },
    {
        "id": "22",
        "type": "医療法人",
        "name": "表参道吉田病院",
        "url": "http://www.kiseikai.or.jp",
        "beds": "126",
        "address": "熊本市中央区北千反畑町2-5",
        "tel": "096-343-6161",
        "lat": "32.809015",
        "lon": "130.716028"
    },
    {
        "id": "23",
        "type": "医療法人",
        "name": "菊池中央病院",
        "url": "http://www.nobuokakai.ecnet.jp",
        "beds": "144",
        "address": "菊池市隈府494",
        "tel": "0968-25-3141",
        "lat": "32.979629",
        "lon": "130.806921"
    },
    {
        "id": "24",
        "type": "医療法人",
        "name": "熊本回生会病院",
        "url": "http://www.reha-kaiseikai.or.jp",
        "beds": "161",
        "address": "上益城郡嘉島町鯰1880",
        "tel": "096-237-1133",
        "lat": "32.747183",
        "lon": "130.73755"
    },
    {
        "id": "25",
        "type": "医療法人",
        "name": "熊本機能病院",
        "url": "http://www.juryo.or.jp",
        "beds": "395",
        "address": "熊本市北区山室6-8-1",
        "tel": "096-345-8111",
        "lat": "32.846842",
        "lon": "130.718351"
    },
    {
        "id": "26",
        "type": "医療法人",
        "name": "くまもと森都総合病院",
        "url": "http://www.k-shinto.or.jp",
        "beds": "199",
        "address": "熊本市中央区大江三丁目2-65",
        "tel": "096-364-6000",
        "lat": "32.802586",
        "lon": "130.723788"
    },
    {
        "id": "27",
        "type": "医療法人",
        "name": "熊本セントラル病院",
        "url": "http://www.kchosp.or.jp/",
        "beds": "308",
        "address": "菊地郡大津町室955",
        "tel": "096-293-0555",
        "lat": "32.876113",
        "lon": "130.853366"
    },
    {
        "id": "28",
        "type": "医療法人",
        "name": "桜十字病院",
        "url": "https://sakurajyuji.or.jp",
        "beds": "641",
        "address": "熊本市南区御幸木部1-1-1",
        "tel": "096-378-1111",
        "lat": "32.750517",
        "lon": "130.713566"
    },
    {
        "id": "29",
        "type": "医療法人",
        "name": "慈恵病院",
        "url": "http://jikei-hp.or.jp/",
        "beds": "98",
        "address": "熊本市西区島崎6-1-27",
        "tel": "096-355-6131",
        "lat": "32.812327",
        "lon": "130.688992"
    },
    {
        "id": "30",
        "type": "医療法人",
        "name": "杉村病院",
        "url": "http://sugimurakai.jp/",
        "beds": "177",
        "address": "熊本市中央区本荘3-7-18",
        "tel": "096-372-3322",
        "lat": "32.794562",
        "lon": "130.708708"
    },
    {
        "id": "31",
        "type": "医療法人",
        "name": "青磁野リハビリテーション病院",
        "url": "http://www.seijino.or.jp/",
        "beds": "232",
        "address": "熊本市西区島崎2-22-15",
        "tel": "096-354-1731",
        "lat": "32.807875",
        "lon": "130.691704"
    },
    {
        "id": "32",
        "type": "医療法人",
        "name": "成尾整形外科病院",
        "url": "http://www.naruoseikei.com",
        "beds": "103",
        "address": "熊本市中央区岡田町12-24",
        "tel": "096-371-1188",
        "lat": "32.791905",
        "lon": "130.721056"
    },
    {
        "id": "33",
        "type": "医療法人",
        "name": "にしくまもと病院",
        "url": "http://www.nishikuma.com",
        "beds": "146",
        "address": "熊本市南区富合町古閑1012",
        "tel": "096-358-1118",
        "lat": "32.709363",
        "lon": "130.675949"
    },
    {
        "id": "34",
        "type": "医療法人",
        "name": "西日本病院",
        "url": "http://www.nishinihon.or.jp/",
        "beds": "399",
        "address": "熊本市東区八反田3-20-1",
        "tel": "096-380-1111",
        "lat": "32.821244",
        "lon": "130.770701"
    },
    {
        "id": "35",
        "type": "医療法人",
        "name": "比企病院",
        "url": "",
        "beds": "44",
        "address": "熊本市東区尾ノ上3-1-34",
        "tel": "096-381-5151",
        "lat": "32.795737",
        "lon": "130.754023"
    },
    {
        "id": "36",
        "type": "医療法人",
        "name": "御幸病院",
        "url": "http://www.miyukinosato.or.jp",
        "beds": "186",
        "address": "熊本市南区御幸笛田6-7-40",
        "tel": "096-378-1166",
        "lat": "32.758987",
        "lon": "130.71093"
    },
    {
        "id": "37",
        "type": "医療法人",
        "name": "武蔵ヶ丘病院",
        "url": "http://www.tanakakai.com/",
        "beds": "145",
        "address": "熊本市北区楠7-15-1",
        "tel": "096-339-1161",
        "lat": "32.846076",
        "lon": "130.762566"
    },
    {
        "id": "38",
        "type": "医療法人",
        "name": "矢部広域病院",
        "url": "http://www.yabekouiki.or.jp/",
        "beds": "85",
        "address": "上益城郡山都町下馬尾204",
        "tel": "0967-72-1121",
        "lat": "32.684801",
        "lon": "130.984579"
    },
    {
        "id": "39",
        "type": "医療法人",
        "name": "悠紀会病院",
        "url": "http://www.yukikai.or.jp",
        "beds": "139",
        "address": "玉名市上小田1063",
        "tel": "0968-74-1131",
        "lat": "32.951783",
        "lon": "130.586837"
    },
    {
        "id": "40",
        "type": "特定医療法人",
        "name": "熊本第一病院",
        "url": "http://vansay.jp/kumamoto/",
        "beds": "125",
        "address": "熊本市南区田迎町田井島224",
        "tel": "096-370-7333",
        "lat": "32.767687",
        "lon": "130.725888"
    },
    {
        "id": "41",
        "type": "特定医療法人",
        "name": "谷田病院",
        "url": "http://www.yatsuda-kai.jp",
        "beds": "99",
        "address": "上益城郡甲佐町岩下123",
        "tel": "096-234-1248",
        "lat": "32.650937",
        "lon": "130.810163"
    },
    {
        "id": "42",
        "type": "社会医療法人",
        "name": "宇城総合病院",
        "url": "http://reimeikai.jp/",
        "beds": "204",
        "address": "宇城市松橋町久具691",
        "tel": "0964-32-3111",
        "lat": "32.650778",
        "lon": "130.696367"
    },
    {
        "id": "43",
        "type": "社会医療法人",
        "name": "熊本整形外科病院",
        "url": "http://www.marutakai.or.jp",
        "beds": "204",
        "address": "熊本市中央区九品寺1-15-7",
        "tel": "096-366-3666",
        "lat": "32.797383",
        "lon": "130.715063"
    },
    {
        "id": "44",
        "type": "社会医療法人",
        "name": "熊本リハビリテーション病院",
        "url": "http://www.marutakai.or.jp/",
        "beds": "225",
        "address": "菊池郡菊陽町曲手760",
        "tel": "096-232-3111",
        "lat": "32.840332",
        "lon": "130.835306"
    },
    {
        "id": "45",
        "type": "社会医療法人",
        "name": "大腸肛門病センター高野病院",
        "url": "http://www.takano-hospital.jp",
        "beds": "166",
        "address": "熊本市中央区大江3-2-55",
        "tel": "096-320-6500",
        "lat": "32.802608",
        "lon": "130.724859"
    },
    {
        "id": "46",
        "type": "社会医療法人",
        "name": "益城病院",
        "url": "http://www.mashiki.jp/",
        "beds": "210",
        "address": "上益城郡益城町馬水123番地",
        "tel": "096-286-3611",
        "lat": "32.789518",
        "lon": "130.800667"
    },
    {
        "id": "47",
        "type": "その他法人",
        "name": "天草地域医療センター",
        "url": "http://www.amed.jp/mc/index.php",
        "beds": "210",
        "address": "天草市亀場町食場854-1",
        "tel": "0969-24-4111",
        "lat": "32.433256",
        "lon": "130.180058"
    }
]