[
    {
        "id": "1",
        "type": "独立行政法人国立病院機構",
        "name": "別府医療センター",
        "url": "https://beppu.hosp.go.jp",
        "beds": "500",
        "address": "別府市大字内竃1473",
        "tel": "0977-67-1111",
        "lat": "33.331879",
        "lon": "131.485282"
    },
    {
        "id": "2",
        "type": "独立行政法人地域医療機能推進機構",
        "name": "湯布院病院",
        "url": "https://yufuin.jcho.go.jp",
        "beds": "199",
        "address": "由布市湯布院町川南252",
        "tel": "0977-84-3171",
        "lat": "33.256863",
        "lon": "131.362724"
    },
    {
        "id": "3",
        "type": "都道府県",
        "name": "大分県立病院",
        "url": "http://hospital.pref.oita.jp/",
        "beds": "578",
        "address": "大分市大字豊饒476",
        "tel": "097-546-7111",
        "lat": "33.206713",
        "lon": "131.598594"
    },
    {
        "id": "4",
        "type": "市町村",
        "name": "豊後大野市民病院",
        "url": "http://www.bungo-ohno-hp.jp/",
        "beds": "199",
        "address": "豊後大野市緒方町馬場276",
        "tel": "0974-42-3121",
        "lat": "32.970082",
        "lon": "131.475132"
    },
    {
        "id": "5",
        "type": "日赤",
        "name": "大分赤十字病院",
        "url": "http://www.oitasekijyuji.jp",
        "beds": "340",
        "address": "大分市千代町3-2-37",
        "tel": "097-532-6181",
        "lat": "33.243832",
        "lon": "131.604378"
    },
    {
        "id": "6",
        "type": "済生会",
        "name": "大分県済生会日田病院",
        "url": "http://saiseikai.hita.oita.jp/",
        "beds": "199",
        "address": "日田市大字三和643-7",
        "tel": "0973-24-1100",
        "lat": "33.345122",
        "lon": "130.940425"
    },
    {
        "id": "7",
        "type": "厚生連",
        "name": "大分県厚生連鶴見病院",
        "url": "http://www.ok-tsurumi.com",
        "beds": "230",
        "address": "別府市大字鶴見4333",
        "tel": "0977-23-7111",
        "lat": "33.297488",
        "lon": "131.489246"
    },
    {
        "id": "8",
        "type": "共済組合及び連合会",
        "name": "新別府病院",
        "url": "http://www.shinbeppu-hosp.jp/",
        "beds": "269",
        "address": "別府市大字鶴見3898",
        "tel": "0977-22-0391",
        "lat": "33.299301",
        "lon": "131.476823"
    },
    {
        "id": "9",
        "type": "医療法人",
        "name": "井野辺病院",
        "url": "http://www.inobe.or.jp/",
        "beds": "112",
        "address": "大分市大字中尾255",
        "tel": "097-586-5522",
        "lat": "33.208558",
        "lon": "131.550465"
    },
    {
        "id": "10",
        "type": "医療法人",
        "name": "大分記念病院",
        "url": "http://oitamh.jp",
        "beds": "118",
        "address": "大分市羽屋9組5",
        "tel": "097-543-5005",
        "lat": "33.210116",
        "lon": "131.600639"
    },
    {
        "id": "11",
        "type": "医療法人",
        "name": "野口病院",
        "url": "http://www.noguchi-med.or.jp/",
        "beds": "120",
        "address": "別府市青山町7-52",
        "tel": "0977-21-2151",
        "lat": "33.279719",
        "lon": "131.49246"
    },
    {
        "id": "12",
        "type": "特定医療法人",
        "name": "黒木記念病院",
        "url": "http://www.kuroki-hp.or.jp",
        "beds": "226",
        "address": "別府市照波園町14-28",
        "tel": "0977-67-1211",
        "lat": "33.319537",
        "lon": "131.497318"
    },
    {
        "id": "13",
        "type": "社会医療法人",
        "name": "大分岡病院",
        "url": "http://www.oka-hp.com/",
        "beds": "224",
        "address": "大分市西鶴崎3-7-11",
        "tel": "097-522-3533",
        "lat": "33.240177",
        "lon": "131.686014"
    },
    {
        "id": "14",
        "type": "社会医療法人",
        "name": "大久保病院",
        "url": "http://www.okubo-hp.com/",
        "beds": "136",
        "address": "竹田市久住町大字栢木6026-2",
        "tel": "0974-64-7777",
        "lat": "33.05751",
        "lon": "131.332119"
    },
    {
        "id": "15",
        "type": "社会医療法人",
        "name": "天心堂へつぎ病院",
        "url": "http://www.tenshindo.org/",
        "beds": "188",
        "address": "大分市中戸次二本木5956",
        "tel": "097-597-4535",
        "lat": "33.158218",
        "lon": "131.656917"
    },
    {
        "id": "16",
        "type": "その他法人",
        "name": "アルメイダ病院",
        "url": "http://www.almeida-hospital.com",
        "beds": "406",
        "address": "大分市大字宮崎1509-2",
        "tel": "097-569-3121",
        "lat": "33.192881",
        "lon": "131.610083"
    },
    {
        "id": "17",
        "type": "その他法人",
        "name": "津久見市医師会立　津久見中央病院",
        "url": "http://tsukumi.oita.med.or.jp",
        "beds": "120",
        "address": "津久見市大字千怒6011",
        "tel": "0972-82-1123",
        "lat": "33.07212",
        "lon": "131.887776"
    }
]