[
    {
        "id": "1",
        "type": "独立行政法人国立病院機構",
        "name": "指宿医療センター",
        "url": "https://ibusuki.hosp.go.jp/",
        "beds": "199",
        "address": "指宿市十二町4145",
        "tel": "0993-22-2231",
        "lat": "31.221424",
        "lon": "130.645143"
    },
    {
        "id": "2",
        "type": "独立行政法人国立病院機構",
        "name": "鹿児島医療センター",
        "url": "http://kagomc.jp/",
        "beds": "370",
        "address": "鹿児島市城山町8-1",
        "tel": "099-223-1151",
        "lat": "31.600598",
        "lon": "130.555763"
    },
    {
        "id": "3",
        "type": "独立行政法人国立病院機構",
        "name": "南九州病院",
        "url": "http://minamikyusyu.hosp.go.jp",
        "beds": "445",
        "address": "姶良市加治木町木田1882",
        "tel": "0995-62-2121",
        "lat": "31.730708",
        "lon": "130.64454"
    },
    {
        "id": "4",
        "type": "市町村",
        "name": "鹿児島市立病院",
        "url": "http://www.kch.kagoshima.jp/",
        "beds": "574",
        "address": "鹿児島市上荒田町37-1",
        "tel": "099-230-7000",
        "lat": "31.574041",
        "lon": "130.542028"
    },
    {
        "id": "5",
        "type": "日赤",
        "name": "鹿児島赤十字病院",
        "url": "http://www.kagoshima-med.jrc.or.jp",
        "beds": "120",
        "address": "鹿児島市平川町2545",
        "tel": "099-261-2111",
        "lat": "31.46011",
        "lon": "130.513231"
    },
    {
        "id": "6",
        "type": "済生会",
        "name": "済生会鹿児島病院",
        "url": "http://www.saiseikai-kagoshima.jp",
        "beds": "70",
        "address": "鹿児島市南林寺町1-11",
        "tel": "099-223-0101",
        "lat": "31.584819",
        "lon": "130.557965"
    },
    {
        "id": "7",
        "type": "済生会",
        "name": "済生会川内病院",
        "url": "http://www.saiseikai-sendai.jp/",
        "beds": "244",
        "address": "薩摩川内市原田町2-46",
        "tel": "0996-23-5221",
        "lat": "31.827283",
        "lon": "130.305875"
    },
    {
        "id": "8",
        "type": "公益法人",
        "name": "いづろ今村病院",
        "url": "http://www.jiaikai.or.jp/idzuro-imamura/",
        "beds": "145",
        "address": "鹿児島市堀江町17-1",
        "tel": "0992-26-2600",
        "lat": "31.591156",
        "lon": "130.559992"
    },
    {
        "id": "9",
        "type": "公益法人",
        "name": "今村総合病院",
        "url": "http://www.jiaikai.or.jp",
        "beds": "376",
        "address": "鹿児島市鴨池新町11-23",
        "tel": "099-251-2221",
        "lat": "31.556862",
        "lon": "130.55786"
    },
    {
        "id": "10",
        "type": "公益法人",
        "name": "大島郡医師会病院",
        "url": "http://hp.oshima-med.or.jp/",
        "beds": "188",
        "address": "奄美市名瀬小宿字苗代田3411",
        "tel": "0997-54-8111",
        "lat": "28.386424",
        "lon": "129.474395"
    },
    {
        "id": "11",
        "type": "公益法人",
        "name": "鹿児島市医師会病院",
        "url": "http://www.city.kagoshima.med.or.jp/kasiihp/",
        "beds": "199",
        "address": "鹿児島市鴨池新町7-1",
        "tel": "099-254-1125",
        "lat": "31.559992",
        "lon": "130.556367"
    },
    {
        "id": "12",
        "type": "公益法人",
        "name": "川内市医師会立市民病院",
        "url": "http://sendaihp.jp/",
        "beds": "224",
        "address": "薩摩川内市永利町4107-7",
        "tel": "0996-22-1111",
        "lat": "31.797763",
        "lon": "130.34928"
    },
    {
        "id": "13",
        "type": "公益法人",
        "name": "曽於医師会立病院",
        "url": "http://www.soo-hp.com",
        "beds": "198",
        "address": "曽於市大隅町月野894",
        "tel": "099-482-4888",
        "lat": "31.570099",
        "lon": "131.033623"
    },
    {
        "id": "14",
        "type": "公益法人",
        "name": "南風病院",
        "url": "http://www.nanpuh.or.jp/",
        "beds": "338",
        "address": "鹿児島市長田町14-3",
        "tel": "099-226-9111",
        "lat": "31.604091",
        "lon": "130.557251"
    },
    {
        "id": "15",
        "type": "医療法人",
        "name": "池田病院",
        "url": "http://www.ikeda-hp.com",
        "beds": "189",
        "address": "鹿屋市下祓川町1830",
        "tel": "0994-43-3434",
        "lat": "31.412956",
        "lon": "130.850442"
    },
    {
        "id": "16",
        "type": "医療法人",
        "name": "指宿さがら病院",
        "url": "http://ibusuki-sagara.jp/",
        "beds": "100",
        "address": "指宿市湯の浜1-11-29",
        "tel": "0993-22-3079",
        "lat": "31.236204",
        "lon": "130.644005"
    },
    {
        "id": "17",
        "type": "医療法人",
        "name": "大勝病院",
        "url": "http://ookatsu.jp/",
        "beds": "260",
        "address": "鹿児島市真砂本町3-95",
        "tel": "099-253-1122",
        "lat": "31.557323",
        "lon": "130.548512"
    },
    {
        "id": "18",
        "type": "医療法人",
        "name": "大隅鹿屋病院",
        "url": "http://www.kanoya-aishinkai.com/",
        "beds": "391",
        "address": "鹿屋市新川町6081-1",
        "tel": "0994-40-1111",
        "lat": "31.376393",
        "lon": "130.860962"
    },
    {
        "id": "19",
        "type": "医療法人",
        "name": "鹿児島徳洲会病院",
        "url": "http://www/kagotoku.jp",
        "beds": "310",
        "address": "鹿児島市下荒田3-8-1",
        "tel": "099-250-1110",
        "lat": "31.57171",
        "lon": "130.55571"
    },
    {
        "id": "20",
        "type": "医療法人",
        "name": "加治木温泉病院",
        "url": "http://www.gyokushoukai.com/",
        "beds": "270",
        "address": "姶良市加治木町木田4714",
        "tel": "0995-62-0001",
        "lat": "31.749879",
        "lon": "130.663017"
    },
    {
        "id": "21",
        "type": "医療法人",
        "name": "花倉病院",
        "url": "http://www.jinaikai.com/",
        "beds": "156",
        "address": "鹿児島市吉野町5147",
        "tel": "099-243-5111",
        "lat": "31.647727",
        "lon": "130.582051"
    },
    {
        "id": "22",
        "type": "医療法人",
        "name": "昭南病院",
        "url": "http://www.aisei-kai.com/",
        "beds": "154",
        "address": "曽於市大隅町下窪町1",
        "tel": "099-482-3984",
        "lat": "31.583368",
        "lon": "131.000963"
    },
    {
        "id": "23",
        "type": "医療法人",
        "name": "高田病院",
        "url": "http://www.gyokushoukai.com/",
        "beds": "179",
        "address": "鹿児島市堀江町5-1",
        "tel": "099-226-4325",
        "lat": "31.590269",
        "lon": "130.559734"
    },
    {
        "id": "24",
        "type": "医療法人",
        "name": "高原病院",
        "url": "http://www.takahara-net.or.jp/",
        "beds": "65",
        "address": "曽於市末吉町栄町2-12-1",
        "tel": "0986-76-1050",
        "lat": "31.656398",
        "lon": "131.018341"
    },
    {
        "id": "25",
        "type": "医療法人",
        "name": "財部記念病院",
        "url": "",
        "beds": "95",
        "address": "曽於市財部町南俣3619-1",
        "tel": "0986-72-1000",
        "lat": "31.704149",
        "lon": "130.962023"
    },
    {
        "id": "26",
        "type": "医療法人",
        "name": "三宅病院",
        "url": "http://www.miyake-hp.or.jp",
        "beds": "130",
        "address": "鹿児島市谷山中央7-3-1",
        "tel": "099-268-3512",
        "lat": "31.524059",
        "lon": "130.51427"
    },
    {
        "id": "27",
        "type": "特定医療法人",
        "name": "霧島杉安病院",
        "url": "http://www.kouseikai.info",
        "beds": "163",
        "address": "霧島市霧島田口2143",
        "tel": "0995-57-1221",
        "lat": "31.847534",
        "lon": "130.855681"
    },
    {
        "id": "28",
        "type": "社会医療法人",
        "name": "恒心会おぐら病院",
        "url": "http://www.koshinkai.or.jp",
        "beds": "216",
        "address": "鹿屋市笠之原町27-22",
        "tel": "0994-44-7171",
        "lat": "31.386679",
        "lon": "130.881492"
    },
    {
        "id": "29",
        "type": "社会医療法人",
        "name": "相良病院",
        "url": "http://www.sagara.or.jp/",
        "beds": "80",
        "address": "鹿児島市松原町3-31",
        "tel": "099-224-1800",
        "lat": "31.586076",
        "lon": "130.557749"
    },
    {
        "id": "30",
        "type": "社会医療法人",
        "name": "種子島医療センター",
        "url": "http://www.tanegashima-mc.jp",
        "beds": "204",
        "address": "西之表市西之表7463",
        "tel": "0997-22-0960",
        "lat": "30.736122",
        "lon": "130.999338"
    },
    {
        "id": "31",
        "type": "社会医療法人",
        "name": "米盛病院",
        "url": "http://www.yonemorihp.jp/",
        "beds": "305",
        "address": "鹿児島市与次郎1-7-1",
        "tel": "099-230-0100",
        "lat": "31.570641",
        "lon": "130.562733"
    },
    {
        "id": "32",
        "type": "社会福祉法人",
        "name": "オレンジ学園",
        "url": "http://www.sfc-tachibanakai.or.jp/orange",
        "beds": "196",
        "address": "霧島市福山町福山838",
        "tel": "0995-55-2121",
        "lat": "31.655553",
        "lon": "130.824358"
    },
    {
        "id": "33",
        "type": "医療生協",
        "name": "総合病院　鹿児島生協病院",
        "url": "http://www.kaseikyohp.jp",
        "beds": "306",
        "address": "鹿児島市谷山中央5-20-10",
        "tel": "0992-67-1455",
        "lat": "31.517802",
        "lon": "130.513457"
    }
]