[
    {
        "id": "1",
        "type": "都道府県",
        "name": "沖縄県立中部病院",
        "url": "https://chubuweb.hosp.pref.okinawa.jp/",
        "beds": "559",
        "address": "うるま市宮里281",
        "tel": "098-973-4111",
        "lat": "26.354635",
        "lon": "127.834831"
    },
    {
        "id": "2",
        "type": "都道府県",
        "name": "沖縄県立南部医療センター・こども医療センター",
        "url": "http://www.hosp.pref.okinawa.jp/nanbu/",
        "beds": "434",
        "address": "南風原町字新川118-1",
        "tel": "098-888-0123",
        "lat": "26.205863",
        "lon": "127.723734"
    },
    {
        "id": "3",
        "type": "都道府県",
        "name": "沖縄県立北部病院",
        "url": "http://www.hosp.pref.okinawa.jp/hokubu/",
        "beds": "327",
        "address": "名護市大中2-12-3",
        "tel": "0980-52-2719",
        "lat": "26.592307",
        "lon": "127.986165"
    },
    {
        "id": "4",
        "type": "都道府県",
        "name": "沖縄県立宮古病院",
        "url": "http://www.hosp.pref.okinawa.jp/miyako/",
        "beds": "305",
        "address": "宮古島市平良字下里427-1",
        "tel": "0980-72-3151",
        "lat": "24.799357",
        "lon": "125.276335"
    },
    {
        "id": "5",
        "type": "都道府県",
        "name": "沖縄県立八重山病院",
        "url": "http://yaeyamaweb.hosp.pref.okinawa.jp/",
        "beds": "302",
        "address": "石垣市字真栄里584-1",
        "tel": "0980-87-5557",
        "lat": "24.34348",
        "lon": "124.18386"
    },
    {
        "id": "6",
        "type": "地方独立行政法人",
        "name": "那覇市立病院",
        "url": "http://www.nch.naha.okinawa.jp/",
        "beds": "470",
        "address": "那覇市古島２丁目３１－１",
        "tel": "098-884-5111",
        "lat": "26.226856",
        "lon": "127.709831"
    },
    {
        "id": "7",
        "type": "日赤",
        "name": "沖縄赤十字病院",
        "url": "http://www.okinawa-rch.jp/",
        "beds": "302",
        "address": "那覇市与儀1-3-1",
        "tel": "098-853-3134",
        "lat": "26.206996",
        "lon": "127.692639"
    },
    {
        "id": "8",
        "type": "医療法人",
        "name": "大浜第一病院",
        "url": "http://www.omotokai.or.jp/ohama1/",
        "beds": "214",
        "address": "那覇市天久1000",
        "tel": "098-866-5171",
        "lat": "26.23456",
        "lon": "127.684127"
    },
    {
        "id": "9",
        "type": "医療法人",
        "name": "沖縄リハビリテーションセンター病院",
        "url": "http://www.tapic-reha.or.jp/",
        "beds": "199",
        "address": "沖縄市比屋根2-15-1",
        "tel": "098-982-1777",
        "lat": "26.31457",
        "lon": "127.824156"
    },
    {
        "id": "10",
        "type": "医療法人",
        "name": "大道中央病院",
        "url": "http://www.youshinkai.jp/",
        "beds": "224",
        "address": "那覇市安里1-1-37",
        "tel": "098-869-0005",
        "lat": "26.219352",
        "lon": "127.692742"
    },
    {
        "id": "11",
        "type": "医療法人",
        "name": "ちゅうざん病院",
        "url": "http://www.chuzan.or.jp",
        "beds": "216",
        "address": "沖縄市松本6-2-1",
        "tel": "098-982-1346",
        "lat": "26.354642",
        "lon": "127.80982"
    },
    {
        "id": "12",
        "type": "特定医療法人",
        "name": "南部徳洲会病院",
        "url": "http://www.nantoku.org",
        "beds": "345",
        "address": "島尻郡八重瀬町字外間171-1",
        "tel": "098-998-3221",
        "lat": "26.178348",
        "lon": "127.715544"
    },
    {
        "id": "13",
        "type": "社会医療法人",
        "name": "豊見城中央病院",
        "url": "https://tomishiro-chp.jp/",
        "beds": "378",
        "address": "豊見城市上田25",
        "tel": "098-850-3811",
        "lat": "26.175845",
        "lon": "127.676574"
    },
    {
        "id": "14",
        "type": "社会医療法人",
        "name": "中頭病院",
        "url": "http://www.nakagami.or.jp/",
        "beds": "355",
        "address": "沖縄市字登川610",
        "tel": "098-939-1300",
        "lat": "26.366669",
        "lon": "127.825256"
    },
    {
        "id": "15",
        "type": "社会医療法人",
        "name": "ハートライフ病院",
        "url": "http://www.heartlife.or.jp",
        "beds": "308",
        "address": "中頭郡中城村伊集208",
        "tel": "098-895-3255",
        "lat": "26.237873",
        "lon": "127.770847"
    },
    {
        "id": "16",
        "type": "医療生協",
        "name": "沖縄協同病院",
        "url": "http://oki-kyo.jp/",
        "beds": "280",
        "address": "那覇市古波蔵4-10-55",
        "tel": "098-853-1200",
        "lat": "26.195937",
        "lon": "127.689999"
    }
]