[
    {
        "id": "1",
        "type": "独立行政法人国立病院機構",
        "name": "あきた病院",
        "url": "http://akitahp.jp/AkitaHP_top.html",
        "beds": "340",
        "address": "由利本荘市岩城内道川字井戸ノ沢84-40",
        "tel": "0184-73-2002",
        "lat": "39.560891",
        "lon": "140.059091"
    },
    {
        "id": "2",
        "type": "市町村",
        "name": "羽後町立羽後病院",
        "url": "http://www.ugo-h.jp",
        "beds": "168",
        "address": "雄勝郡羽後町西馬音内字大戸道44-5",
        "tel": "0183-62-1111",
        "lat": "39.196374",
        "lon": "140.407664"
    },
    {
        "id": "3",
        "type": "市町村",
        "name": "大館市立総合病院",
        "url": "http://www.odate-hp.odate.akita.jp",
        "beds": "443",
        "address": "大館市豊町3-1",
        "tel": "0186-42-5370",
        "lat": "40.273527",
        "lon": "140.55504"
    },
    {
        "id": "4",
        "type": "市町村",
        "name": "男鹿みなと市民病院",
        "url": "http://www.ogaminato.jp/",
        "beds": "145",
        "address": "男鹿市船川港船川字海岸通り1号8-6",
        "tel": "0185-23-2221",
        "lat": "39.88249",
        "lon": "139.852931"
    },
    {
        "id": "5",
        "type": "市町村",
        "name": "市立角館総合病院",
        "url": "http://kakunodate-hp.com/",
        "beds": "206",
        "address": "仙北市角館町岩瀬3",
        "tel": "0187-54-2111",
        "lat": "39.586754",
        "lon": "140.559742"
    },
    {
        "id": "6",
        "type": "市町村",
        "name": "市立田沢湖病院",
        "url": "http://www.hana.or.jp/~thos/",
        "beds": "60",
        "address": "仙北市田沢湖生保内字浮世坂17-1",
        "tel": "0187-43-1131",
        "lat": "39.698517",
        "lon": "140.721479"
    },
    {
        "id": "7",
        "type": "市町村",
        "name": "市立横手病院",
        "url": "http://www.yokote-mhp.jp/",
        "beds": "229",
        "address": "横手市根岸町5-31",
        "tel": "0182-32-5001",
        "lat": "39.318504",
        "lon": "140.569185"
    },
    {
        "id": "8",
        "type": "地方独立行政法人",
        "name": "秋田県立循環器・脳脊髄センター",
        "url": "http://www.akita-noken.jp/pc/",
        "beds": "184",
        "address": "秋田市千秋久保田町6-10",
        "tel": "018-833-0115",
        "lat": "39.720337",
        "lon": "140.12711"
    },
    {
        "id": "9",
        "type": "地方独立行政法人",
        "name": "市立秋田総合病院",
        "url": "http://akita-city-hospital.jp/",
        "beds": "456",
        "address": "秋田市川元松丘町4-30",
        "tel": "018-823-4171",
        "lat": "39.712865",
        "lon": "140.102744"
    },
    {
        "id": "10",
        "type": "日赤",
        "name": "秋田赤十字病院",
        "url": "http://www.akita-med.jrc.or.jp/",
        "beds": "480",
        "address": "秋田市上北手猿田字苗代沢222-1",
        "tel": "018-829-5000",
        "lat": "39.686876",
        "lon": "140.152804"
    },
    {
        "id": "11",
        "type": "厚生連",
        "name": "秋田厚生医療センター",
        "url": "http://akikumihsp.com",
        "beds": "479",
        "address": "秋田市飯島西袋1-1-1",
        "tel": "018-880-3000",
        "lat": "39.767712",
        "lon": "140.093119"
    },
    {
        "id": "12",
        "type": "厚生連",
        "name": "大曲厚生医療センター",
        "url": "http://www.okmc.jp/",
        "beds": "437",
        "address": "大仙市大曲通町8-65",
        "tel": "0187-63-2111",
        "lat": "39.465117",
        "lon": "140.476214"
    },
    {
        "id": "13",
        "type": "厚生連",
        "name": "雄勝中央病院",
        "url": "http://www.ogachi-hsp.jp",
        "beds": "366",
        "address": "湯沢市山田字勇ヶ岡25",
        "tel": "0183-73-5000",
        "lat": "39.145274",
        "lon": "140.455405"
    },
    {
        "id": "14",
        "type": "厚生連",
        "name": "かづの厚生病院",
        "url": "http://www.hspkazuno.kazuno.akita.jp/",
        "beds": "199",
        "address": "鹿角市花輪字向畑18",
        "tel": "0186-23-2111",
        "lat": "40.21909",
        "lon": "140.785385"
    },
    {
        "id": "15",
        "type": "厚生連",
        "name": "北秋田市民病院",
        "url": "http://www.kitaakita-hp.jp/",
        "beds": "320",
        "address": "北秋田市下杉字上清水沢16-29",
        "tel": "0186-62-7001",
        "lat": "40.16747",
        "lon": "140.356141"
    },
    {
        "id": "16",
        "type": "厚生連",
        "name": "湖東厚生病院",
        "url": "http://www.koto-ghp.jp/",
        "beds": "100",
        "address": "南秋田郡八郎潟町川崎字貝保98-1",
        "tel": "018-875-2100",
        "lat": "39.945896",
        "lon": "140.102469"
    },
    {
        "id": "17",
        "type": "厚生連",
        "name": "能代厚生医療センター",
        "url": "http://yamamoto-hosp.noshiro.akita.jp/",
        "beds": "456",
        "address": "能代市落合字上前田地内",
        "tel": "0185-52-3111",
        "lat": "40.226693",
        "lon": "140.023042"
    },
    {
        "id": "18",
        "type": "厚生連",
        "name": "平鹿総合病院",
        "url": "http://www.hiraka-hp.yokote.akita.jp/",
        "beds": "586",
        "address": "横手市前郷字八ツ口3-1",
        "tel": "0182-32-5121",
        "lat": "39.312739",
        "lon": "140.549138"
    },
    {
        "id": "19",
        "type": "厚生連",
        "name": "由利組合総合病院",
        "url": "http://www.yuri-hospital.honjo.akita.jp/",
        "beds": "606",
        "address": "由利本荘市川口字家後38",
        "tel": "0184-27-1200",
        "lat": "39.404744",
        "lon": "140.060991"
    },
    {
        "id": "20",
        "type": "医療法人",
        "name": "秋田緑ヶ丘病院",
        "url": "http://www.kyusei.or.jp",
        "beds": "380",
        "address": "秋田市飯島字堀川84",
        "tel": "018-845-2161",
        "lat": "39.79015",
        "lon": "140.061197"
    },
    {
        "id": "21",
        "type": "医療法人",
        "name": "佐藤病院",
        "url": "http://satohospital.jp/",
        "beds": "137",
        "address": "由利本荘市小人町117-3",
        "tel": "0184-22-6555",
        "lat": "39.380213",
        "lon": "140.047139"
    },
    {
        "id": "22",
        "type": "特定医療法人",
        "name": "藤原記念病院",
        "url": "http://www.fujiwarahsp.or.jp/",
        "beds": "140",
        "address": "潟上市天王字上江川47",
        "tel": "018-878-3131",
        "lat": "39.882672",
        "lon": "139.988034"
    },
    {
        "id": "23",
        "type": "社会医療法人",
        "name": "中通総合病院",
        "url": "http://www.meiwakai.or.jp/nakadori/",
        "beds": "450",
        "address": "秋田市南通みその町3-15",
        "tel": "018-833-1122",
        "lat": "39.71081",
        "lon": "140.123002"
    },
    {
        "id": "24",
        "type": "社会医療法人",
        "name": "本荘第一病院",
        "url": "http://www.honjodaiichihp.com",
        "beds": "158",
        "address": "由利本荘市岩渕下110",
        "tel": "0184-22-0111",
        "lat": "39.3927",
        "lon": "140.051291"
    },
    {
        "id": "25",
        "type": "その他法人",
        "name": "能代山本医師会病院",
        "url": "http://ny-ishikaihp.jp/",
        "beds": "200",
        "address": "能代市桧山字新田沢105-11",
        "tel": "0185-58-3311",
        "lat": "40.17789",
        "lon": "140.073551"
    }
]