[
    {
        "id": "1",
        "type": "都道府県",
        "name": "山形県立河北病院",
        "url": "http://www.kahoku-hospital.jp",
        "beds": "186",
        "address": "西村山郡河北町谷地字月山堂111",
        "tel": "0237-73-3131",
        "lat": "38.414307",
        "lon": "140.308641"
    },
    {
        "id": "2",
        "type": "都道府県",
        "name": "山形県立こころの医療センター",
        "url": "http://cocorohosp-yamagata.jp/",
        "beds": "213",
        "address": "鶴岡市茅原字草見鶴51-1",
        "tel": "0235-64-8100",
        "lat": "38.756747",
        "lon": "139.841842"
    },
    {
        "id": "3",
        "type": "都道府県",
        "name": "山形県立新庄病院",
        "url": "http://www.ysh.pref.yamagata.jp",
        "beds": "454",
        "address": "新庄市若葉町12-55",
        "tel": "0233-22-5525",
        "lat": "38.758416",
        "lon": "140.302337"
    },
    {
        "id": "4",
        "type": "都道府県",
        "name": "山形県立中央病院",
        "url": "http://www.ypch.gr.jp/",
        "beds": "609",
        "address": "山形市青柳1800",
        "tel": "023-685-2626",
        "lat": "38.300198",
        "lon": "140.346169"
    },
    {
        "id": "5",
        "type": "市町村",
        "name": "公立置賜総合病院",
        "url": "http://www.okitama-hp.or.jp/",
        "beds": "520",
        "address": "東置賜郡川西町大字西大塚2000",
        "tel": "0238-46-5000",
        "lat": "38.050986",
        "lon": "140.056739"
    },
    {
        "id": "6",
        "type": "市町村",
        "name": "寒河江市立病院",
        "url": "http://www.city.sagae.yamagata.jp/hospital/hospital/",
        "beds": "98",
        "address": "寒河江市大字寒河江字塩水80",
        "tel": "0237-86-2101",
        "lat": "38.377602",
        "lon": "140.263472"
    },
    {
        "id": "7",
        "type": "市町村",
        "name": "鶴岡市立荘内病院",
        "url": "http://www.shonai-hos.jp/",
        "beds": "521",
        "address": "鶴岡市泉町4-20",
        "tel": "0235-26-5111",
        "lat": "38.731761",
        "lon": "139.829446"
    },
    {
        "id": "8",
        "type": "市町村",
        "name": "天童市民病院",
        "url": "http://www.tendo-city-hospital.jp",
        "beds": "84",
        "address": "天童市駅西五丁目２番１号",
        "tel": "023-654-2511",
        "lat": "38.354862",
        "lon": "140.362747"
    },
    {
        "id": "9",
        "type": "市町村",
        "name": "山形市立病院済生館",
        "url": "https://www.saiseikan.jp/",
        "beds": "528",
        "address": "山形市七日町1-3-26",
        "tel": "023-625-5555",
        "lat": "38.252669",
        "lon": "140.337352"
    },
    {
        "id": "10",
        "type": "市町村",
        "name": "米沢市立病院",
        "url": "http://yonezawa-city-hospital.jp",
        "beds": "322",
        "address": "米沢市相生町6-36",
        "tel": "0238-22-2450",
        "lat": "37.904808",
        "lon": "140.119476"
    },
    {
        "id": "11",
        "type": "地方独立行政法人",
        "name": "日本海総合病院",
        "url": "http://www.nihonkai-hos.jp/hospital/",
        "beds": "634",
        "address": "酒田市あきほ町30",
        "tel": "0234-26-2001",
        "lat": "38.890516",
        "lon": "139.853837"
    },
    {
        "id": "12",
        "type": "済生会",
        "name": "山形済生病院",
        "url": "http://www.ameria.org",
        "beds": "473",
        "address": "山形市沖町79-1",
        "tel": "023-682-1111",
        "lat": "38.284398",
        "lon": "140.334605"
    },
    {
        "id": "13",
        "type": "共済組合及び連合会",
        "name": "東北中央病院",
        "url": "https://www.tohoku-ctr-hsp.com/",
        "beds": "252",
        "address": "山形市和合町3-2-5",
        "tel": "023-623-5111",
        "lat": "38.259218",
        "lon": "140.361654"
    },
    {
        "id": "14",
        "type": "医療法人",
        "name": "篠田総合病院",
        "url": "http://www.shinoda-hp.or.jp/",
        "beds": "383",
        "address": "山形市桜町2-68",
        "tel": "023-623-1711",
        "lat": "38.251648",
        "lon": "140.331254"
    },
    {
        "id": "15",
        "type": "医療法人",
        "name": "庄内余目病院",
        "url": "http://www.amarume-hp.jp/",
        "beds": "324",
        "address": "東田川郡庄内町松陽1-1-1",
        "tel": "0234-43-3434",
        "lat": "38.85197",
        "lon": "139.895692"
    },
    {
        "id": "16",
        "type": "医療法人",
        "name": "新庄徳洲会病院",
        "url": "http://www.shin-toku.com",
        "beds": "270",
        "address": "新庄市大字鳥越字駒場4623",
        "tel": "0233-23-3434",
        "lat": "38.7406",
        "lon": "140.312716"
    },
    {
        "id": "17",
        "type": "社会医療法人",
        "name": "みゆき会病院",
        "url": "http://www.miyuki.or.jp/",
        "beds": "183",
        "address": "上山市弁天2-2-11",
        "tel": "023-672-8282",
        "lat": "38.169156",
        "lon": "140.29229"
    },
    {
        "id": "18",
        "type": "医療生協",
        "name": "鶴岡協立病院",
        "url": "http://y-mcoop.com/hospital/",
        "beds": "199",
        "address": "鶴岡市文園町9-34",
        "tel": "0235-23-6060",
        "lat": "38.714124",
        "lon": "139.827605"
    },
    {
        "id": "19",
        "type": "その他法人",
        "name": "三友堂病院",
        "url": "http://www.sanyudo.or.jp",
        "beds": "187",
        "address": "米沢市中央6-1-219",
        "tel": "0238-24-3700",
        "lat": "37.918891",
        "lon": "140.105666"
    }
]