[
    {
        "id": "1",
        "type": "独立行政法人国立病院機構",
        "name": "いわき病院",
        "url": "http://iwaki-hosp.jp/",
        "beds": "154",
        "address": "いわき市小名浜野田字八合88-1",
        "tel": "0246-88-7101",
        "lat": "36.982473",
        "lon": "140.877179"
    },
    {
        "id": "2",
        "type": "独立行政法人労働者健康安全機構",
        "name": "福島労災病院",
        "url": "http://www.fukushimah.johas.go.jp/",
        "beds": "406",
        "address": "いわき市内郷綴町沼尻3",
        "tel": "0246-26-1111",
        "lat": "37.040281",
        "lon": "140.865408"
    },
    {
        "id": "3",
        "type": "独立行政法人地域医療機能推進機構",
        "name": "二本松病院",
        "url": "http://nihonmatsu.jcho.go.jp/",
        "beds": "160",
        "address": "二本松市成田町1-553",
        "tel": "0243-23-1231",
        "lat": "37.590413",
        "lon": "140.422175"
    },
    {
        "id": "4",
        "type": "市町村",
        "name": "いわき市医療センター",
        "url": "http://iwaki-city-medical.center.jp/",
        "beds": "700",
        "address": "いわき市内郷御厩町久世原16",
        "tel": "0246-26-3151",
        "lat": "37.041549",
        "lon": "140.867213"
    },
    {
        "id": "5",
        "type": "市町村",
        "name": "公立相馬総合病院",
        "url": "http://www.bb.soma.or.jp/~psghjim1/",
        "beds": "198",
        "address": "相馬市新沼字坪ケ迫142",
        "tel": "0244-36-5101",
        "lat": "37.811207",
        "lon": "140.921842"
    },
    {
        "id": "6",
        "type": "市町村",
        "name": "公立藤田総合病院",
        "url": "http://www.fujita-hp.jp",
        "beds": "311",
        "address": "伊達郡国見町塚野目字三本木14",
        "tel": "024-585-2121",
        "lat": "37.872721",
        "lon": "140.540328"
    },
    {
        "id": "7",
        "type": "地方独立行政法人",
        "name": "福島県立医科大学会津医療センター附属病院",
        "url": "http://www.fmu.ac.jp/amc/",
        "beds": "226",
        "address": "会津若松市河東町谷沢字前田21-2",
        "tel": "0242-75-2100",
        "lat": "37.552254",
        "lon": "139.907544"
    },
    {
        "id": "8",
        "type": "日赤",
        "name": "福島赤十字病院",
        "url": "http://www.fukushima-med-jrc.jp/",
        "beds": "296",
        "address": "福島市八島町7-7",
        "tel": "024-534-6101",
        "lat": "37.769178",
        "lon": "140.483791"
    },
    {
        "id": "9",
        "type": "済生会",
        "name": "済生会川俣病院",
        "url": "http://www.kawamata.saiseikai.or.jp/",
        "beds": "90",
        "address": "伊達郡川俣町大字鶴沢字川端2-4",
        "tel": "024-566-2323",
        "lat": "37.664181",
        "lon": "140.596008"
    },
    {
        "id": "10",
        "type": "済生会",
        "name": "済生会福島総合病院",
        "url": "http://www.saisei.ecnet.jp/",
        "beds": "216",
        "address": "福島市大森字下原田25",
        "tel": "024-544-5171",
        "lat": "37.723594",
        "lon": "140.444783"
    },
    {
        "id": "11",
        "type": "厚生連",
        "name": "白河厚生総合病院",
        "url": "http://www.shirakawa-kosei.jp",
        "beds": "471",
        "address": "白河市豊地上弥次郎2-1",
        "tel": "0248-22-2211",
        "lat": "37.145502",
        "lon": "140.215269"
    },
    {
        "id": "12",
        "type": "厚生連",
        "name": "塙厚生病院",
        "url": "https://www.hanawa-fkousei.jp/",
        "beds": "303",
        "address": "東白川郡塙町塙字大町1-5",
        "tel": "0247-43-1145",
        "lat": "36.960169",
        "lon": "140.407887"
    },
    {
        "id": "13",
        "type": "公益法人",
        "name": "会田病院",
        "url": "http://www.aida-hp.or.jp/",
        "beds": "193",
        "address": "西白河郡矢吹町本町216",
        "tel": "0248-42-2121",
        "lat": "37.208917",
        "lon": "140.324936"
    },
    {
        "id": "14",
        "type": "公益法人",
        "name": "北福島医療センター",
        "url": "http://www.jinsenkai.or.jp/kitafukushima/",
        "beds": "226",
        "address": "伊達市箱崎東23-1",
        "tel": "024-551-0551",
        "lat": "37.818137",
        "lon": "140.520708"
    },
    {
        "id": "15",
        "type": "公益法人",
        "name": "寿泉堂綜合病院",
        "url": "http://www.jusendo.or.jp",
        "beds": "305",
        "address": "郡山市駅前1-1-17",
        "tel": "024-932-6363",
        "lat": "37.396258",
        "lon": "140.385329"
    },
    {
        "id": "16",
        "type": "公益法人",
        "name": "長春館病院",
        "url": "http://www.matsumura-ghp.or.jp/choshunkanHP/choshunkan-top.html",
        "beds": "168",
        "address": "いわき市平藤間字川前63-2",
        "tel": "0246-39-3090",
        "lat": "37.035692",
        "lon": "140.970893"
    },
    {
        "id": "17",
        "type": "公益法人",
        "name": "針生ヶ丘病院",
        "url": "http://www.k-washinkai.or.jp/haryu/",
        "beds": "407",
        "address": "郡山市大槻町字天正坦11",
        "tel": "024-932-0201",
        "lat": "37.386227",
        "lon": "140.349113"
    },
    {
        "id": "18",
        "type": "公益法人",
        "name": "雲雀ヶ丘病院",
        "url": "http://www.k-washinkai.or.jp/hibari/",
        "beds": "254",
        "address": "南相馬市原町区上町1-30",
        "tel": "0244-23-4166",
        "lat": "37.630576",
        "lon": "140.95122"
    },
    {
        "id": "19",
        "type": "公益法人",
        "name": "星総合病院",
        "url": "http://www.hoshipital.jp/",
        "beds": "430",
        "address": "郡山市向河原町159-1",
        "tel": "024-983-5511",
        "lat": "37.402439",
        "lon": "140.392714"
    },
    {
        "id": "20",
        "type": "公益法人",
        "name": "松村総合病院",
        "url": "http://www.matsumura-ghp.or.jp/matsumuraGHP/matsumura-top.html",
        "beds": "206",
        "address": "いわき市平字小太郎町1-1",
        "tel": "0246-23-2161",
        "lat": "37.052535",
        "lon": "140.891888"
    },
    {
        "id": "21",
        "type": "医療法人",
        "name": "飯塚病院",
        "url": "http://www.sakuunkai.or.jp/iizuka",
        "beds": "410",
        "address": "喜多方市松山町村松字北原3634-1",
        "tel": "0241-24-3421",
        "lat": "37.681467",
        "lon": "139.869047"
    },
    {
        "id": "22",
        "type": "医療法人",
        "name": "磐城中央病院",
        "url": "http://www.shouyoukai.or.jp",
        "beds": "60",
        "address": "いわき市小名浜南富岡字富士前41",
        "tel": "0246-53-2267",
        "lat": "36.958704",
        "lon": "140.88129"
    },
    {
        "id": "23",
        "type": "医療法人",
        "name": "いわき湯本病院",
        "url": "http://iwakiyumoto-hp.or.jp/",
        "beds": "154",
        "address": "いわき市常磐湯本町台山6",
        "tel": "0246-42-3188",
        "lat": "37.011",
        "lon": "140.849737"
    },
    {
        "id": "24",
        "type": "医療法人",
        "name": "かしま病院",
        "url": "http://www.kashima.jp",
        "beds": "232",
        "address": "いわき市鹿島町下蔵持字中沢目22-1",
        "tel": "0246-58-8010",
        "lat": "36.992946",
        "lon": "140.911182"
    },
    {
        "id": "25",
        "type": "医療法人",
        "name": "呉羽総合病院",
        "url": "http://www.kureha-hosp.jp/",
        "beds": "199",
        "address": "いわき市錦町落合1-1",
        "tel": "0246-63-2181",
        "lat": "36.899914",
        "lon": "140.782552"
    },
    {
        "id": "26",
        "type": "医療法人",
        "name": "福島西部病院",
        "url": "http://www.keiai-kai.com/seibu/",
        "beds": "99",
        "address": "福島市東中央3-15",
        "tel": "024-533-2121",
        "lat": "37.762125",
        "lon": "140.437247"
    },
    {
        "id": "27",
        "type": "医療法人",
        "name": "枡記念病院",
        "url": "http://www.masu-med.or.jp/masu_memorial",
        "beds": "216",
        "address": "二本松市住吉100",
        "tel": "0243-22-3100",
        "lat": "37.554914",
        "lon": "140.403821"
    },
    {
        "id": "28",
        "type": "医療法人",
        "name": "松尾病院",
        "url": "http://matsuo-iwaki.or.jp/",
        "beds": "199",
        "address": "いわき市平字愛谷町4-1-4",
        "tel": "0246-22-4421",
        "lat": "37.051583",
        "lon": "140.907441"
    },
    {
        "id": "29",
        "type": "社会医療法人",
        "name": "あづま脳神経外科病院",
        "url": "http://www.azumanh.or.jp",
        "beds": "168",
        "address": "福島市大森字柳下16-1",
        "tel": "024-546-3911",
        "lat": "37.739669",
        "lon": "140.445177"
    },
    {
        "id": "30",
        "type": "その他法人",
        "name": "会津中央病院",
        "url": "http://www.onchikai.jp",
        "beds": "713",
        "address": "会津若松市鶴賀町1-1",
        "tel": "0242-25-1515",
        "lat": "37.521936",
        "lon": "139.944862"
    },
    {
        "id": "31",
        "type": "その他法人",
        "name": "太田熱海病院",
        "url": "http://www.ohta-hp.or.jp/n_atami/a-top.htm",
        "beds": "399",
        "address": "郡山市熱海町熱海5-240",
        "tel": "024-984-0088",
        "lat": "37.486361",
        "lon": "140.263506"
    },
    {
        "id": "32",
        "type": "その他法人",
        "name": "大原医療センター",
        "url": "http://www.ohara-hp.or.jp/iryou/",
        "beds": "190",
        "address": "福島市鎌田字中江33",
        "tel": "024-554-2001",
        "lat": "37.796593",
        "lon": "140.47749"
    },
    {
        "id": "33",
        "type": "その他法人",
        "name": "大原綜合病院",
        "url": "http://www.ohara-hp.or.jp/ohara/",
        "beds": "353",
        "address": "福島市上町6-1",
        "tel": "024-526-0300",
        "lat": "37.753198",
        "lon": "140.468382"
    },
    {
        "id": "34",
        "type": "その他法人",
        "name": "竹田綜合病院",
        "url": "http://www.takeda.or.jp/",
        "beds": "837",
        "address": "会津若松市山鹿町3-27",
        "tel": "0242-27-5511",
        "lat": "37.490038",
        "lon": "139.922569"
    },
    {
        "id": "35",
        "type": "その他法人",
        "name": "附属太田西ノ内病院",
        "url": "https://www.ohta-hp.or.jp/n_nishi/n_top.htm",
        "beds": "1086",
        "address": "郡山市西ノ内2-5-20",
        "tel": "024-925-1188",
        "lat": "37.406532",
        "lon": "140.366008"
    },
    {
        "id": "36",
        "type": "その他法人",
        "name": "附属　総合南東北病院",
        "url": "http://www.minamitohoku.or.jp",
        "beds": "461",
        "address": "郡山市八山田七丁目115番地",
        "tel": "024-934-5322",
        "lat": "37.423105",
        "lon": "140.383278"
    }
]