[
    {
        "id": "1",
        "type": "独立行政法人国立病院機構",
        "name": "茨城東病院",
        "url": "http://www.ibarakihigashi-hospital.jp/",
        "beds": "346",
        "address": "那珂郡東海村照沼825",
        "tel": "029-282-1151",
        "lat": "36.437615",
        "lon": "140.595232"
    },
    {
        "id": "2",
        "type": "独立行政法人国立病院機構",
        "name": "霞ヶ浦医療センター",
        "url": "http://kasumi-hosp.jp/",
        "beds": "250",
        "address": "土浦市下高津2-7-14",
        "tel": "029-822-5050",
        "lat": "36.072949",
        "lon": "140.192823"
    },
    {
        "id": "3",
        "type": "独立行政法人国立病院機構",
        "name": "水戸医療センター",
        "url": "http://www.hosp.go.jp/~mito-mc/",
        "beds": "500",
        "address": "東茨城郡茨城町桜の郷280",
        "tel": "029-240-7711",
        "lat": "36.324115",
        "lon": "140.40926"
    },
    {
        "id": "4",
        "type": "国立大学法人",
        "name": "筑波大学附属病院",
        "url": "http://www.hosp.tsukuba.ac.jp/",
        "beds": "800",
        "address": "つくば市天久保2-1-1",
        "tel": "029-853-3900",
        "lat": "36.092487",
        "lon": "140.101107"
    },
    {
        "id": "5",
        "type": "都道府県",
        "name": "茨城県立こども病院",
        "url": "http://ibaraki-kodomo.com/",
        "beds": "115",
        "address": "水戸市双葉台3-3-1",
        "tel": "0292-54-1151",
        "lat": "36.399217",
        "lon": "140.394024"
    },
    {
        "id": "6",
        "type": "都道府県",
        "name": "茨城県立中央病院",
        "url": "http://www.hospital.pref.ibaraki.jp/chuo/",
        "beds": "500",
        "address": "笠間市鯉淵6528",
        "tel": "0296-77-1121",
        "lat": "36.350799",
        "lon": "140.31924"
    },
    {
        "id": "7",
        "type": "市町村",
        "name": "北茨城市民病院",
        "url": "http://kitaibaraki.info/",
        "beds": "183",
        "address": "北茨城市関南町関本下1050",
        "tel": "0293-46-1121",
        "lat": "36.843301",
        "lon": "140.77138"
    },
    {
        "id": "8",
        "type": "市町村",
        "name": "村立東海病院",
        "url": "http://www.tokai-hp.jp/",
        "beds": "80",
        "address": "那珂郡東海村村松2081-2",
        "tel": "029-282-2188",
        "lat": "36.458726",
        "lon": "140.574313"
    },
    {
        "id": "9",
        "type": "地方独立行政法人",
        "name": "茨城県西部メディカルセンター",
        "url": "http://www.iwmo.or.jp",
        "beds": "250",
        "address": "筑西市大塚555",
        "tel": "0296-24-9111",
        "lat": "36.289565",
        "lon": "140.010328"
    },
    {
        "id": "10",
        "type": "日赤",
        "name": "古河赤十字病院",
        "url": "http://www.koga.jrc.or.jp/",
        "beds": "200",
        "address": "古河市下山町1150",
        "tel": "0280-23-7111",
        "lat": "36.188052",
        "lon": "139.722968"
    },
    {
        "id": "11",
        "type": "日赤",
        "name": "水戸赤十字病院",
        "url": "http://www.mito.jrc.or.jp",
        "beds": "442",
        "address": "水戸市三の丸3-12-48",
        "tel": "029-221-5177",
        "lat": "36.371244",
        "lon": "140.48655"
    },
    {
        "id": "12",
        "type": "済生会",
        "name": "神栖済生会病院",
        "url": "http://www.kamisusaisei.jp",
        "beds": "179",
        "address": "神栖市知手中央7-2-45",
        "tel": "0299-97-2111",
        "lat": "35.872618",
        "lon": "140.709056"
    },
    {
        "id": "13",
        "type": "済生会",
        "name": "常陸大宮済生会病院",
        "url": "http://ho-saisei.jp/",
        "beds": "160",
        "address": "常陸大宮市田子内町3033-3",
        "tel": "0295-52-5151",
        "lat": "36.559946",
        "lon": "140.400865"
    },
    {
        "id": "14",
        "type": "済生会",
        "name": "水戸済生会総合病院",
        "url": "http://www.mito-saisei.jp/",
        "beds": "472",
        "address": "水戸市双葉台3-3-10",
        "tel": "029-254-5151",
        "lat": "36.398406",
        "lon": "140.394651"
    },
    {
        "id": "15",
        "type": "済生会",
        "name": "龍ケ崎済生会病院",
        "url": "http://www.ryugasaki-hp.org",
        "beds": "210",
        "address": "龍ケ崎市中里1-1",
        "tel": "0297-63-7111",
        "lat": "35.927806",
        "lon": "140.204487"
    },
    {
        "id": "16",
        "type": "厚生連",
        "name": "茨城西南医療センター病院",
        "url": "http://www.seinan-mch.or.jp",
        "beds": "358",
        "address": "猿島郡境町2190",
        "tel": "0280-87-8111",
        "lat": "36.119008",
        "lon": "139.796199"
    },
    {
        "id": "17",
        "type": "厚生連",
        "name": "県北医療センター高萩協同病院",
        "url": "http://www.takahagi-kyodo-hp.jp",
        "beds": "199",
        "address": "高萩市大字上手綱上ヶ穂町1006-9",
        "tel": "0293-23-1122",
        "lat": "36.732796",
        "lon": "140.684255"
    },
    {
        "id": "18",
        "type": "厚生連",
        "name": "ＪＡとりで総合医療センター",
        "url": "http://www.toride-medical.or.jp/",
        "beds": "414",
        "address": "取手市本郷2-1-1",
        "tel": "0297-74-5551",
        "lat": "35.911039",
        "lon": "140.068952"
    },
    {
        "id": "19",
        "type": "厚生連",
        "name": "総合病院土浦協同病院",
        "url": "http://www.tkgh.jp",
        "beds": "800",
        "address": "土浦市おおつ野4-1-1",
        "tel": "029-830-3711",
        "lat": "36.08372",
        "lon": "140.258557"
    },
    {
        "id": "20",
        "type": "厚生連",
        "name": "総合病院水戸協同病院",
        "url": "http://www.mitokyodo-hp.jp",
        "beds": "389",
        "address": "水戸市宮町3-2-7",
        "tel": "029-231-2371",
        "lat": "36.37297",
        "lon": "140.471487"
    },
    {
        "id": "21",
        "type": "厚生連",
        "name": "土浦協同病院なめがた地域医療センタ－",
        "url": "http://www.ndgh.jp",
        "beds": "199",
        "address": "行方市井上藤井98-8",
        "tel": "0299-56-0600",
        "lat": "36.069314",
        "lon": "140.459371"
    },
    {
        "id": "22",
        "type": "共済組合及び連合会",
        "name": "水府病院",
        "url": "http://www.kkr-suifu.com/",
        "beds": "131",
        "address": "水戸市赤塚1-1",
        "tel": "029-309-5000",
        "lat": "36.382259",
        "lon": "140.414281"
    },
    {
        "id": "23",
        "type": "公益法人",
        "name": "石岡第一病院",
        "url": "http://www.ishioka1.com",
        "beds": "126",
        "address": "石岡市東府中1-7",
        "tel": "0299-22-5151",
        "lat": "36.20335",
        "lon": "140.293291"
    },
    {
        "id": "24",
        "type": "公益法人",
        "name": "鹿島病院",
        "url": "http://www.kashimahp.jp",
        "beds": "261",
        "address": "鹿嶋市平井1129-2",
        "tel": "0299-82-1271",
        "lat": "35.964581",
        "lon": "140.661908"
    },
    {
        "id": "25",
        "type": "公益法人",
        "name": "筑波メディカルセンター病院",
        "url": "http://www.tmch.or.jp/hosp/",
        "beds": "453",
        "address": "つくば市天久保1-3-1",
        "tel": "029-851-3511",
        "lat": "36.092061",
        "lon": "140.106187"
    },
    {
        "id": "26",
        "type": "公益法人",
        "name": "取手北相馬保健医療センター医師会病院",
        "url": "http://www.ishikaibyouin.or.jp/",
        "beds": "199",
        "address": "取手市野々井1926",
        "tel": "0297-78-6111",
        "lat": "35.917394",
        "lon": "140.025297"
    },
    {
        "id": "27",
        "type": "医療法人",
        "name": "会田記念リハビリテーション病院",
        "url": "http://www.aida-hp.jp",
        "beds": "178",
        "address": "守谷市同地字仲山360",
        "tel": "0297-48-6111",
        "lat": "35.953555",
        "lon": "140.017514"
    },
    {
        "id": "28",
        "type": "医療法人",
        "name": "いちはら病院",
        "url": "http://www.ichihara-hospital.or.jp",
        "beds": "199",
        "address": "つくば市大曽根3681",
        "tel": "029-864-0303",
        "lat": "36.138909",
        "lon": "140.079332"
    },
    {
        "id": "29",
        "type": "医療法人",
        "name": "牛久愛和総合病院",
        "url": "http://www.jojinkai.com",
        "beds": "489",
        "address": "牛久市猪子町896",
        "tel": "029-873-3111",
        "lat": "35.998623",
        "lon": "140.143716"
    },
    {
        "id": "30",
        "type": "医療法人",
        "name": "大洗海岸病院",
        "url": "http://www.watanabekai.net",
        "beds": "177",
        "address": "東茨城郡大洗町大貫町915",
        "tel": "029-267-2191",
        "lat": "36.301626",
        "lon": "140.558734"
    },
    {
        "id": "31",
        "type": "医療法人",
        "name": "川崎胃腸科肛門科病院",
        "url": "http://www.kawahp.net",
        "beds": "45",
        "address": "日立市桜川町3-3-19",
        "tel": "0294-36-1800",
        "lat": "36.561736",
        "lon": "140.63482"
    },
    {
        "id": "32",
        "type": "医療法人",
        "name": "神立病院",
        "url": "http://www.seisyuukai.com/kandatsu/",
        "beds": "160",
        "address": "土浦市神立中央5-11-2",
        "tel": "029-831-9711",
        "lat": "36.120408",
        "lon": "140.229352"
    },
    {
        "id": "33",
        "type": "医療法人",
        "name": "志村大宮病院",
        "url": "http://www.hakujinkai.com/",
        "beds": "178",
        "address": "常陸大宮市上町313",
        "tel": "0295-53-1111",
        "lat": "36.549311",
        "lon": "140.413937"
    },
    {
        "id": "34",
        "type": "医療法人",
        "name": "聖麗メモリアル病院",
        "url": "http://www.seirei-memorial.com/",
        "beds": "72",
        "address": "日立市茂宮町841番地",
        "tel": "0294-52-8500",
        "lat": "36.50297",
        "lon": "140.594712"
    },
    {
        "id": "35",
        "type": "医療法人",
        "name": "筑波記念病院",
        "url": "http://www.tsukuba-kinen.or.jp",
        "beds": "487",
        "address": "つくば市要1187-299",
        "tel": "029-864-1212",
        "lat": "36.107687",
        "lon": "140.078489"
    },
    {
        "id": "36",
        "type": "医療法人",
        "name": "筑波病院",
        "url": "http://tsukuba-hospital.jp/",
        "beds": "199",
        "address": "つくば市大角豆1761",
        "tel": "029-855-0777",
        "lat": "36.069133",
        "lon": "140.137414"
    },
    {
        "id": "37",
        "type": "医療法人",
        "name": "美浦中央病院",
        "url": "http://www.mihochu.or.jp",
        "beds": "186",
        "address": "稲敷郡美浦村宮地596",
        "tel": "029-885-3551",
        "lat": "36.003563",
        "lon": "140.316298"
    },
    {
        "id": "38",
        "type": "医療法人",
        "name": "宮本病院",
        "url": "http://www.miyamoto-hp.or.jp/",
        "beds": "417",
        "address": "稲敷市幸田1247",
        "tel": "0299-79-2114",
        "lat": "35.940316",
        "lon": "140.385813"
    },
    {
        "id": "39",
        "type": "医療法人",
        "name": "守谷慶友病院",
        "url": "http://www.keiyu.or.jp",
        "beds": "178",
        "address": "守谷市立沢980-1",
        "tel": "0297-45-3311",
        "lat": "35.953284",
        "lon": "139.978796"
    },
    {
        "id": "40",
        "type": "特定医療法人",
        "name": "つくば双愛病院",
        "url": "http://www.tsukuba-soai.com/",
        "beds": "176",
        "address": "つくば市高崎1008",
        "tel": "029-873-2511",
        "lat": "36.003909",
        "lon": "140.115985"
    },
    {
        "id": "41",
        "type": "特定医療法人",
        "name": "日鉱記念病院",
        "url": "http://www.nikko-memorial-hos.or.jp",
        "beds": "98",
        "address": "日立市神峰町2-12-8",
        "tel": "0294-24-1212",
        "lat": "36.599296",
        "lon": "140.653584"
    },
    {
        "id": "42",
        "type": "社会医療法人",
        "name": "総合守谷第一病院",
        "url": "http://www.moriya.daiichi.or.jp/",
        "beds": "199",
        "address": "守谷市松前台1-17",
        "tel": "0297-45-5111",
        "lat": "35.967311",
        "lon": "139.96705"
    },
    {
        "id": "43",
        "type": "社会医療法人",
        "name": "つくばセントラル病院",
        "url": "http://www.central.or.jp/",
        "beds": "313",
        "address": "牛久市柏田町1589-3",
        "tel": "029-872-1771",
        "lat": "35.98261",
        "lon": "140.157659"
    },
    {
        "id": "44",
        "type": "社会医療法人",
        "name": "ひたち医療センター",
        "url": "http://www.hitachi-mch.or.jp",
        "beds": "273",
        "address": "日立市鮎川町2-8-16",
        "tel": "0294-36-2551",
        "lat": "36.566235",
        "lon": "140.636989"
    },
    {
        "id": "45",
        "type": "私立学校法人",
        "name": "東京医科大学茨城医療センター",
        "url": "",
        "beds": "501",
        "address": "稲敷郡阿見町中央3-20-1",
        "tel": "029-887-1161",
        "lat": "36.036552",
        "lon": "140.216798"
    },
    {
        "id": "46",
        "type": "社会福祉法人",
        "name": "白十字総合病院",
        "url": "http://www.hakujyuji.jp/",
        "beds": "304",
        "address": "神栖市賀2148",
        "tel": "0299-92-3311",
        "lat": "35.900485",
        "lon": "140.624068"
    },
    {
        "id": "47",
        "type": "医療生協",
        "name": "城南病院",
        "url": "http://www.ibaraki-health.coop/jyunan/",
        "beds": "113",
        "address": "水戸市城南3-15-17",
        "tel": "029-226-3021",
        "lat": "36.364255",
        "lon": "140.483323"
    },
    {
        "id": "48",
        "type": "会社",
        "name": "日立総合病院",
        "url": "http://www.hitachi.co.jp/hospital/hitachi/",
        "beds": "651",
        "address": "日立市城南町2-1-1",
        "tel": "0294-23-1111",
        "lat": "36.590102",
        "lon": "140.644711"
    },
    {
        "id": "49",
        "type": "会社",
        "name": "ひたちなか総合病院",
        "url": "http://www.hitachi.co.jp/hospital/hitachinaka/",
        "beds": "302",
        "address": "ひたちなか市石川町20-1",
        "tel": "029-354-5111",
        "lat": "36.392897",
        "lon": "140.529492"
    },
    {
        "id": "50",
        "type": "その他法人",
        "name": "石岡市医師会病院",
        "url": "http://www.ishiokashi-ishikai.or.jp",
        "beds": "74",
        "address": "石岡市大砂10528-25",
        "tel": "0299-22-4321",
        "lat": "36.224971",
        "lon": "140.247706"
    },
    {
        "id": "51",
        "type": "その他法人",
        "name": "きぬ医師会病院",
        "url": "http://www.kinunet.or.jp/",
        "beds": "124",
        "address": "常総市新井木町13-3",
        "tel": "0297-23-1771",
        "lat": "36.025227",
        "lon": "139.998366"
    },
    {
        "id": "52",
        "type": "その他法人",
        "name": "筑波学園病院",
        "url": "http://www.gakuen-hospital.or.jp/",
        "beds": "331",
        "address": "つくば市上横場2573-1",
        "tel": "029-836-1355",
        "lat": "36.038251",
        "lon": "140.09762"
    },
    {
        "id": "53",
        "type": "その他法人",
        "name": "友愛記念病院",
        "url": "http://www.yuai-hosp-jp.org",
        "beds": "325",
        "address": "古河市東牛谷707",
        "tel": "0280-97-3000",
        "lat": "36.208051",
        "lon": "139.745005"
    }
]