[
    {
        "id": "1",
        "type": "独立行政法人国立病院機構",
        "name": "栃木医療センター",
        "url": "https://tochigi.hosp.go.jp/",
        "beds": "350",
        "address": "宇都宮市中戸祭1-10-37",
        "tel": "028-622-5241",
        "lat": "36.5794",
        "lon": "139.866525"
    },
    {
        "id": "2",
        "type": "独立行政法人地域医療機能推進機構",
        "name": "うつのみや病院",
        "url": "http://utsunomiya.jcho.go.jp",
        "beds": "199",
        "address": "宇都宮市南高砂町11-17",
        "tel": "028-653-1001",
        "lat": "36.482671",
        "lon": "139.871017"
    },
    {
        "id": "3",
        "type": "市町村",
        "name": "那須南病院",
        "url": "http://www.minaminasukouiki.jp/?cat=3",
        "beds": "150",
        "address": "那須烏山市中央3-2-13",
        "tel": "0287-84-3911",
        "lat": "36.660703",
        "lon": "140.152721"
    },
    {
        "id": "4",
        "type": "地方独立行政法人",
        "name": "新小山市民病院",
        "url": "http://hospital-shinoyama.jp/",
        "beds": "300",
        "address": "小山市大字神鳥谷2251-1",
        "tel": "0285-36-0200",
        "lat": "36.275458",
        "lon": "139.800093"
    },
    {
        "id": "5",
        "type": "日赤",
        "name": "足利赤十字病院",
        "url": "http://www.ashikaga.jrc.or.jp/",
        "beds": "555",
        "address": "足利市五十部町284-1",
        "tel": "0284-21-0121",
        "lat": "36.339571",
        "lon": "139.42185"
    },
    {
        "id": "6",
        "type": "日赤",
        "name": "那須赤十字病院",
        "url": "http://www.nasu.jrc.or.jp",
        "beds": "460",
        "address": "大田原市中田原1081-4",
        "tel": "0287-23-1122",
        "lat": "36.88177",
        "lon": "140.037537"
    },
    {
        "id": "7",
        "type": "日赤",
        "name": "芳賀赤十字病院",
        "url": "http://www.haga.jrc.or.jp",
        "beds": "364",
        "address": "真岡市中郷271",
        "tel": "0285-82-2195",
        "lat": "36.451602",
        "lon": "140.011897"
    },
    {
        "id": "8",
        "type": "済生会",
        "name": "済生会宇都宮病院",
        "url": "http://www.saimiya.com/",
        "beds": "644",
        "address": "宇都宮市竹林町911-1",
        "tel": "028-626-5500",
        "lat": "36.579158",
        "lon": "139.897347"
    },
    {
        "id": "9",
        "type": "厚生連",
        "name": "上都賀総合病院",
        "url": "http://www.kamituga-hp.or.jp/",
        "beds": "352",
        "address": "鹿沼市下田町1-1033",
        "tel": "0289-64-2161",
        "lat": "36.561696",
        "lon": "139.750634"
    },
    {
        "id": "10",
        "type": "厚生連",
        "name": "佐野厚生総合病院",
        "url": "http://jasanoko.or.jp",
        "beds": "531",
        "address": "佐野市堀米町1728",
        "tel": "0283-22-5222",
        "lat": "36.325121",
        "lon": "139.573464"
    },
    {
        "id": "11",
        "type": "公益法人",
        "name": "日光市民病院",
        "url": "https://www.jadecom.or.jp/jadecomhp/nikko/html/",
        "beds": "100",
        "address": "日光市清滝安良沢町1752-10",
        "tel": "0288-50-1188",
        "lat": "36.749694",
        "lon": "139.576304"
    },
    {
        "id": "12",
        "type": "医療法人",
        "name": "石橋総合病院",
        "url": "http://ishibashi-hp.jp",
        "beds": "185",
        "address": "下野市下古山1-15-4",
        "tel": "0285-53-1134",
        "lat": "36.441861",
        "lon": "139.855173"
    },
    {
        "id": "13",
        "type": "医療法人",
        "name": "今井病院",
        "url": "http://www.anz.or.jp/",
        "beds": "186",
        "address": "足利市田中町100",
        "tel": "0284-71-0181",
        "lat": "36.323718",
        "lon": "139.451008"
    },
    {
        "id": "14",
        "type": "医療法人",
        "name": "宇都宮東病院",
        "url": "http://www.hokutokai.or.jp/hospital/",
        "beds": "142",
        "address": "宇都宮市平出町368-8",
        "tel": "028-664-1551",
        "lat": "36.570913",
        "lon": "139.946999"
    },
    {
        "id": "15",
        "type": "医療法人",
        "name": "黒磯病院",
        "url": "",
        "beds": "55",
        "address": "那須塩原市高砂町3-5",
        "tel": "0287-62-0961",
        "lat": "36.973854",
        "lon": "140.053505"
    },
    {
        "id": "16",
        "type": "医療法人",
        "name": "白澤病院",
        "url": "http://shirasawa-hosp.jp/",
        "beds": "159",
        "address": "宇都宮市白沢町1813-16",
        "tel": "028-673-0011",
        "lat": "36.630756",
        "lon": "139.933491"
    },
    {
        "id": "17",
        "type": "医療法人",
        "name": "鈴木病院",
        "url": "http://www.2854.com/",
        "beds": "56",
        "address": "足利市栄町1-3412",
        "tel": "0284-21-2854",
        "lat": "36.335345",
        "lon": "139.439611"
    },
    {
        "id": "18",
        "type": "医療法人",
        "name": "那須脳神経外科病院",
        "url": "http://www.nasu-nouge.or.jp/",
        "beds": "100",
        "address": "那須塩原市野間字神沼453-14",
        "tel": "0287-62-5500",
        "lat": "36.930702",
        "lon": "140.079226"
    },
    {
        "id": "19",
        "type": "医療法人",
        "name": "野木病院",
        "url": "http://www.nogihosp.or.jp/nogi-hospital/",
        "beds": "52",
        "address": "下都賀郡野木町友沼5320-2",
        "tel": "0280-57-0578",
        "lat": "36.228715",
        "lon": "139.728401"
    },
    {
        "id": "20",
        "type": "医療法人",
        "name": "福島整形外科病院",
        "url": "https://www.f-o-h.net/",
        "beds": "60",
        "address": "那須塩原市弥生町1-10",
        "tel": "0287-62-0805",
        "lat": "36.973182",
        "lon": "140.055814"
    },
    {
        "id": "21",
        "type": "医療法人",
        "name": "本庄記念病院",
        "url": "http://www.honhp.or.jp/",
        "beds": "92",
        "address": "足利市堀込町2859",
        "tel": "0284-73-1199",
        "lat": "36.32008",
        "lon": "139.435083"
    },
    {
        "id": "22",
        "type": "社会医療法人",
        "name": "宇都宮記念病院",
        "url": "http://www.nakayamakai.com",
        "beds": "193",
        "address": "宇都宮市大通り1-3-16",
        "tel": "028-622-1991",
        "lat": "36.560635",
        "lon": "139.891397"
    },
    {
        "id": "23",
        "type": "社会医療法人",
        "name": "菅間記念病院",
        "url": "http://www.hakuai.or.jp/modules/kamma/index.html",
        "beds": "338",
        "address": "那須塩原市大黒町2-5",
        "tel": "0287-62-0733",
        "lat": "36.971332",
        "lon": "140.04948"
    },
    {
        "id": "24",
        "type": "私立学校法人",
        "name": "国際医療福祉大学病院",
        "url": "http://hospital.iuhw.ac.jp/",
        "beds": "353",
        "address": "那須塩原市井口537-3",
        "tel": "0287-37-2221",
        "lat": "36.911295",
        "lon": "139.971262"
    },
    {
        "id": "25",
        "type": "私立学校法人",
        "name": "自治医科大学附属病院",
        "url": "http://www.jichi.ac.jp/hospital/top/",
        "beds": "1132",
        "address": "下野市薬師寺3311-1",
        "tel": "0285-58-7103",
        "lat": "36.399207",
        "lon": "139.860398"
    },
    {
        "id": "26",
        "type": "私立学校法人",
        "name": "獨協医科大学病院",
        "url": "http://www.dokkyomed.ac.jp/hosp-m/",
        "beds": "1195",
        "address": "下都賀郡壬生町北小林880",
        "tel": "0282-86-1111",
        "lat": "36.472839",
        "lon": "139.823689"
    },
    {
        "id": "27",
        "type": "その他法人",
        "name": "宇都宮リハビリテーション病院",
        "url": "http://www.utsunomiyarh-hp.jp/index.php",
        "beds": "96",
        "address": "宇都宮市御幸ケ原町43-2",
        "tel": "028-662-6789",
        "lat": "36.590992",
        "lon": "139.926946"
    },
    {
        "id": "28",
        "type": "その他法人",
        "name": "新上三川病院",
        "url": "http://www.kaminokawa-hp.jp/",
        "beds": "209",
        "address": "河内郡上三川町上三川2360",
        "tel": "0285-56-7111",
        "lat": "36.435393",
        "lon": "139.920272"
    },
    {
        "id": "29",
        "type": "その他法人",
        "name": "とちぎメディカルセンターしもつが",
        "url": "https://www.tochigi-medicalcenter.or.jp/shimotsuga/",
        "beds": "307",
        "address": "栃木市大平町川連420-1",
        "tel": "0282-22-2551",
        "lat": "36.365933",
        "lon": "139.727044"
    },
    {
        "id": "30",
        "type": "その他法人",
        "name": "とちぎメディカルセンターとちのき",
        "url": "https://www.tochigi-medicalcenter.or.jp/tochinoki/",
        "beds": "250",
        "address": "栃木市大町39-5",
        "tel": "0282-22-7722",
        "lat": "36.399371",
        "lon": "139.735066"
    }
]